timestamp(unix),attitude_roll(radians),attitude_pitch(radians),attitude_yaw(radians),rotation_rate_x(radians/s),rotation_rate_y(radians/s),rotation_rate_z(radians/s),gravity_x(G),gravity_y(G),gravity_z(G),user_acc_x(G),user_acc_y(G),user_acc_z(G),magnetic_field_x(microteslas),magnetic_field_y(microteslas),magnetic_field_z(microteslas),latitude(degree),longitude(degree),altitude(meter),speed(m/s),course(degree),timestamp(unix),User Mark
1512180456.390113,0.103063,0.063717,0.750960,-0.000270,0.000573,0.000212,0.102672,-0.063674,-0.992675,-0.015377,0.009764,0.012191,57.045528,20.084476,79.498199,,,,,,,
1512180456.410102,0.103059,0.063673,0.750962,-0.001330,-0.000493,0.000194,0.102668,-0.063630,-0.992678,-0.003989,0.012696,0.000689,57.193874,19.709690,79.571747,,,,,,,
1512180456.430053,0.103068,0.063682,0.750955,-0.003468,0.000569,0.000164,0.102677,-0.063639,-0.992677,-0.015412,0.005335,0.014390,56.741360,19.184010,79.275330,,,,,,,
1512180456.450042,0.103041,0.063655,0.750967,-0.000246,-0.001556,-0.000861,0.102650,-0.063612,-0.992681,-0.001195,0.007811,-0.005350,56.966778,19.259357,79.423447,,,,,,,
1512180456.470061,0.103041,0.063688,0.750963,-0.003490,0.000564,0.001227,0.102651,-0.063645,-0.992679,-0.016927,0.009965,0.019733,56.966702,19.259357,79.273453,,,,,,,
1512180456.490050,0.103036,0.063636,0.750977,-0.000269,-0.000493,0.000205,0.102645,-0.063593,-0.992683,0.001252,0.010233,-0.004830,56.971264,20.234364,79.648895,,,,,,,
1512180456.510039,0.103037,0.063653,0.750958,-0.001345,0.000568,0.000190,0.102646,-0.063610,-0.992682,-0.018571,0.005046,0.015555,56.517818,19.483677,79.502380,,,,,,,
1512180456.530059,0.103044,0.063646,0.750957,0.000803,-0.000496,-0.000849,0.102654,-0.063603,-0.992682,-0.000451,0.009510,-0.006067,56.895107,20.009235,79.349426,,,,,,,
1512180456.550048,0.103044,0.063678,0.750953,-0.002422,-0.000508,0.000167,0.102653,-0.063635,-0.992680,-0.016883,0.010931,0.016316,56.817333,19.409122,79.199783,,,,,,,
1512180456.570037,0.103047,0.063657,0.750948,0.000798,-0.001566,-0.000854,0.102657,-0.063614,-0.992681,-0.001720,0.008042,-0.002925,56.743084,19.559010,79.350494,,,,,,,
1512180456.590055,0.103025,0.063669,0.750935,-0.003491,-0.000512,0.000151,0.102635,-0.063626,-0.992682,-0.013249,0.006528,0.019538,56.594051,19.783787,79.276886,,,,,,,
1512180456.610044,0.103002,0.063649,0.750924,0.001850,-0.001572,-0.000842,0.102611,-0.063606,-0.992686,-0.000896,0.005852,-0.006078,56.744137,19.784016,79.425598,,,,,,,
1512180456.630033,0.102996,0.063671,0.750921,-0.002406,0.000561,-0.000894,0.102606,-0.063628,-0.992685,-0.018179,0.012130,0.024835,56.744854,19.934010,79.500671,,,,,,,
1512180456.650054,0.102982,0.063625,0.750918,0.000781,-0.001575,-0.000856,0.102592,-0.063582,-0.992689,0.003823,0.008284,-0.010134,56.892483,19.409229,79.499161,,,,,,,
1512180456.670043,0.102977,0.063625,0.750912,-0.002419,-0.000513,-0.000899,0.102587,-0.063582,-0.992690,-0.019808,0.005980,0.020903,56.591808,19.258793,79.501633,,,,,,,
1512180456.690032,0.102973,0.063608,0.750912,0.001824,0.000558,0.000232,0.102584,-0.063565,-0.992691,0.002336,0.004361,-0.008468,56.896191,20.234241,79.499542,,,,,,,
1512180456.710021,0.102956,0.063607,0.750910,-0.003486,-0.000513,-0.000913,0.102566,-0.063564,-0.992693,-0.016415,0.009136,0.023394,56.745266,20.009022,79.650711,,,,,,,
1512180456.730040,0.102949,0.063577,0.750922,-0.000304,-0.000508,0.000201,0.102559,-0.063534,-0.992696,0.000392,0.009930,-0.007014,56.818951,19.709126,79.724930,,,,,,,
1512180456.750029,0.102925,0.063573,0.750921,-0.005616,-0.001579,-0.000945,0.102535,-0.063530,-0.992699,-0.011746,0.007393,0.023231,56.669811,19.933903,79.426300,,,,,,,
1512180456.770019,0.102906,0.063566,0.750925,0.000765,-0.001574,-0.000855,0.102517,-0.063524,-0.992701,-0.003411,0.003587,-0.010488,56.595974,20.158787,79.727051,,,,,,,
1512180456.790038,0.102894,0.063599,0.750937,-0.003538,-0.001584,0.001215,0.102505,-0.063556,-0.992700,-0.016904,0.011066,0.026803,56.216351,19.183231,79.279785,,,,,,,
1512180456.810027,0.102892,0.063562,0.750939,-0.000289,0.001641,-0.000855,0.102503,-0.063520,-0.992703,0.002935,0.004560,-0.010395,56.520443,20.083683,79.352646,,,,,,,
1512180456.830016,0.102895,0.063566,0.750916,-0.002427,0.000570,-0.000891,0.102506,-0.063524,-0.992702,-0.016080,0.008851,0.021709,56.744396,19.859013,79.275635,,,,,,,
1512180456.850035,0.102898,0.063565,0.750899,0.001828,0.000575,-0.000831,0.102509,-0.063522,-0.992702,0.002944,0.002853,-0.010640,56.669170,19.783909,79.501236,,,,,,,
1512180456.870024,0.102897,0.063573,0.750886,-0.003501,0.000569,-0.000907,0.102508,-0.063531,-0.992701,-0.019577,0.011285,0.026530,56.519878,19.933674,79.577576,,,,,,,
1512180456.890013,0.102886,0.063539,0.750882,-0.001361,-0.000489,-0.000876,0.102498,-0.063496,-0.992705,0.000011,0.006245,-0.010195,56.515423,18.958683,79.427124,,,,,,,
1512180456.910033,0.102874,0.063524,0.750888,-0.004583,-0.001566,0.000139,0.102486,-0.063481,-0.992707,-0.013618,0.007847,0.021012,56.895184,20.009235,79.499435,,,,,,,
1512180456.930022,0.102842,0.063518,0.750882,0.000780,-0.000486,-0.001910,0.102454,-0.063475,-0.992710,-0.004798,0.004515,-0.011242,56.970226,20.009357,79.573792,,,,,,,
1512180456.950011,0.102829,0.063517,0.750881,-0.004572,-0.001566,-0.000925,0.102441,-0.063475,-0.992712,-0.015634,0.010252,0.028295,56.745220,20.009022,79.575699,,,,,,,
1512180456.970031,0.102817,0.063493,0.750876,-0.000304,0.000580,-0.000854,0.102429,-0.063450,-0.992715,0.003375,0.002323,-0.018165,56.819851,19.934132,79.500031,,,,,,,
1512180456.990020,0.102812,0.063514,0.750868,-0.001389,-0.001559,0.000191,0.102424,-0.063472,-0.992714,-0.018668,0.010508,0.020454,56.819469,19.859135,79.425003,,,,,,,
1512180457.010009,0.102792,0.063492,0.750874,0.000736,0.000577,0.000229,0.102404,-0.063449,-0.992717,-0.000582,0.005222,-0.012379,56.744930,20.009022,78.975708,,,,,,,
1512180457.029998,0.102776,0.063495,0.750862,-0.002443,0.000576,-0.000881,0.102388,-0.063453,-0.992719,-0.016512,0.012427,0.025617,57.119778,19.934574,79.347488,,,,,,,
1512180457.050017,0.102764,0.063491,0.750877,0.000706,-0.000490,0.002362,0.102377,-0.063448,-0.992720,0.001459,0.004503,-0.016481,57.193844,19.709690,79.496750,,,,,,,
1512180457.070006,0.102751,0.063496,0.750881,-0.002467,-0.000494,0.000183,0.102363,-0.063453,-0.992721,-0.013496,0.013664,0.021042,56.744884,19.934010,79.575668,,,,,,,
1512180457.089994,0.102745,0.063508,0.750857,0.002881,0.000587,-0.000799,0.102358,-0.063465,-0.992721,-0.002489,0.003040,-0.011918,56.593761,19.708790,79.351837,,,,,,,
1512180457.110014,0.102728,0.063495,0.750852,-0.004599,-0.001560,0.000153,0.102341,-0.063453,-0.992724,-0.016510,0.012915,0.027819,56.894848,19.934238,79.499405,,,,,,,
1512180457.130003,0.102733,0.063470,0.750843,0.000746,-0.000481,-0.000831,0.102346,-0.063428,-0.992725,0.001231,0.005460,-0.016003,57.045818,20.159473,79.423218,,,,,,,
1512180457.149992,0.102727,0.063464,0.750848,-0.004601,-0.000489,0.000160,0.102340,-0.063421,-0.992726,-0.018355,0.010702,0.021931,56.820599,20.084141,79.650101,,,,,,,
1512180457.170012,0.102731,0.063457,0.750831,0.000759,-0.001544,-0.001897,0.102344,-0.063414,-0.992726,0.001675,0.001769,-0.012340,56.745754,20.159016,79.275772,,,,,,,
1512180457.190001,0.102715,0.063438,0.750816,-0.003503,-0.000479,-0.001953,0.102328,-0.063395,-0.992729,-0.019107,0.013606,0.023887,56.744091,19.784016,79.350601,,,,,,,
1512180457.209990,0.102700,0.063420,0.750811,0.000746,-0.000471,-0.000822,0.102313,-0.063378,-0.992731,-0.000720,0.004418,-0.013830,56.819775,19.934132,79.350037,,,,,,,
1512180457.230010,0.102687,0.063397,0.750807,-0.004596,-0.000484,-0.000901,0.102301,-0.063355,-0.992734,-0.017630,0.011124,0.024640,56.368725,19.708454,79.278763,,,,,,,
1512180457.249999,0.102682,0.063391,0.750796,0.001802,0.000597,-0.000802,0.102296,-0.063348,-0.992735,-0.003129,0.003656,-0.013872,56.895107,20.009235,79.349426,,,,,,,
1512180457.269988,0.102675,0.063381,0.750813,-0.003527,-0.000470,0.000189,0.102289,-0.063338,-0.992736,-0.013955,0.014770,0.024215,56.745190,20.009022,79.500702,,,,,,,
1512180457.290008,0.102641,0.063374,0.750812,0.001793,-0.002601,0.000259,0.102256,-0.063332,-0.992740,0.000634,0.004387,-0.018429,56.519955,19.933674,79.727585,,,,,,,
1512180457.309997,0.102633,0.063380,0.750828,-0.002463,0.001669,0.000214,0.102247,-0.063338,-0.992741,-0.020445,0.012816,0.020710,56.741695,19.259007,79.275360,,,,,,,
1512180457.329986,0.102620,0.063381,0.750843,0.000727,-0.000463,0.000253,0.102234,-0.063339,-0.992742,0.000854,0.003417,-0.015254,56.671566,20.308903,79.576477,,,,,,,
1512180457.349975,0.102613,0.063374,0.750849,-0.003528,0.000605,0.000198,0.102228,-0.063332,-0.992743,-0.017801,0.016701,0.024649,56.521526,20.308689,79.502762,,,,,,,
1512180457.369993,0.102615,0.063367,0.750832,0.001817,-0.000452,-0.000793,0.102229,-0.063324,-0.992743,0.000157,0.004868,-0.017709,56.521526,20.308689,79.502762,,,,,,,
1512180457.389982,0.102610,0.063349,0.750844,-0.001398,0.000610,0.000231,0.102225,-0.063307,-0.992745,-0.012839,0.011824,0.019371,56.445370,20.083576,79.203293,,,,,,,
1512180457.409971,0.102621,0.063344,0.750844,0.000750,0.001684,-0.000799,0.102236,-0.063302,-0.992744,-0.008425,0.003365,-0.014672,56.519390,19.858677,79.277557,,,,,,,
1512180457.429999,0.102635,0.063326,0.750856,-0.004591,0.000610,0.000188,0.102249,-0.063284,-0.992744,-0.017105,0.015936,0.024665,56.520077,20.008686,79.277618,,,,,,,
1512180457.449988,0.102647,0.063344,0.750827,0.003965,-0.000443,-0.001824,0.102262,-0.063301,-0.992741,0.006503,0.001686,-0.020045,56.444958,19.933567,79.728226,,,,,,,
1512180457.469977,0.102695,0.063316,0.750835,-0.005649,0.005953,0.000195,0.102309,-0.063274,-0.992738,-0.028761,0.013240,0.018861,56.520489,20.083683,79.427643,,,,,,,
1512180457.489996,0.102692,0.063337,0.750828,0.001848,0.000631,-0.001845,0.102306,-0.063295,-0.992737,0.006123,0.003618,-0.014694,56.520596,20.083683,79.652649,,,,,,,
1512180457.509985,0.102681,0.063313,0.750819,-0.002438,0.000620,-0.000841,0.102295,-0.063271,-0.992740,-0.014908,0.014458,0.021762,56.369213,19.783451,79.578781,,,,,,,
1512180457.529974,0.102652,0.063307,0.750803,0.000746,-0.000442,0.000270,0.102267,-0.063264,-0.992743,-0.004717,0.003343,-0.019738,56.594952,19.933796,79.726944,,,,,,,
1512180457.549994,0.102639,0.063291,0.750821,-0.003520,-0.002585,0.000201,0.102254,-0.063249,-0.992746,-0.013829,0.013963,0.018136,56.521191,20.233677,79.502716,,,,,,,
1512180457.569983,0.102649,0.063301,0.750803,0.001836,0.000634,-0.000773,0.102264,-0.063259,-0.992744,-0.003509,0.005779,-0.018975,56.520519,20.083683,79.502655,,,,,,,
1512180457.589972,0.102652,0.063280,0.750832,-0.004600,-0.000451,0.001261,0.102266,-0.063238,-0.992745,-0.015123,0.016378,0.021523,56.368679,19.708454,79.203751,,,,,,,
1512180457.609961,0.102640,0.063269,0.750843,0.000769,-0.000437,-0.000792,0.102255,-0.063227,-0.992747,0.003611,0.004054,-0.022024,56.370403,20.083454,79.278931,,,,,,,
1512180457.629980,0.102633,0.063253,0.750855,-0.001348,-0.000433,-0.000819,0.102248,-0.063211,-0.992748,-0.013320,0.013925,0.016934,56.520641,20.158680,79.052689,,,,,,,
1512180457.649969,0.102639,0.063246,0.750839,0.001811,0.000633,0.001361,0.102254,-0.063204,-0.992748,-0.007725,0.001070,-0.014179,56.443127,19.558567,79.428040,,,,,,,
1512180457.669958,0.102655,0.063243,0.750824,-0.002422,0.000626,-0.000834,0.102270,-0.063200,-0.992747,-0.015813,0.010985,0.019084,56.820782,20.159138,79.350143,,,,,,,
1512180457.689978,0.102667,0.063238,0.750834,0.002899,0.000635,0.000312,0.102282,-0.063196,-0.992746,0.003354,0.003534,-0.022528,56.520184,20.008686,79.502625,,,,,,,
1512180457.709967,0.102643,0.063217,0.750852,-0.003465,-0.000436,-0.000847,0.102258,-0.063175,-0.992750,-0.016427,0.015125,0.012251,56.370403,20.083454,79.278931,,,,,,,
1512180457.729956,0.102620,0.063218,0.750852,0.000761,-0.000437,0.001345,0.102235,-0.063176,-0.992752,-0.003282,0.004720,-0.016525,56.520489,20.083683,79.427643,,,,,,,
1512180457.749975,0.102599,0.063197,0.750843,-0.002407,-0.000442,-0.000835,0.102214,-0.063155,-0.992756,-0.013256,0.016554,0.014988,56.446499,20.308567,79.428391,,,,,,,
1512180457.769964,0.102578,0.063208,0.750842,0.003961,-0.000433,0.001391,0.102194,-0.063165,-0.992757,0.000010,0.002771,-0.021113,56.743008,19.559010,79.200500,,,,,,,
1512180457.789953,0.102575,0.063188,0.750865,-0.002437,0.000629,0.002370,0.102191,-0.063146,-0.992759,-0.014697,0.015813,0.015464,56.520779,20.158680,79.352692,,,,,,,
1512180457.809973,0.102596,0.063210,0.750858,0.002924,0.000638,0.000314,0.102211,-0.063168,-0.992755,-0.003456,0.001049,-0.018735,56.369732,19.933460,79.278854,,,,,,,
1512180457.829962,0.102590,0.063181,0.750860,-0.001302,-0.000432,-0.001884,0.102205,-0.063139,-0.992758,-0.013506,0.016294,0.015478,56.444057,19.783558,79.278152,,,,,,,
1512180457.849951,0.102603,0.063202,0.750853,0.004011,0.001708,-0.000735,0.102218,-0.063160,-0.992755,-0.001449,0.004475,-0.023328,56.443569,19.633564,79.653091,,,,,,,
1512180457.869971,0.102590,0.063190,0.750849,-0.001299,-0.000427,-0.000815,0.102205,-0.063148,-0.992757,-0.016146,0.016319,0.013494,56.445751,20.158573,79.278320,,,,,,,
1512180457.889960,0.102588,0.063200,0.750816,0.001880,-0.000426,0.000296,0.102203,-0.063158,-0.992757,-0.003754,0.005190,-0.015315,56.669506,19.858906,79.501282,,,,,,,
1512180457.909949,0.102576,0.063173,0.750823,-0.002382,-0.001502,0.000231,0.102192,-0.063131,-0.992759,-0.010365,0.017263,0.018455,56.519726,19.933674,79.277588,,,,,,,
1512180457.929938,0.102555,0.063200,0.750821,0.002957,0.001713,0.000321,0.102171,-0.063158,-0.992760,-0.003675,-0.001158,-0.017753,56.518902,19.708683,79.652481,,,,,,,
1512180457.949957,0.102532,0.063200,0.750832,-0.000234,-0.001492,0.000266,0.102148,-0.063158,-0.992762,-0.014135,0.014376,0.013026,56.518764,19.708683,79.352478,,,,,,,
1512180457.969946,0.102500,0.063240,0.750839,0.004022,-0.004694,0.000315,0.102116,-0.063198,-0.992763,0.004649,0.003521,-0.016881,56.669506,19.858906,79.501282,,,,,,,
1512180457.989935,0.102468,0.063207,0.750847,-0.002369,-0.001499,0.000234,0.102084,-0.063165,-0.992768,-0.010608,0.013666,0.009446,56.668377,19.633900,79.276169,,,,,,,
1512180458.009955,0.102453,0.063227,0.750850,0.002942,-0.000425,0.001380,0.102070,-0.063185,-0.992769,-0.007938,0.002775,-0.020003,56.364971,18.883442,79.203369,,,,,,,
1512180458.029944,0.102416,0.063209,0.750841,0.000831,-0.001491,0.000281,0.102032,-0.063167,-0.992774,-0.011243,0.016108,0.006522,56.593792,19.708790,79.426834,,,,,,,
1512180458.049933,0.102413,0.063239,0.750843,0.004052,0.001724,-0.000726,0.102030,-0.063196,-0.992772,-0.002695,0.005488,-0.025279,56.595409,20.083790,79.277023,,,,,,,
1512180458.069952,0.102391,0.063175,0.750854,-0.005549,-0.001489,0.000192,0.102008,-0.063133,-0.992778,-0.012759,0.019233,0.011852,56.443493,19.633564,79.503082,,,,,,,
1512180458.089941,0.102397,0.063219,0.750840,0.004042,0.001731,0.000341,0.102014,-0.063176,-0.992775,-0.015237,0.002508,-0.016945,56.591732,19.258793,79.351639,,,,,,,
1512180458.109930,0.102400,0.063197,0.750831,-0.000201,0.000663,-0.000789,0.102017,-0.063155,-0.992776,-0.016873,0.016814,0.008859,56.368832,19.708454,79.503754,,,,,,,
1512180458.129950,0.102406,0.063229,0.750807,0.005161,0.000683,-0.001774,0.102023,-0.063186,-0.992773,0.003507,0.006439,-0.016153,56.520412,20.083683,79.277649,,,,,,,
1512180458.149939,0.102405,0.063201,0.750810,0.001922,0.000672,0.000310,0.102022,-0.063159,-0.992775,-0.012666,0.019275,0.005287,56.593792,19.708790,79.426834,,,,,,,
1512180458.169928,0.102421,0.063208,0.750793,0.003011,0.002816,-0.000731,0.102038,-0.063166,-0.992773,-0.013140,0.003230,-0.012537,56.518383,19.633686,79.277451,,,,,,,
1512180458.189917,0.102411,0.063188,0.750785,0.000871,-0.001461,-0.000778,0.102028,-0.063146,-0.992775,-0.004295,0.015874,-0.000434,56.744396,19.859013,79.275635,,,,,,,
1512180458.209936,0.102420,0.063192,0.750747,0.003042,0.002829,-0.001791,0.102037,-0.063150,-0.992774,-0.005876,0.004418,-0.009011,56.744167,19.784016,79.500610,,,,,,,
1512180458.229925,0.102286,0.063122,0.750646,-0.018883,-0.049491,-0.033209,0.101905,-0.063080,-0.992792,0.038766,-0.000595,0.029459,56.595898,20.158787,79.577042,,,,,,,
1512180458.249914,0.102377,0.063176,0.750733,0.001840,0.010289,0.006749,0.101995,-0.063134,-0.992780,-0.024053,0.023003,-0.029956,56.747051,20.459019,79.200912,,,,,,,
1512180458.269934,0.102388,0.063215,0.750692,0.006171,0.000694,0.002517,0.102005,-0.063173,-0.992776,-0.056763,0.006364,-0.011268,56.519238,19.783680,79.652512,,,,,,,
1512180458.289923,0.102342,0.063236,0.750653,-0.000039,-0.017454,-0.010430,0.101960,-0.063194,-0.992779,0.052551,-0.012307,-0.013950,56.518124,19.558674,79.427414,,,,,,,
1512180458.309912,0.102363,0.063189,0.750705,-0.000165,0.009240,-0.000739,0.101980,-0.063147,-0.992780,-0.000265,-0.002908,-0.005023,56.366924,19.258457,79.728546,,,,,,,
1512180458.329932,0.102323,0.063220,0.750693,0.007259,0.003910,0.001485,0.101941,-0.063178,-0.992782,-0.040753,0.013236,-0.017823,56.365688,19.033451,79.278442,,,,,,,
1512180458.349921,0.102295,0.063157,0.750687,-0.000186,-0.005715,-0.000790,0.101913,-0.063115,-0.992789,0.008774,0.007268,0.013404,56.444958,19.933567,79.728226,,,,,,,
1512180458.369910,0.102299,0.063183,0.750691,0.005123,-0.001431,0.001439,0.101917,-0.063141,-0.992787,-0.008304,0.006150,-0.017314,56.444851,19.933567,79.503220,,,,,,,
1512180458.389929,0.102259,0.063162,0.750673,-0.002275,0.000707,-0.001855,0.101877,-0.063120,-0.992792,-0.024027,0.013361,0.008524,56.593166,19.558796,79.501770,,,,,,,
1512180458.409918,0.102257,0.063197,0.750666,0.003032,0.001781,-0.000708,0.101875,-0.063155,-0.992790,-0.015267,0.005874,-0.006462,56.369061,19.783451,79.278793,,,,,,,
1512180458.429868,0.102223,0.063147,0.750670,0.001960,-0.002492,-0.000737,0.101842,-0.063105,-0.992797,-0.000188,0.011439,-0.002305,56.294842,19.933338,79.504501,,,,,,,
1512180458.449888,0.102246,0.063175,0.750637,-0.000167,0.001781,-0.000750,0.101864,-0.063133,-0.992793,-0.013165,0.005348,0.000636,56.219173,19.783222,79.505066,,,,,,,
1512180458.469877,0.102256,0.063141,0.750614,-0.002272,0.002856,-0.001838,0.101874,-0.063099,-0.992794,-0.013053,0.015309,0.008206,56.519848,19.933674,79.502579,,,,,,,
1512180458.489866,0.102265,0.063156,0.750619,0.000891,0.001792,0.000339,0.101883,-0.063114,-0.992792,-0.009186,0.002186,-0.005880,56.518948,19.708683,79.727478,,,,,,,
1512180458.509855,0.102264,0.063110,0.750629,-0.001242,-0.001414,0.000299,0.101883,-0.063068,-0.992795,0.001572,0.008212,0.008191,56.445904,20.158573,79.578323,,,,,,,
1512180458.529874,0.102285,0.063156,0.750616,0.001943,0.002865,0.001429,0.101903,-0.063114,-0.992790,-0.016393,0.006549,0.001808,56.593380,19.633793,79.276810,,,,,,,
1512180458.549863,0.102296,0.063106,0.750610,0.000942,0.001802,-0.002853,0.101915,-0.063064,-0.992792,-0.002443,0.006515,-0.002600,56.367489,19.408451,79.503616,,,,,,,
1512180458.569852,0.102298,0.063118,0.750627,-0.000182,0.000731,0.001397,0.101916,-0.063076,-0.992791,-0.004001,0.001140,0.004190,56.518383,19.633686,79.277451,,,,,,,
1512180458.589872,0.102269,0.063104,0.750634,0.000899,-0.001402,0.000340,0.101888,-0.063063,-0.992795,-0.002050,0.004301,0.005689,56.743755,19.709019,79.350571,,,,,,,
1512180458.609861,0.102251,0.063136,0.750633,0.003033,-0.001397,0.000374,0.101870,-0.063094,-0.992795,-0.007326,-0.004686,0.000958,56.516811,19.258671,79.502274,,,,,,,
1512180458.629850,0.102273,0.063082,0.750666,-0.000180,0.003935,0.001413,0.101892,-0.063040,-0.992796,0.004859,-0.004251,0.000425,56.518459,19.633686,79.427444,,,,,,,
1512180458.649869,0.102279,0.063121,0.750664,0.001941,0.000728,0.001431,0.101898,-0.063079,-0.992793,-0.009872,-0.013749,0.006511,56.590954,19.108784,79.126572,,,,,,,
1512180458.669858,0.102303,0.063116,0.750692,0.001936,-0.000336,0.002497,0.101921,-0.063074,-0.992791,0.003670,-0.019094,-0.003028,56.368206,19.558460,79.578690,,,,,,,
1512180458.689847,0.102326,0.063174,0.750732,0.002981,0.000727,0.003581,0.101944,-0.063132,-0.992785,-0.012481,-0.028085,0.000109,56.368465,19.633457,79.428711,,,,,,,
1512180458.709867,0.102286,0.063186,0.750786,0.000825,-0.001418,0.004606,0.101904,-0.063144,-0.992788,-0.001333,-0.017102,0.006643,56.519207,19.783680,79.577515,,,,,,,
1512180458.729856,0.102281,0.063261,0.750862,0.004019,-0.000340,0.005723,0.101899,-0.063219,-0.992784,-0.019471,-0.028730,-0.002440,56.367702,19.483448,79.278656,,,,,,,
1512180458.749845,0.102258,0.063290,0.750942,0.000852,-0.001410,0.003536,0.101876,-0.063248,-0.992785,0.005836,-0.021851,0.001375,56.517864,19.483677,79.577377,,,,,,,
1512180458.769834,0.102219,0.063328,0.751016,-0.001315,-0.002492,0.004557,0.101836,-0.063286,-0.992786,-0.011947,-0.020897,0.019123,56.592861,19.483784,79.576736,,,,,,,
1512180458.789853,0.102214,0.063399,0.751093,0.001890,0.000723,0.004609,0.101831,-0.063356,-0.992782,-0.007044,-0.023466,0.001907,56.368832,19.708454,79.503754,,,,,,,
1512180458.809842,0.102216,0.063456,0.751176,0.002973,-0.000341,0.003555,0.101832,-0.063413,-0.992778,-0.006007,-0.022173,-0.001988,56.368832,19.708454,79.503754,,,,,,,
1512180458.829831,0.102223,0.063480,0.751251,-0.000213,0.000728,0.003515,0.101839,-0.063437,-0.992776,0.001570,-0.023110,-0.003806,56.368420,19.633457,79.353714,,,,,,,
1512180458.849851,0.102228,0.063514,0.751332,-0.001333,-0.000355,0.005623,0.101844,-0.063471,-0.992773,-0.014335,-0.025106,0.015662,56.069775,19.933002,79.356415,,,,,,,
1512180458.869840,0.102239,0.063540,0.751412,-0.001298,-0.000344,0.004562,0.101855,-0.063497,-0.992771,0.001951,-0.025019,0.002033,56.367825,19.483448,79.503647,,,,,,,
1512180458.889829,0.102237,0.063576,0.751508,-0.000271,0.000721,0.006712,0.101853,-0.063533,-0.992769,-0.005479,-0.025502,0.010194,56.293835,19.708347,79.504395,,,,,,,
1512180458.909849,0.102217,0.063616,0.751614,-0.000266,-0.000351,0.005639,0.101832,-0.063573,-0.992768,0.000310,-0.026897,-0.000198,56.144665,19.858112,79.805740,,,,,,,
1512180458.929838,0.102195,0.063653,0.751758,-0.001367,-0.002491,0.007749,0.101811,-0.063610,-0.992768,-0.006230,-0.023732,0.013596,56.143612,19.633121,79.730637,,,,,,,
1512180458.949827,0.102201,0.063679,0.751886,-0.001312,0.001789,0.004567,0.101816,-0.063636,-0.992766,0.003439,-0.029519,0.003020,56.143841,19.708118,79.505661,,,,,,,
1512180458.969846,0.102202,0.063713,0.752058,-0.001396,-0.000362,0.008820,0.101817,-0.063670,-0.992764,-0.004741,-0.024633,0.011898,56.067181,19.332996,79.581131,,,,,,,
1512180458.989835,0.102199,0.063749,0.752218,-0.000321,-0.000355,0.008839,0.101814,-0.063705,-0.992762,-0.001655,-0.028961,0.001963,56.064709,18.808002,79.355896,,,,,,,
1512180459.009824,0.102174,0.063777,0.752395,-0.001379,-0.002494,0.007749,0.101789,-0.063734,-0.992762,-0.008451,-0.026308,0.017192,55.688732,18.582432,79.433975,,,,,,,
1512180459.029844,0.102128,0.063800,0.752583,-0.000307,-0.002489,0.007767,0.101743,-0.063756,-0.992766,0.004748,-0.029398,0.002058,55.920589,20.082783,79.657761,,,,,,,
1512180459.049833,0.102091,0.063809,0.752783,-0.004630,-0.002505,0.010901,0.101706,-0.063766,-0.992769,-0.010794,-0.024079,0.016435,55.692852,19.482441,79.584381,,,,,,,
1512180459.069822,0.102049,0.063838,0.752986,-0.001420,-0.002499,0.009881,0.101665,-0.063794,-0.992771,-0.002986,-0.026934,0.003162,55.544201,19.782215,79.585800,,,,,,,
1512180459.089811,0.101994,0.063832,0.753193,-0.004598,-0.002500,0.008770,0.101610,-0.063789,-0.992777,-0.006777,-0.023064,0.014567,55.618267,19.557331,79.735062,,,,,,,
1512180459.109830,0.101954,0.063816,0.753394,-0.002493,-0.000367,0.009871,0.101570,-0.063773,-0.992782,-0.008080,-0.026971,0.007476,55.468975,19.707111,79.811401,,,,,,,
1512180459.129819,0.101898,0.063819,0.753600,-0.005708,-0.001440,0.010888,0.101515,-0.063776,-0.992788,-0.010527,-0.022833,0.011342,55.469997,19.932102,79.811508,,,,,,,
1512180459.149808,0.101844,0.063833,0.753826,-0.003561,-0.002502,0.009849,0.101461,-0.063790,-0.992792,-0.001821,-0.030357,0.004175,55.693951,19.707447,79.734497,,,,,,,
1512180459.169828,0.101797,0.063838,0.754059,-0.005707,-0.003571,0.010882,0.101415,-0.063794,-0.992797,-0.013219,-0.022586,0.018370,55.020367,20.006428,79.890366,,,,,,,
1512180459.189817,0.101746,0.063845,0.754280,-0.001437,-0.002492,0.010949,0.101364,-0.063802,-0.992801,0.000229,-0.027415,0.003483,55.244061,19.706760,79.963318,,,,,,,
1512180459.209806,0.101699,0.063835,0.754525,-0.006781,-0.001431,0.011942,0.101317,-0.063792,-0.992807,-0.013746,-0.020620,0.012048,54.869015,19.706211,79.891510,,,,,,,
1512180459.229825,0.101663,0.063869,0.754788,-0.000397,-0.001425,0.012031,0.101281,-0.063826,-0.992808,-0.000115,-0.027132,0.000072,54.569027,19.705753,79.894058,,,,,,,
1512180459.249814,0.101611,0.063840,0.755055,-0.006810,-0.001435,0.013004,0.101229,-0.063796,-0.992815,-0.012744,-0.025758,0.015719,54.346050,20.155415,79.896179,,,,,,,
1512180459.269803,0.101603,0.063846,0.755320,-0.002537,0.000715,0.013076,0.101221,-0.063802,-0.992816,-0.005381,-0.024958,-0.003171,54.346569,20.230427,80.271210,,,,,,,
1512180459.289823,0.101599,0.063826,0.755592,-0.010003,-0.000365,0.012963,0.101218,-0.063783,-0.992818,-0.010627,-0.023101,0.021840,54.045406,20.004963,79.973648,,,,,,,
1512180459.309812,0.101590,0.063863,0.755849,-0.001443,-0.001414,0.010951,0.101209,-0.063819,-0.992816,-0.006909,-0.026909,0.002902,53.819347,19.779621,79.900467,,,,,,,
1512180459.329801,0.101559,0.063840,0.756132,-0.004677,-0.000354,0.013039,0.101178,-0.063797,-0.992821,-0.009671,-0.021820,0.009438,53.368114,19.478947,80.129150,,,,,,,
1512180459.349790,0.101516,0.063870,0.756384,-0.002548,-0.001417,0.013066,0.101135,-0.063827,-0.992823,-0.004929,-0.029832,0.005366,53.669994,19.854404,80.501770,,,,,,,
1512180459.369810,0.101473,0.063866,0.756639,-0.000416,-0.001411,0.013097,0.101092,-0.063822,-0.992828,-0.006534,-0.025442,0.001205,53.143383,19.553623,79.981094,,,,,,,
1512180459.389799,0.101480,0.063846,0.756879,0.002798,-0.000335,0.012081,0.101099,-0.063803,-0.992828,0.000112,-0.027109,-0.018661,53.369579,19.778950,80.354279,,,,,,,
1512180459.409788,0.101504,0.063814,0.757125,-0.008879,0.004999,0.009800,0.101123,-0.063771,-0.992828,-0.029010,-0.015056,0.017669,52.917995,19.478275,79.907974,,,,,,,
1512180459.429780,0.101522,0.063790,0.757350,-0.005699,-0.000336,0.010894,0.101141,-0.063747,-0.992828,0.003961,-0.019673,0.013076,53.144955,19.853611,80.431244,,,,,,,
1512180459.449769,0.101543,0.063729,0.757610,-0.009996,-0.001413,0.012961,0.101163,-0.063686,-0.992829,-0.007214,-0.021244,0.024827,52.994167,19.703388,80.207443,,,,,,,
1512180459.469758,0.101548,0.063754,0.757835,0.001743,-0.000327,0.012068,0.101168,-0.063711,-0.992827,-0.003771,-0.029429,-0.008988,52.770168,19.928059,80.209457,,,,,,,
1512180459.489778,0.101549,0.063677,0.758065,-0.008912,0.002862,0.011925,0.101169,-0.063634,-0.992832,-0.018818,-0.019328,0.018330,52.467129,19.252598,80.211685,,,,,,,
1512180459.509767,0.101556,0.063645,0.758290,-0.003543,-0.001399,0.009855,0.101176,-0.063602,-0.992833,0.003362,-0.021024,0.002599,52.619503,19.777821,80.210663,,,,,,,
1512180459.529756,0.101561,0.063572,0.758497,-0.013138,0.001791,0.010794,0.101182,-0.063529,-0.992838,-0.018479,-0.014093,0.026865,52.317028,19.252369,79.987961,,,,,,,
1512180459.549775,0.101569,0.063592,0.758721,0.004986,-0.002458,0.011911,0.101190,-0.063549,-0.992835,0.004416,-0.027592,-0.019066,52.242886,19.477268,79.688705,,,,,,,
1512180459.569764,0.101564,0.063527,0.758954,-0.004562,-0.001404,0.010517,0.101185,-0.063484,-0.992840,-0.015049,-0.020195,0.009625,52.469753,19.927601,79.387009,,,,,,,
1512180459.589753,0.101530,0.063537,0.759155,-0.002346,0.000749,0.008239,0.101151,-0.063494,-0.992843,-0.010727,-0.031385,0.000900,52.242657,19.477268,79.238708,,,,,,,
1512180459.609742,0.101491,0.063498,0.759362,-0.006668,-0.004614,0.012233,0.101113,-0.063456,-0.992849,-0.002801,-0.027578,0.026373,52.315487,19.027378,78.937866,,,,,,,
1512180459.629762,0.101476,0.063489,0.759535,-0.002311,0.000743,0.008937,0.101098,-0.063446,-0.992851,-0.012856,-0.027771,0.000404,52.466976,19.327595,79.236725,,,,,,,
1512180459.649751,0.101449,0.063469,0.759680,-0.002229,-0.000320,0.005559,0.101071,-0.063426,-0.992855,-0.022290,-0.030507,0.012677,52.012707,18.426914,78.790146,,,,,,,
1512180459.669740,0.101446,0.063460,0.759804,-0.002203,0.001820,0.006465,0.101069,-0.063418,-0.992856,0.007681,-0.027769,-0.002200,52.464291,18.802586,78.561493,,,,,,,
1512180459.689759,0.101447,0.063425,0.759918,-0.007534,0.000737,0.006381,0.101070,-0.063383,-0.992858,-0.027003,-0.027651,0.017959,53.064175,18.803486,78.331390,,,,,,,
1512180459.709748,0.101447,0.063403,0.759993,0.001082,0.002898,0.002251,0.101070,-0.063361,-0.992860,-0.021327,-0.027124,-0.002410,52.913433,18.653263,78.182602,,,,,,,
1512180459.729737,0.101423,0.063368,0.760032,-0.003140,-0.002445,0.000039,0.101046,-0.063325,-0.992864,-0.008333,-0.020094,0.010244,53.287930,18.578831,77.879379,,,,,,,
1512180459.749757,0.101410,0.063290,0.760069,-0.002049,0.000766,0.000068,0.101033,-0.063248,-0.992871,0.005000,-0.022339,-0.000263,53.437267,18.429050,77.878036,,,,,,,
1512180459.769746,0.101369,0.063219,0.760079,-0.007429,-0.000323,0.003182,0.100993,-0.063177,-0.992879,-0.024775,-0.023950,0.020940,53.811779,18.354618,77.574814,,,,,,,
1512180459.789735,0.101339,0.063142,0.760068,-0.007388,0.000744,0.001052,0.100964,-0.063100,-0.992887,-0.011441,-0.025218,0.011426,54.263988,18.880299,77.271225,,,,,,,
1512180459.809754,0.101340,0.063081,0.760034,-0.006265,-0.001383,-0.001069,0.100965,-0.063039,-0.992891,-0.010084,-0.023341,0.018754,54.336483,18.355396,76.970352,,,,,,,
1512180459.829743,0.101327,0.063012,0.760001,0.000162,0.003967,-0.002024,0.100953,-0.062970,-0.992896,-0.015840,-0.017993,-0.002999,54.786510,18.356083,77.041534,,,,,,,
1512180459.849732,0.101347,0.062930,0.759953,-0.005126,0.001821,-0.004242,0.100974,-0.062888,-0.992899,-0.024527,-0.026879,0.006114,55.010128,18.056416,76.964478,,,,,,,
1512180459.869721,0.101435,0.062883,0.759891,0.000220,0.005035,-0.004153,0.101061,-0.062842,-0.992894,-0.003253,-0.021280,-0.003780,55.011364,18.356419,76.739624,,,,,,,
1512180459.889741,0.101513,0.062785,0.759844,-0.007233,0.005027,-0.003193,0.101139,-0.062743,-0.992892,-0.018406,-0.027772,0.009615,55.611065,18.282307,76.809479,,,,,,,
1512180459.909730,0.101582,0.062720,0.759757,0.000232,0.003965,-0.003091,0.101208,-0.062679,-0.992889,-0.014965,-0.023380,-0.012986,55.910366,18.132771,76.731873,,,,,,,
1512180459.929719,0.101635,0.062631,0.759672,-0.001861,0.003967,-0.004186,0.101261,-0.062590,-0.992889,-0.015522,-0.021761,-0.011277,55.909756,17.982761,76.881805,,,,,,,
1512180459.949739,0.101644,0.062574,0.759579,0.003520,-0.000291,-0.006254,0.101271,-0.062534,-0.992892,0.001833,-0.026181,-0.015638,56.360317,18.133442,76.653046,,,,,,,
1512180459.969728,0.101672,0.062502,0.759466,-0.002886,0.000760,-0.005280,0.101299,-0.062461,-0.992893,-0.023647,-0.029519,0.007328,56.509502,17.983662,76.351700,,,,,,,
1512180459.989717,0.101672,0.062409,0.759306,0.000384,0.003976,-0.008419,0.101299,-0.062369,-0.992899,-0.019207,-0.023691,-0.012060,56.283367,17.758320,76.128510,,,,,,,
1512180460.009736,0.101677,0.062318,0.759119,-0.003832,0.000768,-0.010625,0.101305,-0.062277,-0.992904,-0.021090,-0.023324,-0.001130,56.882427,17.534214,76.273300,,,,,,,
1512180460.029725,0.101681,0.062245,0.758915,0.000490,-0.001353,-0.012700,0.101309,-0.062205,-0.992908,-0.006094,-0.023122,-0.009899,57.111263,18.359562,76.496780,,,,,,,
1512180460.049714,0.101678,0.062168,0.758653,-0.005926,-0.004572,-0.010672,0.101307,-0.062128,-0.992913,-0.011265,-0.022558,0.025094,57.184795,18.059681,76.270996,,,,,,,
1512180460.069734,0.101702,0.062048,0.758383,0.000520,0.005058,-0.011609,0.101331,-0.062008,-0.992918,-0.013090,-0.022816,-0.015840,57.335369,18.134907,76.719757,,,,,,,
1512180460.089723,0.101737,0.061961,0.758099,-0.002616,0.005056,-0.014855,0.101367,-0.061921,-0.992920,-0.029269,-0.034438,0.003617,57.484844,18.060123,76.343445,,,,,,,
1512180460.109712,0.101786,0.061858,0.757790,-0.005768,0.000780,-0.017049,0.101416,-0.061818,-0.992922,-0.014548,-0.022837,0.009706,57.560513,18.210239,76.342880,,,,,,,
1512180460.129701,0.101881,0.061779,0.757469,-0.004706,0.003987,-0.014888,0.101510,-0.061740,-0.992917,-0.014520,-0.033917,0.018460,57.785259,18.135578,76.490936,,,,,,,
1512180460.149720,0.102029,0.061699,0.757115,0.003923,0.015755,-0.020056,0.101658,-0.061660,-0.992907,-0.018116,-0.013856,-0.027845,57.635586,18.210346,76.492249,,,,,,,
1512180460.169709,0.102121,0.061595,0.756770,0.001724,0.003996,-0.014796,0.101750,-0.061556,-0.992904,-0.018697,-0.023527,-0.011796,57.634457,17.985355,76.267136,,,,,,,
1512180460.189698,0.102298,0.061477,0.756404,-0.008814,0.008262,-0.021332,0.101927,-0.061438,-0.992893,-0.009062,-0.018136,0.031711,57.632915,17.610340,76.566956,,,,,,,
1512180460.209718,0.102426,0.061427,0.756053,0.001804,0.001862,-0.018003,0.102054,-0.061388,-0.992883,-0.011188,-0.022474,-0.012671,57.784237,17.910572,76.490829,,,,,,,
1512180460.229707,0.102567,0.061292,0.755716,-0.007742,0.009330,-0.019180,0.102195,-0.061254,-0.992877,-0.013359,-0.020701,0.008486,57.484509,17.985126,76.343414,,,,,,,
1512180460.249696,0.102690,0.061250,0.755381,-0.000312,0.003997,-0.015892,0.102318,-0.061211,-0.992867,-0.008644,-0.025108,-0.004127,57.635220,18.135349,76.417206,,,,,,,
1512180460.269715,0.102858,0.061149,0.755023,-0.004517,0.007193,-0.019144,0.102485,-0.061110,-0.992856,0.001824,-0.023011,0.001156,57.408566,17.760014,76.493942,,,,,,,
1512180460.289704,0.102986,0.061077,0.754685,-0.007729,0.003982,-0.017069,0.102612,-0.061039,-0.992847,-0.011166,-0.027035,0.013843,57.783825,17.835575,76.340790,,,,,,,
1512180460.309693,0.103125,0.060989,0.754327,-0.003421,0.006130,-0.018064,0.102751,-0.060952,-0.992838,-0.012968,-0.022239,0.010172,57.485546,18.210133,76.418518,,,,,,,
1512180460.329713,0.103229,0.060902,0.753942,-0.005520,0.002923,-0.019172,0.102855,-0.060864,-0.992833,-0.012233,-0.024737,0.003834,57.260250,18.134785,76.495392,,,,,,,
1512180460.349702,0.103322,0.060811,0.753546,-0.002276,0.001867,-0.020193,0.102947,-0.060773,-0.992829,0.000843,-0.019213,0.002594,58.010281,18.210911,75.889053,,,,,,,
1512180460.369691,0.103402,0.060713,0.753141,-0.004384,0.002927,-0.021289,0.103028,-0.060676,-0.992826,-0.021866,-0.022531,0.016111,58.083492,17.836033,75.663239,,,,,,,
1512180460.389710,0.103458,0.060631,0.752727,-0.000105,0.000796,-0.021236,0.103084,-0.060594,-0.992825,-0.009319,-0.024291,0.005093,57.935558,18.210804,76.414688,,,,,,,
1512180460.409699,0.103548,0.060526,0.752306,-0.002168,0.004007,-0.023384,0.103173,-0.060489,-0.992822,-0.019815,-0.023648,0.000543,57.857357,17.535679,76.115021,,,,,,,
1512180460.429660,0.103630,0.060468,0.751859,-0.000023,0.004008,-0.023354,0.103255,-0.060431,-0.992817,-0.012801,-0.027124,-0.001049,58.161037,18.286137,76.712814,,,,,,,
1512180460.449649,0.103707,0.060377,0.751405,-0.006416,0.002929,-0.022385,0.103332,-0.060340,-0.992815,-0.022568,-0.024850,0.025820,58.237057,18.511250,76.712280,,,,,,,
1512180460.469668,0.103778,0.060321,0.750947,-0.001068,0.000802,-0.022314,0.103403,-0.060284,-0.992811,-0.011820,-0.027027,0.004560,58.385967,18.286472,76.560898,,,,,,,
1512180460.489657,0.103819,0.060248,0.750443,-0.004176,0.001874,-0.026620,0.103444,-0.060212,-0.992811,-0.021566,-0.029098,0.017317,58.611156,18.361820,76.259033,,,,,,,
1512180460.509646,0.103867,0.060205,0.749936,0.001192,-0.000250,-0.027614,0.103493,-0.060169,-0.992809,-0.008278,-0.030774,-0.009282,58.836605,18.437153,76.482147,,,,,,,
1512180460.529666,0.103904,0.060174,0.749406,-0.003078,0.000808,-0.027674,0.103530,-0.060138,-0.992807,-0.026503,-0.035031,0.016488,58.461330,18.361591,76.635300,,,,,,,
1512180460.549655,0.103929,0.060159,0.748837,0.003352,-0.000246,-0.029717,0.103554,-0.060122,-0.992805,-0.015297,-0.032560,-0.000863,58.988811,18.887379,76.856079,,,,,,,
1512180460.569644,0.103955,0.060125,0.748260,-0.000907,-0.001317,-0.029781,0.103580,-0.060089,-0.992804,-0.026432,-0.033356,0.008704,58.988735,18.887379,76.706085,,,,,,,
1512180460.589663,0.103966,0.060114,0.747664,0.003344,-0.002385,-0.029726,0.103591,-0.060078,-0.992804,-0.018310,-0.030162,0.002737,58.763622,18.812046,77.157944,,,,,,,
1512180460.609652,0.103994,0.060105,0.747031,0.001282,-0.001305,-0.032946,0.103619,-0.060069,-0.992801,-0.024060,-0.028982,0.009464,58.764645,19.037052,77.158051,,,,,,,
1512180460.629641,0.103989,0.060063,0.746358,0.003426,-0.001303,-0.033982,0.103614,-0.060027,-0.992805,-0.018195,-0.026048,-0.006265,58.913738,18.812275,77.381683,,,,,,,
1512180460.649661,0.103927,0.060031,0.745657,-0.001900,-0.006655,-0.035147,0.103553,-0.059995,-0.992813,-0.025016,-0.028323,0.012390,58.314068,18.886372,77.386810,,,,,,,
1512180460.669650,0.103892,0.059985,0.744904,0.003485,-0.002368,-0.038252,0.103519,-0.059949,-0.992819,-0.015552,-0.024432,0.001837,58.315884,19.261372,77.611984,,,,,,,
1512180460.689639,0.103815,0.059913,0.744116,-0.000756,-0.004506,-0.039386,0.103443,-0.059877,-0.992831,-0.034671,-0.027235,0.013477,58.541363,19.336704,77.910095,,,,,,,
1512180460.709628,0.103736,0.059843,0.743295,0.004616,-0.005564,-0.042512,0.103365,-0.059807,-0.992844,-0.017061,-0.026771,-0.001098,58.314373,18.886372,77.986816,,,,,,,
1512180460.729647,0.103702,0.059798,0.742417,0.000397,-0.006629,-0.044706,0.103332,-0.059762,-0.992850,-0.019164,-0.031485,0.011054,57.865124,19.035694,78.140701,,,,,,,
1512180460.749636,0.103630,0.059750,0.741482,0.007896,-0.001266,-0.045641,0.103260,-0.059715,-0.992860,-0.027286,-0.027336,-0.010252,58.016216,19.260929,78.289520,,,,,,,
1512180460.769625,0.103569,0.059735,0.740501,0.003662,-0.003414,-0.048913,0.103200,-0.059700,-0.992867,-0.035695,-0.033531,0.017129,58.167187,19.486149,78.213364,,,,,,,
1512180460.789645,0.103527,0.059669,0.739512,0.010084,-0.002329,-0.049880,0.103159,-0.059634,-0.992876,-0.005991,-0.025892,-0.025252,57.718273,19.710484,78.367294,,,,,,,
1512180460.809634,0.103474,0.059668,0.738504,0.005821,-0.002335,-0.049942,0.103106,-0.059633,-0.992881,-0.039584,-0.030592,-0.008736,57.417599,19.560032,78.369766,,,,,,,
1512180460.829623,0.103408,0.059624,0.737472,0.006906,-0.005534,-0.051002,0.103041,-0.059588,-0.992891,-0.027510,-0.024762,-0.013884,57.344402,19.934910,78.595581,,,,,,,
1512180460.849642,0.103405,0.059635,0.736407,0.003773,-0.001263,-0.055300,0.103037,-0.059599,-0.992890,-0.024882,-0.029680,0.005876,57.643917,19.785358,78.967957,,,,,,,
1512180460.869631,0.103386,0.059629,0.735297,0.011237,-0.000182,-0.055187,0.103018,-0.059594,-0.992893,-0.024787,-0.023292,-0.014569,57.343533,19.709919,78.895477,,,,,,,
1512180460.889620,0.103396,0.059651,0.734180,0.003768,-0.001265,-0.055301,0.103028,-0.059616,-0.992890,-0.032563,-0.034775,-0.000579,57.417599,19.485020,79.044724,,,,,,,
1512180460.909640,0.103392,0.059633,0.733032,0.011266,-0.002316,-0.057327,0.103024,-0.059597,-0.992892,-0.020840,-0.020587,-0.018888,57.344021,19.784916,79.195496,,,,,,,
1512180460.929629,0.103357,0.059617,0.731859,0.002778,-0.003391,-0.059585,0.102990,-0.059582,-0.992896,-0.037026,-0.029956,0.006187,57.119656,19.934574,79.122482,,,,,,,
1512180460.949618,0.103323,0.059572,0.730650,0.009206,-0.006581,-0.061635,0.102956,-0.059537,-0.992902,-0.021963,-0.020892,-0.019869,56.894665,19.934238,79.124405,,,,,,,
1512180460.969607,0.103303,0.059542,0.729403,0.002832,-0.005519,-0.062789,0.102937,-0.059507,-0.992906,-0.043275,-0.035891,0.004381,56.592663,19.483784,79.201736,,,,,,,
1512180460.989627,0.103295,0.059495,0.728107,0.012476,-0.003371,-0.066911,0.102929,-0.059460,-0.992910,0.001960,-0.018268,-0.020442,56.668453,19.708912,78.751205,,,,,,,
1512180461.009616,0.103285,0.059474,0.726800,0.005027,-0.005511,-0.067023,0.102919,-0.059439,-0.992912,-0.013976,-0.029825,0.001686,56.520702,20.158680,79.202682,,,,,,,
1512180461.029605,0.103200,0.059431,0.725431,0.010352,-0.006566,-0.065880,0.102835,-0.059396,-0.992924,-0.029837,-0.022788,-0.007061,56.670818,20.158909,79.426407,,,,,,,
1512180461.049624,0.103100,0.059388,0.724027,0.001871,-0.005508,-0.069200,0.102736,-0.059353,-0.992936,-0.033568,-0.028217,0.003846,56.594769,19.933796,79.351944,,,,,,,
1512180461.069613,0.102980,0.059358,0.722613,0.009363,-0.010834,-0.071242,0.102617,-0.059323,-0.992950,0.005827,-0.021594,-0.013779,56.594738,19.933796,79.276947,,,,,,,
1512180461.089602,0.102874,0.059357,0.721170,0.005099,-0.007637,-0.071293,0.102511,-0.059322,-0.992961,-0.040088,-0.040501,0.015438,56.367672,19.483448,79.203644,,,,,,,
1512180461.109622,0.102762,0.059338,0.719689,0.010462,-0.009761,-0.073355,0.102400,-0.059303,-0.992974,-0.017256,-0.021156,-0.005119,56.294735,19.933338,79.279495,,,,,,,
1512180461.129611,0.102695,0.059341,0.718192,0.005147,-0.005498,-0.074485,0.102334,-0.059307,-0.992981,-0.027108,-0.034123,0.006408,56.445858,20.158573,79.503326,,,,,,,
1512180461.149600,0.102651,0.059297,0.716693,0.011538,-0.006551,-0.073326,0.102290,-0.059263,-0.992988,-0.018169,-0.026782,-0.016808,56.594357,19.858784,79.201904,,,,,,,
1512180461.169619,0.102626,0.059301,0.715179,0.006264,-0.005484,-0.076597,0.102266,-0.059266,-0.992990,-0.018847,-0.029784,0.012643,56.446087,20.233570,79.278366,,,,,,,
1512180461.189608,0.102639,0.059225,0.713663,0.010504,-0.000143,-0.075453,0.102280,-0.059190,-0.992993,-0.023300,-0.028334,-0.015430,56.446087,20.233570,79.278366,,,,,,,
1512180461.209597,0.102700,0.059154,0.712147,0.003039,0.000911,-0.075559,0.102341,-0.059119,-0.992991,-0.031555,-0.034768,-0.006078,56.521160,20.233677,79.427719,,,,,,,
1512180461.229586,0.102767,0.059073,0.710604,0.004139,-0.002280,-0.076615,0.102408,-0.059039,-0.992989,-0.019522,-0.021924,-0.000267,56.522961,20.683689,78.977936,,,,,,,
1512180461.249606,0.102781,0.058983,0.709092,0.003050,-0.000151,-0.075559,0.102422,-0.058949,-0.992993,-0.026357,-0.036419,-0.000141,56.822735,20.609135,79.200348,,,,,,,
1512180461.269595,0.102726,0.058891,0.707540,0.006293,-0.008686,-0.078740,0.102368,-0.058857,-0.993004,-0.008908,-0.024288,-0.006416,56.672100,20.458912,79.276550,,,,,,,
1512180461.289584,0.102673,0.058813,0.705992,0.000961,-0.006560,-0.078811,0.102315,-0.058780,-0.993014,-0.010945,-0.030484,0.002810,56.970821,20.159351,79.423859,,,,,,,
1512180461.309603,0.102641,0.058700,0.704422,0.002014,-0.003355,-0.077718,0.102285,-0.058667,-0.993024,-0.019414,-0.026691,0.000745,56.519924,20.008686,78.977615,,,,,,,
1512180461.329592,0.102614,0.058639,0.702804,0.005251,-0.004411,-0.079806,0.102258,-0.058605,-0.993030,-0.017435,-0.032124,0.000766,56.597057,20.458790,79.202194,,,,,,,
1512180461.349581,0.102633,0.058499,0.701137,0.004255,-0.003337,-0.084081,0.102277,-0.058466,-0.993036,-0.022138,-0.022757,0.003885,56.897732,20.609241,79.199707,,,,,,,
1512180461.369601,0.102639,0.058399,0.699470,0.004239,-0.003338,-0.083015,0.102284,-0.058365,-0.993042,-0.020970,-0.028930,-0.008530,56.371685,20.383457,79.129074,,,,,,,
1512180461.389590,0.102564,0.058223,0.697770,0.001070,-0.007613,-0.085209,0.102210,-0.058190,-0.993059,-0.013481,-0.021308,-0.000593,56.223339,20.758244,79.055511,,,,,,,
1512180461.409579,0.102476,0.058081,0.696055,-0.001057,-0.008689,-0.086312,0.102124,-0.058049,-0.993077,-0.045438,-0.032238,0.007923,56.143490,19.708118,78.830658,,,,,,,
1512180461.429600,0.102363,0.057912,0.694319,-0.002112,-0.012956,-0.086339,0.102013,-0.057879,-0.993098,0.000450,-0.009672,0.009669,56.148449,20.758121,79.281158,,,,,,,
1512180461.449589,0.102246,0.057746,0.692580,0.004299,-0.010809,-0.087305,0.101898,-0.057714,-0.993119,-0.018127,-0.033960,-0.010360,56.372738,20.608463,79.204163,,,,,,,
1512180461.469578,0.102098,0.057488,0.690790,-0.006342,-0.014027,-0.088537,0.101752,-0.057456,-0.993149,-0.019828,-0.020089,-0.001571,56.148556,20.758121,79.506149,,,,,,,
1512180461.489568,0.101935,0.057322,0.688960,0.001157,-0.011874,-0.090552,0.101592,-0.057290,-0.993175,-0.039229,-0.031760,0.002758,56.147839,20.608112,79.431076,,,,,,,
1512180461.509587,0.101777,0.057089,0.687127,0.004400,-0.010791,-0.092631,0.101436,-0.057058,-0.993204,-0.018901,-0.021890,-0.025137,56.148144,20.683125,79.356110,,,,,,,
1512180461.529576,0.101663,0.056910,0.685261,0.002278,-0.010797,-0.093730,0.101323,-0.056880,-0.993226,-0.013433,-0.032109,-0.008727,56.149075,20.908115,79.206223,,,,,,,
1512180461.549565,0.101541,0.056712,0.683348,0.001213,-0.011866,-0.093748,0.101204,-0.056682,-0.993250,-0.026741,-0.018651,-0.007681,56.374798,21.058460,79.279373,,,,,,,
1512180461.569585,0.101451,0.056589,0.681394,0.003411,-0.007585,-0.097968,0.101115,-0.056559,-0.993266,-0.040172,-0.029058,0.000392,56.148403,20.758121,79.206146,,,,,,,
1512180461.589574,0.101381,0.056402,0.679415,0.004518,-0.008644,-0.100086,0.101046,-0.056372,-0.993283,-0.000308,-0.009638,-0.020129,56.147427,20.533115,79.281052,,,,,,,
1512180461.609563,0.101338,0.056260,0.677439,0.000222,-0.004382,-0.098001,0.101004,-0.056231,-0.993296,-0.042289,-0.030378,0.002085,56.372051,20.458454,79.204102,,,,,,,
1512180461.629582,0.101263,0.056108,0.675401,0.004506,-0.009718,-0.100093,0.100931,-0.056078,-0.993312,-0.038919,-0.012678,-0.007070,56.149349,20.983128,79.056259,,,,,,,
1512180461.649571,0.101257,0.056012,0.673346,0.005639,-0.006499,-0.103260,0.100926,-0.055983,-0.993318,-0.007282,-0.025942,-0.002440,55.773037,20.682560,79.134308,,,,,,,
1512180461.669560,0.101235,0.055865,0.671289,0.009885,-0.003291,-0.102122,0.100904,-0.055836,-0.993328,-0.031767,-0.018719,-0.026188,56.375179,21.133457,79.354416,,,,,,,
1512180461.689580,0.101244,0.055800,0.669175,0.002434,-0.004372,-0.103301,0.100913,-0.055771,-0.993331,-0.040641,-0.020126,0.011412,56.225170,21.133244,79.355682,,,,,,,
1512180461.709569,0.101284,0.055741,0.667057,0.012059,-0.003287,-0.105291,0.100954,-0.055712,-0.993330,-0.028353,-0.011564,-0.013460,55.922543,20.532780,79.507965,,,,,,,
1512180461.729558,0.101354,0.055768,0.664905,0.008899,-0.001151,-0.107461,0.101023,-0.055739,-0.993321,-0.023218,-0.025758,0.012899,56.224575,20.983234,79.505615,,,,,,,
1512180461.749547,0.101426,0.055744,0.662742,0.016360,-0.002200,-0.106286,0.101094,-0.055715,-0.993316,-0.014241,-0.012507,-0.020555,55.923443,20.757786,79.283066,,,,,,,
1512180461.769566,0.101572,0.055813,0.660536,0.011078,0.003141,-0.108474,0.101239,-0.055784,-0.993297,-0.039288,-0.021578,0.013851,56.375439,21.208469,79.204453,,,,,,,
1512180461.789555,0.101701,0.055825,0.658337,0.018511,0.001002,-0.108380,0.101367,-0.055796,-0.993283,-0.019077,-0.015630,-0.009463,56.677090,21.583912,79.127075,,,,,,,
1512180461.809544,0.101837,0.055896,0.656155,0.011063,-0.000070,-0.108489,0.101503,-0.055867,-0.993265,-0.012529,-0.021922,0.000361,56.076900,21.508015,79.432129,,,,,,,
1512180461.829564,0.101946,0.056003,0.653982,0.017454,0.001005,-0.108394,0.101610,-0.055974,-0.993248,-0.031740,-0.015498,0.005165,56.225246,21.133244,79.505692,,,,,,,
1512180461.849553,0.102055,0.056199,0.651772,0.018546,0.001006,-0.110512,0.101717,-0.056169,-0.993226,-0.022051,-0.031446,0.019395,56.376217,21.358463,79.429520,,,,,,,
1512180461.869542,0.102111,0.056327,0.649536,0.020690,-0.005398,-0.111570,0.101772,-0.056298,-0.993214,-0.001476,-0.036354,-0.006115,56.527279,21.583698,79.503342,,,,,,,
1512180461.889561,0.102135,0.056547,0.647240,0.014266,-0.004341,-0.109526,0.101795,-0.056517,-0.993199,-0.039050,-0.015657,-0.006206,56.302944,21.733356,79.505325,,,,,,,
1512180461.909550,0.102038,0.056682,0.644906,0.021829,-0.012860,-0.115841,0.101698,-0.056652,-0.993201,-0.005308,0.012615,-0.024377,56.375546,21.208469,79.429443,,,,,,,
1512180461.929539,0.101933,0.056838,0.642625,0.016476,-0.011806,-0.114851,0.101592,-0.056808,-0.993203,0.009843,-0.003831,-0.018806,56.449795,21.058567,79.278748,,,,,,,
1512180461.949559,0.101892,0.056900,0.640284,0.013270,-0.002198,-0.113797,0.101551,-0.056869,-0.993204,-0.028095,-0.002823,-0.021598,56.525585,21.208698,79.503174,,,,,,,
1512180461.969548,0.101912,0.056934,0.637955,0.011108,-0.004339,-0.111702,0.101571,-0.056903,-0.993200,-0.023187,-0.018140,-0.024714,56.453243,21.808582,79.429077,,,,,,,
1512180461.989537,0.102047,0.056857,0.635638,0.013278,0.005280,-0.113770,0.101706,-0.056826,-0.993190,-0.015326,-0.006467,-0.037984,56.299114,20.908344,79.279953,,,,,,,
1512180462.009526,0.102261,0.056708,0.633361,0.007972,0.007413,-0.114905,0.101919,-0.056678,-0.993177,-0.029134,-0.023461,-0.040667,56.752575,21.659031,79.426468,,,,,,,
1512180462.029546,0.102475,0.056549,0.631082,0.000465,0.000985,-0.112906,0.102132,-0.056519,-0.993164,-0.053640,-0.006424,0.000122,56.377117,21.583469,79.204620,,,,,,,
1512180462.049535,0.102635,0.056440,0.628775,-0.000559,-0.001144,-0.115058,0.102292,-0.056410,-0.993154,-0.046307,-0.021211,0.021154,56.378017,21.733463,79.654694,,,,,,,
1512180462.069524,0.102774,0.056306,0.626492,0.004820,-0.001132,-0.118179,0.102431,-0.056276,-0.993147,-0.014601,-0.003233,0.010481,56.378170,21.808475,79.279724,,,,,,,
1512180462.089543,0.102910,0.056226,0.624213,0.002610,-0.001148,-0.113949,0.102566,-0.056196,-0.993138,-0.020138,-0.005038,0.012821,56.226482,21.433247,79.280823,,,,,,,
1512180462.109532,0.103037,0.056110,0.621859,0.007971,0.005277,-0.114912,0.102693,-0.056080,-0.993131,-0.057543,0.002385,0.011503,56.379299,22.033466,79.504837,,,,,,,
1512180462.129521,0.103122,0.056096,0.619442,0.014450,-0.002179,-0.120174,0.102778,-0.056067,-0.993123,-0.023096,-0.008997,-0.014522,56.530376,22.258701,79.653656,,,,,,,
1512180462.149541,0.103165,0.056017,0.617054,0.011248,-0.007525,-0.120239,0.102820,-0.055987,-0.993123,0.015634,0.009753,-0.016810,56.154858,22.183125,79.281815,,,,,,,
1512180462.169530,0.103105,0.056018,0.614614,0.013341,-0.008596,-0.118081,0.102761,-0.055989,-0.993129,-0.040978,-0.001552,-0.008458,56.379971,22.183475,79.504898,,,,,,,
1512180462.189519,0.103023,0.056041,0.612081,0.012401,-0.010724,-0.126634,0.102679,-0.056012,-0.993136,-0.028765,0.015271,0.010760,55.853436,21.882679,79.134216,,,,,,,
1512180462.209538,0.103007,0.056151,0.609562,0.019862,-0.008570,-0.125448,0.102663,-0.056122,-0.993132,-0.003526,0.002533,-0.012483,55.779293,22.032566,79.509933,,,,,,,
1512180462.229527,0.102964,0.056212,0.607035,0.018765,-0.007506,-0.123328,0.102620,-0.056183,-0.993133,-0.041844,0.005234,-0.006761,56.305828,22.408360,79.205643,,,,,,,
1512180462.249516,0.102851,0.056372,0.604447,0.020900,-0.013915,-0.124387,0.102506,-0.056342,-0.993135,-0.024610,0.002494,-0.010389,55.930386,22.257801,79.658752,,,,,,,
1512180462.269505,0.102774,0.056449,0.601848,0.023108,-0.007493,-0.128597,0.102430,-0.056419,-0.993139,-0.028806,0.011848,-0.018229,55.929592,22.107792,79.433685,,,,,,,
1512180462.289525,0.102679,0.056548,0.599212,0.017769,-0.008574,-0.128681,0.102334,-0.056518,-0.993143,-0.059106,0.001449,-0.022375,56.003963,21.957905,79.507980,,,,,,,
1512180462.309514,0.102695,0.056624,0.596567,0.017852,-0.006423,-0.132933,0.102350,-0.056594,-0.993137,-0.051356,0.021010,-0.004940,55.630352,22.257343,79.586304,,,,,,,
1512180462.329503,0.102763,0.056706,0.593894,0.024282,-0.002138,-0.134958,0.102418,-0.056675,-0.993126,-0.025315,0.007771,-0.037682,55.628170,21.807346,79.286102,,,,,,,
1512180462.349522,0.102787,0.056758,0.591226,0.016768,-0.007495,-0.131887,0.102441,-0.056728,-0.993120,-0.038873,0.012828,0.002047,55.705944,22.407459,79.435730,,,,,,,
1512180462.369511,0.102769,0.056824,0.588480,0.016814,-0.008560,-0.135089,0.102423,-0.056794,-0.993118,-0.049139,0.005799,0.005280,55.630199,22.257343,79.286316,,,,,,,
1512180462.389500,0.102772,0.056915,0.585715,0.022165,-0.004277,-0.136063,0.102426,-0.056884,-0.993113,-0.038110,0.013732,0.001078,55.706585,22.557453,79.360809,,,,,,,
1512180462.409520,0.102757,0.056994,0.582899,0.019083,-0.005331,-0.142504,0.102410,-0.056963,-0.993110,-0.033028,-0.005476,0.004783,55.405483,22.332005,79.213257,,,,,,,
1512180462.429478,0.102758,0.057057,0.580041,0.016917,-0.008548,-0.141485,0.102410,-0.057026,-0.993106,-0.054177,0.008931,0.016162,55.483791,23.007130,79.737930,,,,,,,
1512180462.449467,0.102775,0.057186,0.577134,0.018079,-0.007464,-0.146793,0.102426,-0.057155,-0.993097,-0.020685,-0.001637,0.009851,55.482037,22.632130,79.587753,,,,,,,
1512180462.469486,0.102807,0.057296,0.574208,0.019124,-0.004263,-0.145701,0.102458,-0.057265,-0.993088,-0.023402,0.003355,0.009796,55.480984,22.407124,79.512650,,,,,,,
1512180462.489475,0.102847,0.057461,0.571255,0.023333,-0.004264,-0.142443,0.102496,-0.057429,-0.993074,-0.056491,-0.006490,0.003404,55.181026,22.406666,79.590195,,,,,,,
1512180462.509464,0.102943,0.057520,0.568253,0.020262,-0.002116,-0.149942,0.102592,-0.057488,-0.993061,-0.044028,0.013574,0.010197,55.107937,22.856556,79.366043,,,,,,,
1512180462.529454,0.103033,0.057589,0.565265,0.021325,-0.003184,-0.149931,0.102681,-0.057557,-0.993048,-0.015034,-0.005767,-0.025675,55.482891,22.857121,79.287857,,,,,,,
1512180462.549473,0.103077,0.057609,0.562266,0.018095,-0.007463,-0.147859,0.102724,-0.057577,-0.993042,-0.028902,0.004949,-0.015167,55.409313,23.157017,79.438629,,,,,,,
1512180462.569462,0.103069,0.057645,0.559245,0.014917,-0.008532,-0.148974,0.102716,-0.057613,-0.993041,-0.041787,-0.007511,0.000197,55.482967,22.857121,79.437851,,,,,,,
1512180462.589451,0.103009,0.057562,0.556190,0.016021,-0.008525,-0.151089,0.102656,-0.057530,-0.993052,-0.038737,0.009023,-0.005087,55.031765,22.631443,79.066574,,,,,,,
1512180462.609471,0.103013,0.057514,0.553111,0.011813,-0.007456,-0.154344,0.102661,-0.057482,-0.993054,-0.015549,-0.007841,-0.006198,55.258114,22.931782,79.064804,,,,,,,
1512180462.629460,0.103011,0.057427,0.549966,0.008614,-0.009597,-0.154398,0.102659,-0.057395,-0.993059,-0.038877,0.005653,0.019518,55.334133,23.156895,79.064270,,,,,,,
1512180462.649449,0.103062,0.057397,0.546769,0.011900,-0.005310,-0.159666,0.102710,-0.057366,-0.993056,-0.074008,-0.004661,0.018706,55.034100,23.156452,78.991821,,,,,,,
1512180462.669468,0.103103,0.057346,0.543562,0.015151,-0.008509,-0.163898,0.102751,-0.057315,-0.993054,-0.025923,0.019549,-0.005099,55.333828,23.081898,79.139236,,,,,,,
1512180462.689457,0.103179,0.057339,0.540330,0.021504,-0.007432,-0.160602,0.102827,-0.057307,-0.993047,-0.007826,0.005672,-0.012873,55.334393,23.231907,78.914307,,,,,,,
1512180462.709446,0.103243,0.057327,0.537044,0.019363,0.000041,-0.159540,0.102890,-0.057295,-0.993041,-0.067490,0.003874,-0.004334,55.334774,23.306904,78.989334,,,,,,,
1512180462.729466,0.103335,0.057369,0.533669,0.019451,-0.001016,-0.164873,0.102981,-0.057337,-0.993029,-0.059265,0.008570,-0.006650,55.484386,23.232121,78.913040,,,,,,,
1512180462.749455,0.103461,0.057377,0.530285,0.022718,-0.002071,-0.169093,0.103106,-0.057346,-0.993016,-0.032794,0.013279,-0.024257,54.959133,23.231342,78.392502,,,,,,,
1512180462.769444,0.103495,0.057490,0.526897,0.023730,-0.009558,-0.166976,0.103140,-0.057458,-0.993006,-0.046194,0.003106,-0.011099,55.410625,23.532017,78.688812,,,,,,,
1512180462.789433,0.103499,0.057545,0.523477,0.020608,-0.011687,-0.171291,0.103143,-0.057514,-0.993002,-0.022485,0.024127,0.000021,55.559658,23.307240,78.762436,,,,,,,
1512180462.809452,0.103540,0.057660,0.520008,0.020641,-0.000998,-0.172317,0.103183,-0.057628,-0.992992,-0.047428,-0.006245,-0.012364,55.485332,23.457127,78.763138,,,,,,,
1512180462.829441,0.103489,0.057756,0.516519,0.016394,-0.011689,-0.174551,0.103132,-0.057724,-0.992991,-0.062926,0.004455,0.031245,55.260555,23.531788,78.540100,,,,,,,
1512180462.849430,0.103591,0.057906,0.512999,0.024963,-0.007397,-0.176543,0.103232,-0.057873,-0.992972,-0.014487,0.010113,-0.002328,55.561001,23.607243,78.762573,,,,,,,
1512180462.869450,0.103692,0.057995,0.509458,0.028156,0.001155,-0.175399,0.103332,-0.057963,-0.992957,-0.040023,0.008982,-0.012491,55.410473,23.532017,78.388809,,,,,,,
1512180462.889439,0.103729,0.058077,0.505896,0.022833,-0.005264,-0.176566,0.103369,-0.058044,-0.992948,-0.036154,-0.008988,-0.012225,55.260403,23.456791,78.915054,,,,,,,
1512180462.909428,0.103804,0.058184,0.502299,0.020718,-0.006333,-0.177667,0.103442,-0.058151,-0.992934,-0.028170,0.019348,0.017165,55.411007,23.607014,78.763840,,,,,,,
1512180462.929447,0.103786,0.058299,0.498722,0.028167,-0.008456,-0.176498,0.103424,-0.058266,-0.992929,-0.031769,-0.014366,-0.015829,55.486675,23.757130,78.763275,,,,,,,
1512180462.949436,0.103781,0.058361,0.495151,0.022889,-0.009526,-0.179777,0.103418,-0.058328,-0.992926,-0.016062,-0.001425,0.009268,55.785564,23.532581,78.535629,,,,,,,
1512180462.969425,0.103736,0.058474,0.491575,0.024935,-0.013804,-0.174430,0.103373,-0.058441,-0.992924,-0.020060,-0.002228,-0.013439,55.786724,23.757587,78.835724,,,,,,,
1512180462.989445,0.103616,0.058563,0.487978,0.017530,-0.015950,-0.178813,0.103253,-0.058530,-0.992931,-0.053968,-0.002521,0.027920,55.859203,23.232685,78.534851,,,,,,,
1512180463.009434,0.103490,0.058722,0.484408,0.030343,-0.022332,-0.179713,0.103127,-0.058688,-0.992935,0.001304,-0.012189,-0.022858,56.086651,23.758030,78.683182,,,,,,,
1512180463.029423,0.103276,0.058806,0.480867,0.023889,-0.018080,-0.176596,0.102915,-0.058772,-0.992952,-0.015299,0.004146,0.007845,55.862926,24.057697,78.535233,,,,,,,
1512180463.049412,0.103004,0.058891,0.477297,0.023843,-0.022361,-0.174481,0.102644,-0.058857,-0.992975,-0.053724,-0.013317,-0.011770,56.012020,23.832920,78.758850,,,,,,,
1512180463.069432,0.102748,0.059008,0.473730,0.028144,-0.021281,-0.176547,0.102389,-0.058974,-0.992995,-0.008181,0.000487,-0.009065,55.487240,23.907124,78.538361,,,,,,,
1512180463.089421,0.102499,0.059076,0.470185,0.030253,-0.018072,-0.174370,0.102141,-0.059042,-0.993016,-0.008925,-0.006235,-0.023189,56.082821,22.933018,78.457794,,,,,,,
1512180463.109410,0.102269,0.059082,0.466612,0.020678,-0.017017,-0.175572,0.101913,-0.059047,-0.993039,-0.048248,0.003933,-0.003314,55.864376,24.357700,78.760361,,,,,,,
1512180463.129429,0.102093,0.059120,0.463038,0.013197,-0.019168,-0.174622,0.101738,-0.059086,-0.993055,-0.018135,-0.030712,0.016599,56.164715,24.433140,78.757843,,,,,,,
1512180463.149418,0.101948,0.059205,0.459437,0.028202,-0.019137,-0.179736,0.101593,-0.059170,-0.993065,-0.021896,0.002652,-0.016518,56.088345,24.133030,78.683350,,,,,,,
1512180463.169407,0.101820,0.059271,0.455887,0.017477,-0.014888,-0.175612,0.101465,-0.059236,-0.993074,-0.070490,-0.016966,0.030672,55.937923,24.057804,78.534592,,,,,,,
1512180463.189427,0.101607,0.059334,0.452299,0.031316,-0.017005,-0.174352,0.101254,-0.059299,-0.993092,-0.043027,0.004215,-0.014889,56.086620,23.758030,78.608185,,,,,,,
1512180463.209416,0.101340,0.059348,0.448716,0.020724,-0.023421,-0.178792,0.100989,-0.059313,-0.993118,-0.018881,-0.002576,-0.014252,56.013943,24.282917,78.534058,,,,,,,
1512180463.229405,0.101164,0.059390,0.445104,0.022880,-0.018073,-0.179807,0.100813,-0.059355,-0.993133,-0.040556,0.003279,-0.004578,56.014538,24.432911,78.384140,,,,,,,
1512180463.249424,0.101091,0.059465,0.441447,0.017628,-0.010588,-0.183051,0.100741,-0.059430,-0.993136,-0.061266,-0.014789,0.016741,56.315090,24.508366,78.831604,,,,,,,
1512180463.269413,0.101036,0.059488,0.437774,0.024001,-0.011657,-0.182968,0.100686,-0.059453,-0.993140,-0.043451,0.010914,0.001716,56.238934,24.283253,78.532150,,,,,,,
1512180463.289402,0.100950,0.059528,0.434076,0.016578,-0.017002,-0.185224,0.100600,-0.059493,-0.993147,-0.028655,-0.005158,0.012403,56.240017,24.508259,78.682251,,,,,,,
1512180463.309391,0.100857,0.059584,0.430356,0.029313,-0.014862,-0.182906,0.100507,-0.059548,-0.993153,-0.035795,-0.002860,-0.008160,56.091412,24.808033,78.758667,,,,,,,
1512180463.329411,0.100687,0.059620,0.426605,0.014438,-0.014874,-0.185251,0.100338,-0.059585,-0.993168,-0.068554,-0.010026,0.025425,55.861431,23.757694,78.235092,,,,,,,
1512180463.349400,0.100517,0.059638,0.422840,0.017705,-0.022336,-0.189492,0.100169,-0.059603,-0.993183,-0.035045,-0.000959,0.027928,56.016644,24.882923,78.534348,,,,,,,
1512180463.369389,0.100448,0.059704,0.419103,0.028388,-0.009493,-0.189289,0.100100,-0.059669,-0.993187,-0.023043,-0.003396,-0.033989,56.166042,24.733143,78.682999,,,,,,,
1512180463.389408,0.100411,0.059606,0.415322,0.016638,-0.010585,-0.188398,0.100065,-0.059571,-0.993196,-0.040021,0.011796,-0.006209,56.317837,25.183369,78.231934,,,,,,,
1512180463.409397,0.100428,0.059666,0.411538,0.025078,-0.005250,-0.183999,0.100081,-0.059630,-0.993191,-0.036696,-0.007646,-0.016422,56.164761,24.508137,78.157898,,,,,,,
1512180463.429358,0.100419,0.059560,0.407772,0.020839,-0.007387,-0.185131,0.100073,-0.059525,-0.993198,-0.046530,-0.003906,0.004627,56.619335,25.483829,78.529526,,,,,,,
