timestamp(unix),attitude_roll(radians),attitude_pitch(radians),attitude_yaw(radians),rotation_rate_x(radians/s),rotation_rate_y(radians/s),rotation_rate_z(radians/s),gravity_x(G),gravity_y(G),gravity_z(G),user_acc_x(G),user_acc_y(G),user_acc_z(G),magnetic_field_x(microteslas),magnetic_field_y(microteslas),magnetic_field_z(microteslas),latitude(degree),longitude(degree),altitude(meter),speed(m/s),course(degree),timestamp(unix),User Mark
1512180023.182702,-0.044636,0.799068,-0.111308,0.048295,0.211212,-0.024957,-0.031118,-0.716706,-0.696680,-0.060801,0.013414,-0.061804,30.303726,-32.251030,-31.950645,,,,,,,
1512180023.202691,-0.040211,0.802262,-0.112980,0.203813,0.091933,-0.088150,-0.027942,-0.718930,-0.694520,-0.026516,0.009717,-0.027083,30.977798,-32.475014,-31.806480,,,,,,,
1512180023.222680,-0.038855,0.806619,-0.115287,0.200648,-0.085369,-0.098405,-0.026879,-0.721951,-0.691421,-0.004036,-0.000522,0.008407,30.752045,-32.625359,-31.954643,,,,,,,
1512180023.242699,-0.039605,0.809720,-0.117873,0.117322,-0.137860,-0.091270,-0.027308,-0.724094,-0.689160,0.012049,-0.006741,0.034879,30.749527,-33.150352,-32.254875,,,,,,,
1512180023.262688,-0.040738,0.810912,-0.119753,0.026156,-0.103879,-0.055157,-0.028054,-0.724916,-0.688266,0.006615,-0.003218,0.023425,30.976181,-32.775017,-32.331612,,,,,,,
1512180023.282677,-0.040244,0.811321,-0.121422,0.026459,0.008304,-0.068623,-0.027702,-0.725198,-0.687983,-0.001930,0.010735,0.016688,30.750122,-33.000359,-32.404808,,,,,,,
1512180023.302697,-0.037402,0.812068,-0.123831,0.034285,0.062828,-0.088577,-0.025726,-0.725712,-0.687518,0.010925,0.014439,0.018664,30.675507,-32.925468,-32.329124,,,,,,,
1512180023.322686,-0.034342,0.812917,-0.126326,0.051377,0.077816,-0.089341,-0.023602,-0.726296,-0.686977,0.015286,0.014320,0.008968,30.898331,-33.375130,-32.631248,,,,,,,
1512180023.342675,-0.030193,0.815117,-0.128699,0.142861,0.134547,-0.073956,-0.020703,-0.727806,-0.685471,0.011654,0.023139,0.006973,31.801559,-32.698784,-32.263588,,,,,,,
1512180023.362664,-0.027131,0.818211,-0.130227,0.128652,0.063988,-0.056285,-0.018542,-0.729924,-0.683276,0.030246,0.017720,0.001925,31.425201,-32.999336,-32.260536,,,,,,,
1512180023.382683,-0.024816,0.818682,-0.132516,-0.064841,0.054141,-0.088973,-0.016952,-0.730246,-0.682974,0.019256,0.004553,0.026541,31.722122,-33.673897,-32.338402,,,,,,,
1512180023.402672,-0.019591,0.813395,-0.134296,-0.380289,0.286389,-0.019177,-0.013459,-0.726624,-0.686904,0.003205,0.000855,0.055602,32.026108,-32.773445,-32.490532,,,,,,,
1512180023.422661,-0.011801,0.803269,-0.133674,-0.550627,0.488964,0.040889,-0.008194,-0.719630,-0.694309,-0.005997,0.003733,0.017658,32.254898,-31.948097,-32.342064,,,,,,,
1512180023.442681,0.001329,0.793127,-0.134380,-0.467523,0.682669,-0.075563,0.000933,-0.712550,-0.701620,-0.040056,0.003474,-0.065775,32.855118,-31.872200,-32.572136,,,,,,,
1512180023.462670,0.021710,0.783849,-0.139458,-0.464485,0.971420,-0.246152,0.015374,-0.706011,-0.708034,-0.038216,-0.017836,-0.007481,33.834137,-31.045738,-31.980049,,,,,,,
1512180023.482659,0.049914,0.774295,-0.147780,-0.480642,1.170298,-0.355497,0.035669,-0.699212,-0.714024,-0.048059,-0.090003,-0.013119,34.661240,-30.594490,-31.836861,,,,,,,
1512180023.502678,0.076872,0.761422,-0.156518,-0.736218,0.848318,-0.323007,0.055589,-0.689951,-0.721718,-0.092592,-0.010565,0.037910,35.563904,-29.993126,-31.919228,,,,,,,
1512180023.522667,0.086712,0.740473,-0.162390,-1.201343,-0.034682,-0.346678,0.063926,-0.674637,-0.735376,-0.077003,0.079407,0.107385,35.941376,-29.392570,-32.372124,,,,,,,
1512180023.542656,0.079908,0.713688,-0.172563,-1.311506,-1.075904,-0.569372,0.060342,-0.654626,-0.753540,-0.100320,-0.023535,0.104065,36.473618,-27.666771,-33.425789,,,,,,,
1512180023.562676,0.057471,0.687860,-0.185638,-1.175792,-1.760436,-0.558062,0.044378,-0.634885,-0.771331,-0.026785,-0.091372,0.056197,35.957169,-25.642540,-34.545387,,,,,,,
1512180023.582665,0.025188,0.669586,-0.194836,-0.707130,-1.899132,-0.282042,0.019747,-0.620662,-0.783829,0.064542,-0.070821,0.042039,35.216278,-23.468651,-35.887993,,,,,,,
1512180023.602654,0.010382,0.660168,-0.198450,-0.341871,-0.308351,-0.115570,0.008201,-0.613250,-0.789846,0.052239,0.058333,0.165762,34.394348,-22.644890,-37.155602,,,,,,,
1512180023.622643,0.017531,0.655734,-0.201616,-0.187030,0.508071,-0.156327,0.013895,-0.609741,-0.792479,-0.092081,0.132050,0.177031,34.324600,-21.445000,-37.454414,,,,,,,
1512180023.642663,0.032004,0.651389,-0.206487,-0.223834,0.489919,-0.187838,0.025447,-0.606292,-0.794835,-0.041163,0.115370,0.033727,34.401398,-21.069878,-37.229881,,,,,,,
1512180023.662652,0.027722,0.645567,-0.206679,-0.350335,-0.732901,0.118429,0.022140,-0.601651,-0.798452,0.066330,0.078458,-0.269633,35.082031,-19.868858,-36.785057,,,,,,,
1512180023.682641,-0.001907,0.639098,-0.196612,-0.268494,-1.204731,0.562519,-0.001530,-0.596472,-0.802633,0.001835,0.107366,-0.081950,34.561523,-18.819633,-37.230110,,,,,,,
1512180023.702660,-0.025011,0.636385,-0.182298,-0.042128,-0.425569,0.514142,-0.020113,-0.594292,-0.803998,0.109987,0.076958,0.008237,33.586044,-18.896095,-37.521858,,,,,,,
1512180023.722649,-0.040160,0.639186,-0.170962,0.244560,-0.486966,0.450918,-0.032223,-0.596542,-0.801934,0.108807,0.045502,-0.078360,32.836227,-18.897224,-37.140495,,,,,,,
1512180023.742638,-0.053729,0.641203,-0.158302,0.005560,-0.223661,0.541120,-0.043036,-0.598160,-0.800220,0.309440,-0.133346,-0.068799,32.535919,-18.972679,-37.062981,,,,,,,
1512180023.762658,-0.062940,0.638451,-0.148900,-0.160251,-0.236163,0.251904,-0.050509,-0.595952,-0.801430,0.094301,0.043157,-0.071343,32.087051,-18.748344,-36.834038,,,,,,,
1512180023.782647,-0.076502,0.637470,-0.145172,0.098958,-0.719338,0.089806,-0.061418,-0.595165,-0.801253,0.074144,0.033504,-0.142656,31.488052,-18.524254,-36.828835,,,,,,,
1512180023.802636,-0.095670,0.644757,-0.143217,0.511694,-1.000668,0.064955,-0.076347,-0.601005,-0.795590,0.034828,0.045585,-0.123355,31.412079,-18.674355,-37.428276,,,,,,,
1512180023.822655,-0.120330,0.656564,-0.137304,0.627166,-1.054237,0.235946,-0.095083,-0.610399,-0.786366,0.007375,0.025453,-0.060527,30.435608,-18.975822,-37.645119,,,,,,,
1512180023.842644,-0.145303,0.666971,-0.128765,0.513930,-0.919862,0.256091,-0.113763,-0.618609,-0.777419,-0.016517,0.004977,-0.026597,29.382202,-19.727409,-37.711540,,,,,,,
1512180023.862633,-0.164114,0.675080,-0.122207,0.406036,-0.622864,0.155354,-0.127543,-0.624960,-0.770167,-0.057241,-0.005869,-0.007451,28.479843,-20.253761,-37.704140,,,,,,,
1512180023.882653,-0.176334,0.682901,-0.117788,0.433105,-0.418638,0.075437,-0.136082,-0.631046,-0.763716,-0.061534,-0.012066,0.012907,27.652466,-20.780006,-37.697365,,,,,,,
1512180023.902642,-0.186838,0.690869,-0.114208,0.378749,-0.426194,0.074625,-0.143158,-0.637207,-0.757280,-0.086166,-0.032379,0.040513,27.350220,-21.230446,-38.145027,,,,,,,
1512180023.922631,-0.198762,0.695523,-0.109691,0.184305,-0.435214,0.164524,-0.151590,-0.640787,-0.752603,-0.100287,-0.041326,0.059824,26.673828,-21.531471,-38.214424,,,,,,,
1512180023.942650,-0.207562,0.695188,-0.103522,-0.058387,-0.098285,0.286904,-0.158251,-0.640530,-0.751450,-0.106306,-0.034519,0.059449,26.673187,-21.681465,-38.139503,,,,,,,
1512180023.962639,-0.212167,0.690782,-0.095029,-0.190765,0.078670,0.371955,-0.162303,-0.637140,-0.753465,-0.151051,0.048975,0.044008,26.294296,-22.507042,-38.511696,,,,,,,
1512180023.982628,-0.214501,0.685369,-0.088815,-0.212380,0.115302,0.198003,-0.164793,-0.632958,-0.756443,-0.110887,-0.106635,0.013264,26.524094,-21.456688,-38.363121,,,,,,,
1512180024.002617,-0.209525,0.680136,-0.093006,-0.361515,0.088210,-0.262657,-0.161714,-0.628899,-0.760483,-0.139419,0.000313,0.019257,26.976273,-20.931007,-38.741692,,,,,,,
1512180024.022637,-0.203743,0.673424,-0.101825,-0.373414,-0.020902,-0.192850,-0.158164,-0.623666,-0.765522,-0.034020,-0.023673,0.041340,27.352814,-20.555443,-39.044701,,,,,,,
1512180024.042626,-0.205718,0.668854,-0.102917,-0.152338,-0.212344,0.096457,-0.160256,-0.620087,-0.767991,-0.045966,0.033249,0.050492,27.278702,-20.330559,-39.268974,,,,,,,
1512180024.062585,-0.214792,0.666094,-0.099429,-0.105913,-0.411124,0.180657,-0.167582,-0.617920,-0.768174,-0.092198,-0.008743,0.048310,26.829727,-20.106239,-39.265038,,,,,,,
1512180024.082604,-0.226941,0.663184,-0.097840,-0.119305,-0.615905,0.013446,-0.177307,-0.615629,-0.767830,-0.157761,-0.005846,0.092812,26.531937,-19.581688,-39.562233,,,,,,,
1512180024.102593,-0.239507,0.662390,-0.101301,-0.039303,-0.790568,-0.192821,-0.187057,-0.615003,-0.766016,-0.132890,-0.024752,0.091456,26.232010,-19.507133,-40.084663,,,,,,,
1512180024.122583,-0.251304,0.663993,-0.107244,0.059841,-0.699499,-0.252899,-0.195835,-0.616266,-0.762800,-0.114315,-0.012426,0.148085,26.458130,-19.206795,-40.536430,,,,,,,
1512180024.142602,-0.257897,0.667367,-0.112352,0.131145,-0.393929,-0.230547,-0.200328,-0.618920,-0.759477,-0.063450,-0.042014,0.173952,26.308884,-19.057014,-40.385094,,,,,,,
1512180024.162591,-0.264919,0.670987,-0.117609,0.110001,-0.625712,-0.251912,-0.205068,-0.621759,-0.755885,-0.006892,0.015955,0.190745,25.860382,-18.682686,-40.756096,,,,,,,
1512180024.182580,-0.278277,0.673094,-0.120941,0.032815,-0.850571,-0.043803,-0.214786,-0.623408,-0.751817,0.014606,0.022716,0.197099,26.161621,-18.382240,-40.983498,,,,,,,
1512180024.202600,-0.302819,0.671424,-0.117050,-0.075975,-1.273278,0.262308,-0.233481,-0.622102,-0.747312,0.142859,0.032548,0.074018,25.338974,-17.858467,-40.976250,,,,,,,
1512180024.222589,-0.335043,0.670352,-0.110093,0.194434,-1.351947,0.280877,-0.257656,-0.621262,-0.740031,0.203518,0.007126,-0.037694,24.218292,-16.885155,-41.116234,,,,,,,
1512180024.242578,-0.363609,0.676247,-0.103074,0.443210,-1.126833,0.075254,-0.277381,-0.625870,-0.728935,0.188239,-0.026504,-0.085442,23.393555,-16.811378,-41.259178,,,,,,,
1512180024.262597,-0.384359,0.683084,-0.100740,0.242924,-0.882276,-0.050461,-0.290834,-0.631188,-0.719039,0.279191,-0.100211,-0.090577,22.941864,-17.187065,-41.255531,,,,,,,
1512180024.282586,-0.400811,0.681002,-0.101546,-0.336797,-0.809695,0.069319,-0.303136,-0.629571,-0.715366,0.264699,-0.084647,-0.048367,22.494339,-16.662743,-41.026466,,,,,,,
1512180024.302575,-0.411253,0.666528,-0.103343,-0.899084,-0.379484,0.313193,-0.314199,-0.618261,-0.720439,0.218160,-0.066370,0.007228,21.973877,-15.613518,-41.396507,,,,,,,
1512180024.322564,-0.408542,0.644551,-0.108933,-1.222587,0.306193,0.117936,-0.317567,-0.600840,-0.733582,0.094727,-0.038504,0.021592,21.979721,-14.338509,-41.170921,,,,,,,
1512180024.342584,-0.389037,0.616038,-0.125318,-1.720796,0.476668,-0.045398,-0.309573,-0.577806,-0.755185,0.174731,-0.011443,-0.227877,22.662109,-12.687477,-41.250893,,,,,,,
1512180024.362573,-0.368520,0.585340,-0.132302,-1.355639,1.060392,0.530131,-0.300265,-0.552483,-0.777563,0.196093,-0.050926,-0.012629,23.195435,-10.886681,-40.804543,,,,,,,
1512180024.382562,-0.352583,0.561047,-0.125666,-0.836416,0.830102,0.709554,-0.292384,-0.532073,-0.794613,0.133739,-0.028474,-0.068714,24.025085,-9.910439,-40.286095,,,,,,,
1512180024.402581,-0.346905,0.548871,-0.117700,-0.217673,0.311444,0.399027,-0.290049,-0.521725,-0.802293,0.034113,-0.069950,-0.041914,24.325348,-9.909996,-39.763649,,,,,,,
1512180024.422570,-0.348336,0.548086,-0.111878,0.164897,-0.011241,0.197696,-0.291337,-0.521055,-0.802262,0.003755,-0.116641,0.005219,24.475128,-9.984764,-39.539955,,,,,,,
1512180024.442559,-0.352180,0.550053,-0.106915,0.118692,-0.041130,0.154283,-0.294064,-0.522732,-0.800173,-0.040485,-0.075946,0.090609,24.474197,-10.209770,-39.390068,,,,,,,
1512180024.462579,-0.352132,0.548027,-0.104280,-0.165605,0.140050,0.142264,-0.294391,-0.521005,-0.801179,-0.087842,-0.074653,0.133485,24.700836,-9.834435,-39.466805,,,,,,,
1512180024.482568,-0.348612,0.541401,-0.102634,-0.326765,0.221898,0.222301,-0.292742,-0.515337,-0.805438,-0.147566,-0.055037,0.155856,24.927719,-9.459084,-39.093544,,,,,,,
1512180024.502557,-0.350023,0.534968,-0.100440,-0.197054,-0.191170,0.158781,-0.295008,-0.509813,-0.808121,-0.205114,-0.047117,0.133011,24.928238,-9.384087,-38.718513,,,,,,,
1512180024.522576,-0.360580,0.534334,-0.100587,0.061679,-0.724353,-0.106908,-0.303637,-0.509268,-0.805264,-0.276792,-0.072397,0.137860,24.704926,-9.009422,-38.716438,,,,,,,
1512180024.542565,-0.375659,0.539040,-0.107589,0.108788,-0.999062,-0.520814,-0.314862,-0.513312,-0.798356,-0.318164,-0.048699,0.157914,24.106125,-8.710320,-39.011192,,,,,,,
1512180024.562554,-0.387446,0.546554,-0.123283,0.111158,-0.989844,-0.857620,-0.322784,-0.519746,-0.790996,-0.285020,-0.034423,0.143412,23.735474,-7.735878,-39.082558,,,,,,,
1512180024.582574,-0.400032,0.555930,-0.141108,0.158099,-1.210864,-0.870502,-0.330800,-0.527734,-0.782347,-0.190013,-0.049552,0.137328,23.286682,-7.436546,-39.378578,,,,,,,
1512180024.602563,-0.421871,0.566575,-0.157623,0.254150,-1.713905,-0.836746,-0.345486,-0.536746,-0.769768,-0.150516,-0.023481,0.143440,22.614151,-6.837563,-39.822563,,,,,,,
1512180024.622552,-0.454254,0.578881,-0.173156,0.287180,-2.222270,-0.860423,-0.367302,-0.547088,-0.752186,-0.099129,-0.006227,0.104664,21.191650,-6.239693,-40.185188,,,,,,,
1512180024.642541,-0.494200,0.592919,-0.187458,0.422043,-2.431475,-0.838943,-0.393365,-0.558785,-0.730084,-0.066153,0.014565,0.060757,19.993042,-5.866493,-40.774803,,,,,,,
1512180024.662561,-0.533489,0.610929,-0.201442,0.528771,-2.324099,-1.034241,-0.416553,-0.573628,-0.705289,-0.046856,0.084432,0.080549,18.196228,-5.119179,-41.134163,,,,,,,
1512180024.682550,-0.569831,0.633187,-0.217890,0.650533,-2.227509,-1.173931,-0.434907,-0.591717,-0.678768,0.040620,0.056057,0.110103,16.997681,-4.745979,-41.573784,,,,,,,
1512180024.702539,-0.602559,0.657296,-0.233604,0.646131,-2.075732,-1.222504,-0.448668,-0.610978,-0.652228,0.077147,0.102159,0.092246,15.348099,-4.598457,-42.084694,,,,,,,
1512180024.722558,-0.627227,0.685725,-0.254465,0.740468,-1.759675,-1.627274,-0.454238,-0.633234,-0.626643,0.074722,0.171061,0.140162,13.925491,-4.075584,-41.997337,,,,,,,
1512180024.742547,-0.655615,0.717287,-0.275393,0.825593,-2.370764,-1.517293,-0.459424,-0.657343,-0.597351,0.110242,0.158136,0.010696,12.277695,-3.628059,-41.608101,,,,,,,
1512180024.762536,-0.688020,0.747533,-0.294623,0.714972,-2.195874,-1.460727,-0.465695,-0.679831,-0.566530,0.091046,0.159934,0.130937,10.705353,-3.030418,-41.669441,,,,,,,
1512180024.782556,-0.724269,0.774839,-0.308322,0.731258,-2.376014,-1.098654,-0.473440,-0.699601,-0.535173,0.051794,0.064576,0.069201,9.205124,-3.107674,-41.431725,,,,,,,
1512180024.802545,-0.771351,0.795742,-0.311118,0.673755,-2.415563,-0.586848,-0.487801,-0.714383,-0.501702,0.131356,0.065717,0.045022,7.482117,-2.735252,-40.816902,,,,,,,
1512180024.822534,-0.816039,0.807683,-0.307482,0.382048,-1.833549,-0.194609,-0.503477,-0.722687,-0.473532,0.043379,0.024216,-0.008967,5.532700,-2.663170,-40.275291,,,,,,,
1512180024.842553,-0.846641,0.808871,-0.306535,-0.126216,-1.315585,0.009843,-0.517087,-0.723508,-0.457336,0.036069,0.150769,-0.049180,3.960098,-2.215538,-39.511696,,,,,,,
1512180024.862542,-0.869782,0.804754,-0.318066,-0.584719,-1.921653,-0.142826,-0.529802,-0.720660,-0.447165,0.200655,0.266375,-0.144219,3.140350,-1.166771,-38.454201,,,,,,,
1512180024.882531,-0.913776,0.798202,-0.336508,-0.725347,-3.344689,-0.153013,-0.552683,-0.716103,-0.426307,0.180155,0.210899,-0.116387,1.342636,-0.719460,-37.913704,,,,,,,
1512180024.902551,-0.973378,0.793764,-0.358076,-0.754397,-3.896590,-0.357906,-0.579716,-0.712998,-0.394412,0.124760,0.036194,-0.154233,-0.898560,1.077171,-36.468758,,,,,,,
1512180024.922540,-1.026782,0.794543,-0.387110,-0.883031,-3.436822,-0.680118,-0.599468,-0.713543,-0.362618,0.018444,-0.201526,-0.282859,-6.138153,3.094322,-33.798210,,,,,,,
1512180024.942529,-1.055998,0.800995,-0.422901,-0.914975,-2.251580,-1.012265,-0.605785,-0.718049,-0.342678,-0.118580,0.007630,-0.311604,-7.483307,3.992302,-32.211327,,,,,,,
1512180024.962518,-1.067800,0.807663,-0.452895,-0.602687,-1.448670,-0.581723,-0.605579,-0.722674,-0.333189,-0.121762,0.029803,-0.223192,-8.757263,4.140388,-31.450432,,,,,,,
1512180024.982537,-1.093399,0.812187,-0.463927,0.024811,-1.978987,-0.388983,-0.610999,-0.725793,-0.316074,0.002097,-0.002448,-0.300839,-10.103699,4.813362,-30.388634,,,,,,,
1512180025.002526,-1.153286,0.828738,-0.458781,0.808670,-3.184875,-0.919116,-0.617754,-0.737079,-0.274029,0.043734,-0.033566,-0.263721,-11.682205,3.911003,-29.250679,,,,,,,
1512180025.022515,-1.222655,0.864205,-0.440064,1.440902,-2.367411,-1.658683,-0.610294,-0.760580,-0.221490,0.123676,-0.025980,-0.181678,-13.487228,2.708290,-28.485939,,,,,,,
1512180025.042535,-1.282987,0.907965,-0.408957,1.679110,-1.626549,-1.781650,-0.590039,-0.788253,-0.174669,-0.006640,-0.105805,-0.215544,-14.018570,1.207497,-27.657173,,,,,,,
1512180025.062522,-1.355657,0.952179,-0.368884,1.695068,-2.359114,-1.879913,-0.566539,-0.814681,-0.123801,-0.001927,-0.063584,-0.231836,-15.075439,-0.369087,-27.198967,,,,,,,
1512180025.082511,-1.443366,0.993660,-0.328540,1.339647,-2.887470,-1.814405,-0.541201,-0.838029,-0.069341,0.119616,0.048203,-0.188609,-16.802872,-1.046684,-25.984627,,,,,,,
1512180025.102530,-1.534736,1.030551,-0.291317,1.042635,-3.006693,-1.716784,-0.514010,-0.857583,-0.018543,0.018420,-0.007057,-0.210003,-18.235123,-2.773827,-24.923317,,,,,,,
1512180025.122519,-1.623972,1.062839,-0.252421,0.933455,-2.644010,-1.542267,-0.485704,-0.873740,0.025852,-0.143752,-0.098398,-0.152668,-19.364395,-3.825523,-24.014244,,,,,,,
1512180025.142508,-1.715832,1.088753,-0.205244,1.057340,-2.469016,-1.354374,-0.458721,-0.886049,0.067002,0.084744,-0.024260,-0.150467,-20.495102,-5.252220,-22.580360,,,,,,,
1512180025.162528,-1.821627,1.112886,-0.137923,1.344873,-2.067431,-1.638774,-0.428239,-0.896978,0.109726,0.092042,0.242590,-0.156418,-21.025696,-6.603020,-21.601524,,,,,,,
1512180025.182517,-1.945067,1.143637,-0.042479,1.548125,-1.814638,-2.381196,-0.385607,-0.910146,0.151460,-0.022139,0.319417,-0.208696,-21.709473,-8.704048,-20.246758,,,,,,,
1512180025.202506,-2.087326,1.105655,0.165332,4.868762,2.145220,-0.370552,-0.390030,-0.893758,0.221522,0.060440,0.510778,-0.281611,-20.520523,-11.102257,-20.783058,,,,,,,
1512180025.222526,-2.232056,1.073925,0.337735,3.707791,-0.578805,-1.212386,-0.376202,-0.879078,0.292732,-0.175159,0.450642,-0.211739,-19.856216,-13.576271,-19.889931,,,,,,,
1512180025.242515,-2.374223,1.067886,0.473254,1.938837,-1.219168,-2.319091,-0.334609,-0.876184,0.346897,-0.185944,0.193734,0.276867,-19.487854,-15.225716,-18.318901,,,,,,,
1512180025.262504,-2.483708,1.083810,0.575654,0.501353,-0.842501,-2.144584,-0.286134,-0.883747,0.370293,-0.072738,-0.256542,0.315528,-18.446289,-17.174156,-17.653725,,,,,,,
1512180025.282493,-2.508228,1.100162,0.609538,-0.464048,1.434040,-0.831935,-0.268379,-0.891281,0.365500,0.057655,-0.582291,0.607889,-17.922714,-17.473366,-17.808327,,,,,,,
1512180025.302512,-2.456656,1.101886,0.614108,0.358144,3.604475,0.422028,-0.285892,-0.892061,0.349989,0.666873,0.215441,0.185045,-16.649658,-17.846458,-18.344337,,,,,,,
1512180025.322501,-2.378809,1.061681,0.593285,1.480263,2.223266,2.384365,-0.336766,-0.873176,0.352352,0.657811,0.283958,-0.027843,-15.823563,-17.620216,-18.201241,,,,,,,
1512180025.342490,-2.227646,1.031615,0.523135,-0.162486,4.897793,2.318699,-0.406598,-0.858129,0.313515,0.307126,0.582800,-0.047097,-14.621613,-17.093422,-19.036186,,,,,,,
1512180025.362510,-2.095422,0.978488,0.499821,1.842687,6.250718,3.035802,-0.483195,-0.829654,0.279635,0.466380,0.049564,0.228483,-12.594131,-16.490364,-19.503120,,,,,,,
1512180025.382499,-1.885131,0.894343,0.503230,2.316609,11.866337,4.437424,-0.595357,-0.779798,0.193559,0.835698,-0.369280,0.393843,-9.519806,-16.560753,-20.204292,,,,,,,
1512180025.402488,-1.666578,0.799508,0.427035,-1.951712,1.868634,2.970914,-0.693865,-0.717013,0.066664,0.517946,-0.162824,0.283404,-7.030991,-13.332024,-21.648827,,,,,,,
1512180025.422507,-1.654103,0.813879,0.352743,-2.287974,-1.813567,-0.478415,-0.684302,-0.726956,0.057139,0.538565,0.614484,0.072393,-7.401901,-12.357582,-22.245186,,,,,,,
1512180025.442496,-1.649506,0.815183,0.313511,-1.547344,-0.772048,0.623319,-0.683612,-0.727851,0.053918,-0.181287,-1.602456,-0.755883,-8.146362,-11.158699,-21.938271,,,,,,,
1512180025.462485,-1.654691,0.797161,0.298362,-0.246919,-1.103024,1.004533,-0.696283,-0.715375,0.058552,0.441293,0.356046,-0.910694,-8.368988,-10.634026,-21.936119,,,,,,,
1512180025.482505,-1.665639,0.776049,0.306230,0.787809,0.174888,1.092201,-0.710479,-0.700465,0.067587,0.315413,0.173518,-0.064138,-9.043289,-10.485039,-21.855309,,,,,,,
1512180025.502494,-1.705591,0.765874,0.324218,0.667777,-2.455811,-0.226749,-0.714239,-0.693167,0.096863,-0.283167,0.875021,-0.138947,-9.345078,-10.935493,-21.402962,,,,,,,
1512180025.522483,-1.742627,0.764125,0.331595,0.285966,-1.055711,0.174494,-0.711355,-0.691906,0.123450,0.074331,-0.591450,0.048486,-10.244598,-10.861839,-21.095284,,,,,,,
1512180025.542502,-1.773072,0.760881,0.344391,0.354926,-1.012281,-0.126049,-0.709463,-0.689560,0.145497,-0.219675,0.062714,0.098751,-11.144867,-10.938194,-20.937675,,,,,,,
1512180025.562491,-1.791645,0.760012,0.351428,0.198662,-0.619660,-0.004349,-0.707223,-0.688930,0.158779,0.153299,0.023464,0.130818,-11.220993,-11.238304,-20.487175,,,,,,,
1512180025.582480,-1.803189,0.759884,0.354014,0.050823,-0.346414,-0.011937,-0.705429,-0.688837,0.166953,0.046646,-0.013738,0.094858,-11.447266,-11.538658,-20.335396,,,,,,,
1512180025.602469,-1.809121,0.759660,0.355027,0.037928,-0.207592,0.001152,-0.704576,-0.688675,0.171171,0.078111,0.006744,0.049044,-11.672531,-11.613991,-20.183525,,,,,,,
1512180025.622489,-1.812507,0.759593,0.355267,0.023214,-0.139232,-0.008418,-0.704037,-0.688627,0.173566,0.073284,0.019681,0.023959,-11.447189,-11.538658,-20.185402,,,,,,,
1512180025.642478,-1.815462,0.759316,0.355276,0.001876,-0.127516,-0.006553,-0.703706,-0.688426,0.175692,-0.008758,-0.050115,0.012143,-11.598099,-11.763878,-19.959221,,,,,,,
1512180025.662467,-1.818540,0.759151,0.355500,0.003545,-0.161754,0.018933,-0.703272,-0.688306,0.177885,0.064783,-0.048205,0.002367,-11.745804,-11.239098,-20.107704,,,,,,,
1512180025.682487,-1.822192,0.759009,0.355840,0.016716,-0.176640,-0.004380,-0.702712,-0.688203,0.180477,0.016570,-0.035430,0.007069,-11.748123,-11.764107,-20.032951,,,,,,,
1512180025.702476,-1.825662,0.758719,0.356072,0.012088,-0.179892,0.017931,-0.702274,-0.687993,0.182965,0.043644,-0.029033,0.006488,-11.897415,-11.614326,-19.956612,,,,,,,
1512180025.722465,-1.829525,0.758628,0.356550,0.015393,-0.174534,0.011601,-0.701623,-0.687926,0.185692,0.070718,-0.022004,0.007866,-12.123016,-11.764656,-19.804756,,,,,,,
1512180025.742484,-1.833750,0.758349,0.356939,0.018782,-0.204412,-0.001246,-0.701018,-0.687724,0.188704,0.000151,-0.039342,0.005189,-12.199295,-12.064781,-19.654274,,,,,,,
1512180025.762473,-1.837925,0.758083,0.357363,0.015221,-0.201255,0.021101,-0.700401,-0.687531,0.191678,0.057792,-0.035110,0.002657,-11.975235,-12.289436,-19.506279,,,,,,,
1512180025.782462,-1.842801,0.757900,0.357979,0.028393,-0.223622,-0.003306,-0.699579,-0.687398,0.195125,0.023203,-0.031139,0.007206,-12.350113,-12.290001,-19.278099,,,,,,,
1512180025.802482,-1.847880,0.757495,0.358602,0.032365,-0.243942,0.013739,-0.698847,-0.687103,0.198751,0.034235,-0.017746,-0.001577,-12.348129,-11.840004,-19.352882,,,,,,,
1512180025.822471,-1.853770,0.757304,0.359539,0.036763,-0.257810,0.004156,-0.697790,-0.686965,0.202901,0.061269,-0.015687,0.005931,-12.574860,-12.215340,-19.426140,,,,,,,
1512180025.842460,-1.859944,0.756990,0.360432,0.042244,-0.287684,-0.005459,-0.696730,-0.686737,0.207267,0.006224,-0.034729,-0.005653,-12.875565,-12.365791,-19.498665,,,,,,,
1512180025.862479,-1.866939,0.756709,0.361605,0.047238,-0.332578,0.012580,-0.695448,-0.686533,0.212191,0.057386,-0.033911,-0.012912,-12.725449,-12.365562,-19.274940,,,,,,,
1512180025.882468,-1.875829,0.756433,0.363361,0.072123,-0.399786,-0.012879,-0.693715,-0.686331,0.218423,0.017186,-0.041467,-0.022195,-13.025940,-12.516014,-18.897469,,,,,,,
1512180025.902457,-1.886505,0.756000,0.365762,0.099705,-0.477731,-0.008486,-0.691626,-0.686016,0.225908,0.049872,-0.014469,-0.009615,-13.024551,-12.216011,-18.822334,,,,,,,
1512180025.922446,-1.897040,0.755740,0.368224,0.084934,-0.408312,-0.014857,-0.689376,-0.685827,0.233239,0.059631,-0.015985,0.026847,-13.176514,-12.666252,-18.671257,,,,,,,
1512180025.942466,-1.905145,0.755416,0.369725,0.050810,-0.317576,-0.009705,-0.687674,-0.685591,0.238891,0.012762,-0.032380,0.025818,-13.626358,-12.666924,-18.367439,,,,,,,
1512180025.962455,-1.911400,0.755184,0.370783,0.031342,-0.262095,0.010463,-0.686315,-0.685422,0.243242,0.063971,-0.044680,0.011809,-13.476578,-12.741692,-18.143745,,,,,,,
1512180025.982444,-1.916850,0.755024,0.371565,0.023254,-0.218262,-0.014020,-0.685083,-0.685306,0.247015,0.010736,-0.038998,0.013788,-13.925415,-12.517372,-17.839821,,,,,,,
1512180026.002463,-1.922307,0.754709,0.372279,0.045245,-0.296253,0.005212,-0.683927,-0.685077,0.250824,0.048856,-0.010068,-0.024918,-14.076279,-12.742592,-17.538643,,,,,,,
1512180026.022452,-1.930581,0.754456,0.374064,0.076253,-0.384844,-0.004240,-0.681991,-0.684893,0.256536,0.071792,-0.015883,-0.015630,-14.225235,-12.517815,-17.462273,,,,,,,
1512180026.042441,-1.939351,0.754021,0.375855,0.062437,-0.363495,-0.005430,-0.679993,-0.684575,0.262614,0.014741,-0.050731,0.009282,-14.225693,-12.667824,-17.012352,,,,,,,
1512180026.062417,-1.946570,0.753757,0.377136,0.035591,-0.293069,0.009349,-0.678247,-0.684383,0.267582,0.062921,-0.038685,0.006832,-14.526733,-12.893272,-17.084908,,,,,,,
1512180026.082406,-1.954222,0.753544,0.378450,0.058335,-0.381641,-0.016213,-0.676315,-0.684227,0.272819,0.020050,-0.038551,-0.030723,-14.074188,-12.367592,-16.713478,,,,,,,
1512180026.102395,-1.962767,0.753294,0.380029,0.070978,-0.381642,-0.007503,-0.674116,-0.684046,0.278653,0.050398,-0.010946,-0.014814,-14.375229,-12.668037,-16.111076,,,,,,,
1512180026.122414,-1.972063,0.753041,0.381954,0.068954,-0.383766,-0.013935,-0.671657,-0.683860,0.284976,0.049632,-0.028984,-0.004077,-14.599258,-12.518379,-15.509102,,,,,,,
1512180026.142403,-1.981823,0.752827,0.383728,0.069095,-0.493765,-0.028176,-0.668978,-0.683705,0.291576,0.018343,-0.016353,-0.052760,-14.600830,-12.893379,-15.284264,,,,,,,
1512180026.162392,-1.998225,0.752448,0.386677,0.138809,-0.917768,-0.009451,-0.664341,-0.683428,0.302616,0.062550,0.005633,-0.165058,-14.898544,-12.443825,-14.756523,,,,,,,
1512180026.182412,-2.028708,0.751070,0.394234,0.315130,-1.405568,-0.058698,-0.655654,-0.682421,0.323139,0.020095,-0.101911,-0.140965,-14.975494,-12.968941,-13.931114,,,,,,,
1512180026.202401,-2.069064,0.749804,0.404978,0.415115,-1.807991,-0.130078,-0.642842,-0.681495,0.349741,0.055256,0.034309,-0.154429,-15.799973,-12.970177,-12.874123,,,,,,,
1512180026.222390,-2.103185,0.747069,0.416453,0.338757,-0.012588,-0.066303,-0.632140,-0.679491,0.372413,0.114760,-0.011869,1.120660,-15.197693,-12.519279,-12.354012,,,,,,,
1512180026.242379,-2.096759,0.748117,0.411934,-0.078684,-0.148136,0.093482,-0.633904,-0.680259,0.367985,0.095955,-0.004723,-0.260106,-15.347015,-12.369499,-12.352669,,,,,,,
1512180026.262399,-2.100428,0.747865,0.412348,0.018925,-0.040981,-0.002811,-0.632697,-0.680075,0.370395,0.075324,0.005209,0.142956,-15.346939,-12.369499,-12.202660,,,,,,,
1512180026.282388,-2.100481,0.747741,0.411846,-0.001195,-0.026037,-0.009444,-0.632750,-0.679984,0.370471,-0.043413,-0.060906,-0.022769,-15.046112,-12.219048,-11.905144,,,,,,,
1512180026.302377,-2.100560,0.747670,0.411532,-0.018525,-0.007935,0.008494,-0.632763,-0.679932,0.370545,0.024135,-0.034134,0.006515,-15.197952,-12.594276,-12.204048,,,,,,,
1512180026.322396,-2.100713,0.747569,0.411313,-0.012036,-0.007919,0.002188,-0.632765,-0.679858,0.370677,0.007551,-0.038373,0.006612,-14.818405,-11.618706,-11.906776,,,,,,,
1512180026.342385,-2.100746,0.747352,0.411073,-0.004763,-0.010064,0.014015,-0.632879,-0.679699,0.370772,0.015692,-0.037952,-0.023314,-14.516754,-11.318260,-11.309196,,,,,,,
1512180026.362374,-2.100825,0.747275,0.410941,0.001684,-0.004709,0.010927,-0.632895,-0.679642,0.370848,0.070029,-0.016296,-0.006423,-14.668442,-11.693474,-11.308098,,,,,,,
1512180026.382394,-2.100936,0.746973,0.410878,0.017712,-0.013227,0.007930,-0.633031,-0.679421,0.371022,0.003393,-0.042350,-0.038625,-15.116989,-11.394157,-11.079140,,,,,,,
1512180026.402383,-2.100926,0.746810,0.410771,0.020787,-0.010026,0.016519,-0.633131,-0.679301,0.371072,0.043836,-0.030370,-0.078699,-15.039551,-10.869041,-10.929527,,,,,,,
1512180026.422372,-2.100967,0.746632,0.410742,-0.008834,0.003833,0.002274,-0.633220,-0.679171,0.371159,0.018962,-0.022505,0.022395,-14.890106,-11.018822,-10.705879,,,,,,,
1512180026.442391,-2.101123,0.746349,0.410823,0.016623,-0.003617,0.010081,-0.633327,-0.678963,0.371356,0.032558,-0.011177,0.000516,-14.438492,-10.643135,-10.859520,,,,,,,
1512180026.462380,-2.101071,0.746327,0.410779,0.002908,-0.003621,0.001354,-0.633359,-0.678946,0.371330,0.026029,-0.029611,-0.047569,-14.438126,-10.568138,-10.784492,,,,,,,
1512180026.482369,-2.101159,0.746070,0.410911,0.009270,0.002800,0.004671,-0.633477,-0.678758,0.371474,0.018319,-0.036727,-0.013762,-14.437744,-10.493141,-10.709450,,,,,,,
1512180026.502389,-2.101213,0.746038,0.411012,0.018808,0.000664,0.006929,-0.633476,-0.678735,0.371519,0.066581,-0.017585,-0.046613,-14.135269,-9.967690,-10.486763,,,,,,,
1512180026.522378,-2.101372,0.745984,0.411181,-0.000089,0.001740,-0.010397,-0.633448,-0.678695,0.371638,0.009532,-0.028291,0.000081,-14.437302,-10.418144,-10.484428,,,,,,,
1512180026.542367,-2.101552,0.745944,0.411374,0.010404,-0.004673,-0.000673,-0.633405,-0.678666,0.371766,0.027280,-0.011627,-0.032136,-14.437744,-10.493141,-10.709450,,,,,,,
1512180026.562356,-2.101627,0.746103,0.411545,-0.003290,0.001734,-0.010444,-0.633284,-0.678782,0.371759,0.037306,-0.021764,-0.025888,-13.983246,-9.517448,-10.487831,,,,,,,
1512180026.582375,-2.101924,0.746063,0.411895,0.005184,0.002808,-0.007119,-0.633197,-0.678753,0.371961,0.028888,-0.022190,0.024432,-13.907532,-9.367332,-10.413399,,,,,,,
1512180026.602364,-2.102131,0.746201,0.412156,0.015752,-0.005730,-0.001665,-0.633040,-0.678854,0.372044,0.048552,-0.023798,-0.059117,-13.983139,-9.517448,-10.262825,,,,,,,
1512180026.622353,-2.102371,0.746226,0.412518,0.004206,-0.000386,-0.012474,-0.632935,-0.678873,0.372188,0.008012,-0.050085,0.002889,-13.907913,-9.442345,-10.488426,,,,,,,
1512180026.642373,-2.102800,0.746212,0.413031,0.022134,-0.003584,-0.000498,-0.632784,-0.678862,0.372464,0.049044,-0.029039,-0.012784,-13.909821,-9.817345,-10.938606,,,,,,,
1512180026.662362,-2.103024,0.746293,0.413420,0.009497,0.000684,-0.010263,-0.632653,-0.678922,0.372578,0.019494,-0.034808,-0.033573,-13.681824,-9.217003,-10.340233,,,,,,,
1512180026.682351,-2.103408,0.746135,0.414007,0.013639,0.003880,-0.002729,-0.632602,-0.678806,0.372875,0.027561,-0.028927,0.008396,-13.530884,-8.991768,-10.491417,,,,,,,
1512180026.702370,-2.103747,0.746127,0.414601,0.022200,0.007107,-0.003656,-0.632481,-0.678800,0.373092,0.059422,-0.026370,-0.027115,-13.906113,-9.067345,-10.263268,,,,,,,
1512180026.722360,-2.104050,0.745993,0.415244,0.017001,0.010314,-0.012252,-0.632446,-0.678701,0.373331,0.002075,-0.045161,0.007269,-13.756409,-9.142113,-10.189568,,,,,,,
1512180026.742349,-2.104315,0.745923,0.415887,0.027544,0.006041,-0.005720,-0.632388,-0.678650,0.373522,0.022037,-0.019958,-0.027880,-13.679077,-8.616997,-10.264961,,,,,,,
1512180026.762368,-2.104541,0.745870,0.416541,0.017021,0.009249,-0.013321,-0.632335,-0.678611,0.373683,0.014201,-0.035912,-0.012599,-13.830429,-8.917229,-10.263832,,,,,,,
1512180026.782357,-2.104871,0.745727,0.417301,0.025418,0.011379,-0.005732,-0.632295,-0.678506,0.373941,0.036714,-0.018485,0.009924,-13.680435,-8.917000,-10.265099,,,,,,,
1512180026.802346,-2.105198,0.745683,0.418040,0.029583,0.006038,0.000710,-0.632199,-0.678473,0.374164,0.065823,-0.023995,-0.034656,-13.829193,-8.617226,-10.488686,,,,,,,
1512180026.822366,-2.105571,0.745538,0.418823,0.032822,0.004975,-0.002448,-0.632144,-0.678367,0.374450,0.046801,-0.051476,-0.020660,-13.831451,-9.142235,-10.263939,,,,,,,
1512180026.842355,-2.105861,0.745523,0.419521,0.036025,0.007119,-0.002393,-0.632044,-0.678356,0.374638,0.064447,-0.011173,-0.035863,-13.830765,-8.992226,-10.263863,,,,,,,
1512180026.862344,-2.106058,0.745529,0.420161,0.021238,0.009245,-0.011131,-0.631966,-0.678361,0.374761,0.043633,-0.021484,-0.018788,-13.606903,-9.216896,-10.490883,,,,,,,
1512180026.882333,-2.106235,0.745414,0.420819,0.025373,0.010309,-0.002535,-0.631967,-0.678276,0.374912,0.052225,-0.018623,-0.022938,-13.607681,-9.366890,-10.715950,,,,,,,
1512180026.902352,-2.106395,0.745454,0.421460,0.023339,0.016729,-0.007872,-0.631884,-0.678305,0.374999,0.074694,-0.014688,-0.015594,-13.455887,-8.991661,-10.492043,,,,,,,
1512180026.922341,-2.106642,0.745319,0.422206,0.027660,0.014601,-0.012084,-0.631870,-0.678206,0.375202,0.046253,-0.028504,-0.005314,-13.604752,-8.766884,-10.265678,,,,,,,
1512180026.942330,-2.106740,0.745324,0.422843,0.030719,0.014590,-0.003510,-0.631830,-0.678210,0.375262,0.059213,-0.021070,-0.041934,-13.754196,-8.617104,-10.489326,,,,,,,
1512180026.962350,-2.106885,0.745425,0.423570,0.010823,0.021010,-0.025098,-0.631716,-0.678284,0.375318,0.035800,-0.021362,-0.001203,-13.380127,-8.841545,-10.342613,,,,,,,
1512180026.982339,-2.106955,0.745361,0.424272,0.012754,0.026332,-0.012257,-0.631727,-0.678237,0.375385,0.044493,-0.019273,0.020306,-13.457047,-9.216667,-10.792152,,,,,,,
1512180027.002328,-2.106880,0.745588,0.424906,0.018141,0.025282,-0.015379,-0.631624,-0.678404,0.375259,0.065751,-0.026583,-0.005050,-13.229416,-8.691322,-10.268822,,,,,,,
1512180027.022347,-2.106728,0.745645,0.425544,0.019202,0.028484,-0.015354,-0.631647,-0.678446,0.375144,0.013468,-0.046576,-0.010428,-13.529190,-8.616768,-10.491234,,,,,,,
1512180027.042336,-2.106500,0.745818,0.426142,0.024419,0.030611,-0.008877,-0.631632,-0.678573,0.374939,0.046625,-0.028855,-0.013077,-13.454453,-8.691658,-10.341911,,,,,,,
1512180027.062328,-2.106277,0.746028,0.426741,0.007586,0.033819,-0.021901,-0.631593,-0.678727,0.374726,0.009599,-0.040221,-0.000321,-13.380203,-8.841545,-10.492622,,,,,,,
1512180027.082348,-2.106124,0.746066,0.427425,0.014827,0.032733,-0.009009,-0.631628,-0.678755,0.374616,0.015875,-0.022890,0.005770,-13.303864,-8.541435,-10.493111,,,,,,,
1512180027.102337,-2.105956,0.746129,0.428052,0.018102,0.029547,-0.013235,-0.631655,-0.678801,0.374488,-0.006483,-0.016939,-0.013450,-13.226761,-8.091316,-10.343544,,,,,,,
1512180027.122326,-2.106023,0.745942,0.428848,0.028749,0.024218,-0.013101,-0.631738,-0.678664,0.374596,-0.033453,-0.041749,-0.012077,-12.927536,-8.240868,-10.571159,,,,,,,
1512180027.142345,-2.106124,0.745772,0.429626,0.033844,0.020992,0.000820,-0.631800,-0.678539,0.374718,0.000345,-0.001285,-0.036446,-13.003860,-8.540993,-10.495674,,,,,,,
1512180027.162334,-2.106213,0.745611,0.430385,0.023369,0.025272,-0.009977,-0.631861,-0.678421,0.374830,-0.034170,0.029007,-0.009062,-13.152878,-8.316200,-10.569283,,,,,,,
1512180027.182323,-2.106261,0.745273,0.431075,0.031679,0.019918,0.002918,-0.632039,-0.678173,0.374977,-0.043253,0.029033,-0.024452,-13.601608,-8.016884,-10.715324,,,,,,,
1512180027.202312,-2.106296,0.745052,0.431789,0.032730,0.018851,0.003996,-0.632155,-0.678010,0.375076,-0.025224,0.037736,-0.048843,-13.528488,-8.466774,-10.416161,,,,,,,
1512180027.222332,-2.106406,0.744666,0.432586,0.036035,0.023141,-0.002338,-0.632339,-0.677726,0.375279,-0.078339,0.040962,-0.007267,-13.227844,-8.316322,-10.493645,,,,,,,
1512180027.242321,-2.106353,0.744341,0.433262,0.041186,0.024194,0.008400,-0.632548,-0.677487,0.375357,-0.054341,0.077466,-0.049781,-13.228638,-8.466331,-10.718712,,,,,,,
1512180027.262310,-2.106292,0.744027,0.433978,0.023300,0.029536,-0.005699,-0.632754,-0.677256,0.375427,-0.090986,0.070033,-0.015625,-13.378632,-8.466545,-10.717445,,,,,,,
1512180027.282330,-2.106325,0.743467,0.434831,0.040122,0.028464,0.008399,-0.633067,-0.676844,0.375642,-0.074086,0.092036,-0.000932,-13.226685,-8.016319,-10.868507,,,,,,,
1512180027.302319,-2.106400,0.743095,0.435688,0.050805,0.024208,0.006406,-0.633256,-0.676570,0.375818,-0.039855,0.098735,-0.043908,-13.378662,-8.466545,-10.792442,,,,,,,
1512180027.322308,-2.106475,0.742605,0.436605,0.039317,0.024222,-0.007618,-0.633512,-0.676209,0.376034,-0.106966,0.071183,-0.020871,-13.830353,-8.842232,-10.788795,,,,,,,
1512180027.342327,-2.106486,0.742164,0.437514,0.047658,0.026351,0.004239,-0.633765,-0.675884,0.376194,-0.069741,0.095074,-0.033069,-13.227951,-8.316322,-10.718651,,,,,,,
1512180027.362316,-2.106374,0.741901,0.438330,0.024477,0.033824,-0.012063,-0.633960,-0.675691,0.376214,-0.089917,0.085038,-0.008095,-13.603104,-8.316887,-11.015465,,,,,,,
1512180027.382305,-2.106362,0.741480,0.439214,0.024403,0.032746,-0.007804,-0.634209,-0.675380,0.376351,-0.096641,0.070735,0.018180,-13.526871,-8.091774,-10.565987,,,,,,,
1512180027.402325,-2.106341,0.741198,0.440129,0.040374,0.030633,-0.006513,-0.634381,-0.675172,0.376435,-0.076786,0.070665,-0.025193,-13.377762,-8.241539,-11.017342,,,,,,,
1512180027.422314,-2.106229,0.740918,0.440935,0.027744,0.031701,-0.016287,-0.634586,-0.674966,0.376460,-0.114056,0.066934,0.002431,-13.229416,-8.616325,-10.943779,,,,,,,
1512180027.442303,-2.106164,0.740629,0.441772,0.040302,0.028495,-0.001187,-0.634778,-0.674752,0.376519,-0.066532,0.077065,-0.016579,-13.078812,-8.466103,-11.094994,,,,,,,
1512180027.462322,-2.106037,0.740536,0.442551,0.020278,0.032755,-0.016393,-0.634880,-0.674684,0.376470,-0.084099,0.064424,0.023112,-13.228897,-8.466331,-11.243721,,,,,,,
1512180027.482311,-2.105894,0.740277,0.443323,0.026579,0.033826,-0.009899,-0.635084,-0.674493,0.376468,-0.090533,0.061867,-0.004764,-13.079269,-8.541100,-11.320030,,,,,,,
1512180027.502300,-2.105790,0.740237,0.444130,0.029721,0.032755,-0.006659,-0.635146,-0.674463,0.376416,-0.030106,0.057520,-0.014722,-13.154526,-8.616203,-11.169426,,,,,,,
1512180027.522289,-2.105779,0.740057,0.445030,0.032090,0.030648,-0.021559,-0.635254,-0.674330,0.376471,-0.096115,0.030882,0.021158,-13.154648,-8.616203,-11.394432,,,,,,,
1512180027.542309,-2.105644,0.740074,0.445860,0.036148,0.030632,-0.008706,-0.635296,-0.674342,0.376379,-0.030445,0.054515,-0.030035,-13.455994,-8.916664,-11.392021,,,,,,,
1512180027.562298,-2.105434,0.740219,0.446648,0.014051,0.038108,-0.026058,-0.635291,-0.674450,0.376196,-0.052347,0.033779,-0.000525,-13.154312,-8.541206,-11.394386,,,,,,,
1512180027.582287,-2.105227,0.740248,0.447462,0.018252,0.043450,-0.021713,-0.635352,-0.674471,0.376055,-0.038324,0.041307,0.026884,-13.380997,-8.916557,-11.392647,,,,,,,
1512180027.602306,-2.104845,0.740525,0.448147,0.021425,0.041313,-0.020610,-0.635335,-0.674675,0.375717,-0.017299,0.019692,-0.024597,-13.229675,-8.616325,-11.468788,,,,,,,
1512180027.622295,-2.104485,0.740741,0.448861,0.010943,0.043454,-0.031415,-0.635344,-0.674835,0.375414,-0.060380,0.000961,0.004713,-13.080093,-8.691093,-11.620094,,,,,,,
1512180027.642284,-2.104181,0.741038,0.449621,0.022444,0.042379,-0.017392,-0.635286,-0.675054,0.375119,0.020173,0.029577,-0.007306,-13.308289,-9.366432,-11.918495,,,,,,,
1512180027.662304,-2.103768,0.741440,0.450299,0.005670,0.043454,-0.034689,-0.635207,-0.675351,0.374718,-0.014833,-0.005558,-0.000939,-13.081818,-9.066109,-11.695274,,,,,,,
1512180027.682293,-2.103418,0.741729,0.451054,0.019381,0.041320,-0.025970,-0.635169,-0.675564,0.374397,-0.008248,-0.011387,-0.018547,-12.781143,-8.915657,-11.697746,,,,,,,
1512180027.702282,-2.102927,0.742265,0.451706,0.010972,0.044530,-0.032474,-0.635041,-0.675959,0.373901,0.014329,-0.006323,-0.021332,-13.007385,-9.140984,-12.145943,,,,,,,
1512180027.722301,-2.102470,0.742649,0.452409,0.010982,0.049867,-0.033524,-0.634988,-0.676242,0.373480,-0.008154,-0.024701,0.012308,-13.230621,-8.766319,-11.993843,,,,,,,
1512180027.742290,-2.101990,0.743104,0.453069,0.019345,0.045587,-0.023824,-0.634902,-0.676577,0.373018,0.023178,-0.021726,-0.049318,-13.456940,-8.991661,-12.592033,,,,,,,
1512180027.762279,-2.101410,0.743595,0.453744,0.002590,0.055214,-0.041088,-0.634832,-0.676938,0.372482,-0.004344,-0.048602,-0.005661,-13.384216,-9.516548,-12.442924,,,,,,,
1512180027.782299,-2.100891,0.743938,0.454506,0.021491,0.054140,-0.023761,-0.634825,-0.677191,0.372035,0.035841,-0.020731,-0.005031,-13.306595,-8.916435,-12.593285,,,,,,,
1512180027.802288,-2.100225,0.744510,0.455185,0.020543,0.053082,-0.031242,-0.634738,-0.677611,0.371417,0.043247,-0.031633,-0.062274,-13.458282,-9.291664,-12.592186,,,,,,,
1512180027.822277,-2.099586,0.744854,0.455986,0.014214,0.060560,-0.034504,-0.634774,-0.677865,0.370893,0.003716,-0.047889,-0.009550,-13.760681,-9.817116,-12.664864,,,,,,,
1512180027.842266,-2.098819,0.745341,0.456772,0.029006,0.062700,-0.026822,-0.634773,-0.678222,0.370240,0.049431,-0.029038,-0.065614,-13.312225,-10.116447,-13.043831,,,,,,,
1512180027.862286,-2.097957,0.745858,0.457530,-0.000526,0.073376,-0.045335,-0.634789,-0.678602,0.369516,-0.000557,-0.057146,-0.013849,-13.611252,-9.891899,-13.116188,,,,,,,
1512180027.882275,-2.097212,0.746181,0.458442,0.017334,0.073367,-0.030154,-0.634874,-0.678840,0.368933,0.027620,-0.027398,-0.002066,-13.766388,-11.017128,-13.265434,,,,,,,
1512180027.902264,-2.096467,0.746603,0.459381,0.023787,0.069114,-0.033272,-0.634901,-0.679149,0.368316,0.040525,-0.030369,-0.046066,-13.613464,-10.341896,-13.491386,,,,,,,
1512180027.922283,-2.095812,0.746831,0.460441,0.024841,0.065914,-0.032199,-0.635009,-0.679316,0.367823,0.005873,-0.054174,-0.035929,-13.690552,-10.792015,-13.640968,,,,,,,
1512180027.942272,-2.095185,0.747156,0.461562,0.037454,0.066979,-0.021353,-0.635048,-0.679555,0.367314,0.067146,-0.025233,-0.071431,-13.615936,-10.866905,-13.716637,,,,,,,
1512180027.962261,-2.094537,0.747464,0.462697,0.023859,0.071259,-0.037527,-0.635104,-0.679781,0.366798,0.018496,-0.034162,-0.041252,-13.617737,-11.241905,-13.941795,,,,,,,
1512180027.982281,-2.093936,0.747636,0.463898,0.037551,0.070197,-0.026669,-0.635223,-0.679907,0.366358,0.029907,-0.024240,-0.046946,-13.845291,-11.767250,-14.315132,,,,,,,
1512180028.002270,-2.093336,0.747940,0.465138,0.037638,0.069132,-0.033072,-0.635263,-0.680130,0.365873,0.030023,-0.041244,-0.082045,-13.993484,-11.392479,-14.088676,,,,,,,
1512180028.022259,-2.092966,0.747939,0.466643,0.048233,0.072348,-0.028642,-0.635400,-0.680129,0.365638,0.025384,-0.047227,-0.040245,-13.992584,-11.167473,-14.313576,,,,,,,
1512180028.042278,-2.092719,0.748063,0.468245,0.066254,0.067020,-0.023071,-0.635417,-0.680220,0.365440,0.058344,-0.018709,-0.075050,-13.770813,-11.842140,-14.690804,,,,,,,
1512180028.062222,-2.092492,0.748084,0.469926,0.054852,0.064908,-0.042430,-0.635487,-0.680236,0.365288,-0.023754,-0.059022,-0.071877,-13.995667,-11.767479,-15.063850,,,,,,,
1512180028.082211,-2.092388,0.748025,0.471825,0.065316,0.069171,-0.030538,-0.635560,-0.680192,0.365242,0.018724,-0.034682,-0.056511,-13.770966,-11.842140,-14.990807,,,,,,,
1512180028.102232,-2.092326,0.748068,0.473803,0.054830,0.075588,-0.040260,-0.635557,-0.680224,0.365188,0.028960,-0.012266,-0.025817,-13.994690,-11.542473,-15.138756,,,,,,,
1512180028.122221,-2.092338,0.747896,0.475908,0.069692,0.073465,-0.036855,-0.635654,-0.680098,0.365254,0.002643,-0.044649,-0.019520,-13.773102,-12.292137,-15.216011,,,,,,,
1512180028.142210,-2.092251,0.747940,0.478023,0.077092,0.069195,-0.033566,-0.635659,-0.680130,0.365183,0.038277,-0.050506,-0.084650,-14.450165,-12.743156,-15.285469,,,,,,,
1512180028.162199,-2.092171,0.747915,0.480251,0.068708,0.079878,-0.042180,-0.635702,-0.680112,0.365140,0.002355,-0.038012,-0.029386,-14.375580,-12.818047,-15.436150,,,,,,,
1512180028.182218,-2.092181,0.747827,0.482581,0.084553,0.079891,-0.032352,-0.635750,-0.680047,0.365176,0.059304,-0.009498,-0.021426,-14.450317,-12.743156,-15.585472,,,,,,,
1512180028.202207,-2.092098,0.747913,0.484872,0.071986,0.080964,-0.046391,-0.635729,-0.680110,0.365094,0.033388,-0.028462,-0.032254,-14.751816,-13.043617,-15.883064,,,,,,,
1512180028.222196,-2.091970,0.747786,0.487217,0.073996,0.085224,-0.038885,-0.635850,-0.680017,0.365055,0.007203,-0.049124,-0.017307,-14.529068,-13.568275,-15.660210,,,,,,,
1512180028.242216,-2.091708,0.747825,0.489512,0.083466,0.089495,-0.031271,-0.635922,-0.680046,0.364875,0.058728,-0.026757,-0.050864,-14.606201,-14.018394,-15.884789,,,,,,,
1512180028.262205,-2.091409,0.747824,0.491814,0.072929,0.098043,-0.037788,-0.636032,-0.680045,0.364685,0.030258,-0.026620,-0.014846,-14.455902,-13.943169,-15.961021,,,,,,,
1512180028.282194,-2.091101,0.747770,0.494171,0.085611,0.094844,-0.031219,-0.636175,-0.680005,0.364507,0.050375,-0.030474,-0.045049,-14.231537,-14.092827,-15.888008,,,,,,,
1512180028.302214,-2.090611,0.747873,0.496443,0.069839,0.101255,-0.044218,-0.636292,-0.680081,0.364160,0.028672,-0.027759,-0.036752,-14.307480,-14.317940,-15.737480,,,,,,,
1512180028.322203,-2.090142,0.747754,0.498788,0.069739,0.102306,-0.038889,-0.636533,-0.679994,0.363901,0.006040,-0.046004,-0.006678,-14.682892,-14.393501,-15.884315,,,,,,,
1512180028.342192,-2.089671,0.747753,0.501161,0.079252,0.096975,-0.033436,-0.636705,-0.679993,0.363602,0.042085,-0.030746,-0.042084,-14.008896,-14.617485,-15.890160,,,,,,,
1512180028.362211,-2.089088,0.747729,0.503506,0.070867,0.105522,-0.042057,-0.636930,-0.679976,0.363238,0.008359,-0.036653,-0.036914,-14.460327,-14.918175,-16.036476,,,,,,,
1512180028.382200,-2.088532,0.747655,0.505929,0.088908,0.109815,-0.036449,-0.637175,-0.679921,0.362909,0.028685,-0.012721,-0.059366,-14.384506,-14.768059,-15.737038,,,,,,,
1512180028.402189,-2.087967,0.747699,0.508370,0.078462,0.114096,-0.049379,-0.637354,-0.679954,0.362534,0.017756,-0.023751,-0.033615,-14.460693,-14.993172,-16.111504,,,,,,,
1512180028.422209,-2.087364,0.747543,0.510864,0.082627,0.113019,-0.043994,-0.637664,-0.679839,0.362202,-0.012284,-0.058717,-0.054996,-14.537048,-15.293282,-16.111015,,,,,,,
1512180028.442198,-2.086767,0.747505,0.513423,0.092088,0.118360,-0.035309,-0.637903,-0.679811,0.361833,0.050790,-0.012343,-0.053331,-14.536636,-15.218285,-15.960976,,,,,,,
1512180028.462187,-2.086283,0.747438,0.516082,0.082811,0.116248,-0.054640,-0.638117,-0.679762,0.361548,-0.020269,-0.052767,-0.029135,-14.237717,-15.442833,-16.113625,,,,,,,
1512180028.482176,-2.085921,0.747248,0.518868,0.095415,0.110902,-0.043816,-0.638361,-0.679622,0.361380,-0.008993,-0.040440,-0.034140,-14.387390,-15.368065,-16.112328,,,,,,,
1512180028.502195,-2.085656,0.747162,0.521714,0.095418,0.108768,-0.043823,-0.638507,-0.679560,0.361239,0.010944,-0.019003,-0.037799,-14.312683,-15.442955,-16.037987,,,,,,,
1512180028.522184,-2.085634,0.746896,0.524757,0.112495,0.095978,-0.045752,-0.638672,-0.679365,0.361314,-0.042007,-0.065768,-0.068482,-14.240646,-16.117836,-15.888939,,,,,,,
1512180028.542173,-2.085656,0.746776,0.527901,0.123021,0.099185,-0.037058,-0.638735,-0.679276,0.361368,0.017412,-0.024993,-0.094339,-14.466660,-16.343178,-15.887138,,,,,,,
1512180028.562193,-2.085822,0.746714,0.531157,0.110575,0.104543,-0.058544,-0.638711,-0.679231,0.361495,-0.026359,-0.008773,-0.071990,-14.089935,-15.967613,-15.815147,,,,,,,
1512180028.582182,-2.086127,0.746448,0.534544,0.119028,0.098139,-0.054180,-0.638758,-0.679035,0.361779,-0.049841,-0.047542,-0.078072,-14.466812,-16.418190,-15.512184,,,,,,,
1512180028.602171,-2.086587,0.746368,0.538098,0.123329,0.098152,-0.056249,-0.638639,-0.678977,0.362099,-0.017184,-0.045602,-0.085900,-14.014603,-15.967506,-15.140800,,,,,,,
1512180028.622190,-2.087407,0.746108,0.541993,0.135243,0.088581,-0.067835,-0.638495,-0.678786,0.362710,-0.068308,-0.057832,-0.067605,-14.091354,-16.342613,-15.290321,,,,,,,
1512180028.642179,-2.088194,0.745904,0.546007,0.152076,0.090719,-0.053723,-0.638329,-0.678636,0.363280,-0.006736,-0.021437,-0.121703,-14.242493,-16.567848,-15.514153,,,,,,,
1512180028.662168,-2.089127,0.745846,0.550204,0.139571,0.098210,-0.070936,-0.638024,-0.678593,0.363895,0.004815,-0.007213,-0.069996,-13.791992,-16.492165,-15.217949,,,,,,,
1512180028.682188,-2.090266,0.745592,0.554638,0.141706,0.100344,-0.071967,-0.637759,-0.678407,0.364707,-0.009763,-0.004104,-0.027427,-13.642563,-16.641945,-14.994286,,,,,,,
1512180028.702177,-2.091318,0.745507,0.559114,0.149133,0.095013,-0.069745,-0.637425,-0.678345,0.365407,0.019841,-0.029602,-0.088093,-13.493988,-16.941719,-15.145714,,,,,,,
1512180028.722166,-2.092520,0.745407,0.563802,0.147311,0.097186,-0.087884,-0.637045,-0.678271,0.366207,-0.026621,-0.025648,-0.056728,-13.794479,-17.092171,-14.768227,,,,,,,
1512180028.742185,-2.093758,0.745201,0.568538,0.154600,0.095036,-0.078195,-0.636712,-0.678119,0.367065,-0.009116,-0.002636,-0.045105,-13.944168,-17.017403,-14.841911,,,,,,,
1512180028.762174,-2.094919,0.745139,0.573233,0.152570,0.101457,-0.083530,-0.636323,-0.678074,0.367826,0.010514,-0.010677,-0.063336,-13.492477,-16.641716,-14.845558,,,,,,,
1512180028.782163,-2.096101,0.744962,0.577996,0.149396,0.107864,-0.084619,-0.635992,-0.677944,0.368638,0.003179,-0.031681,-0.019716,-13.493042,-16.791725,-14.620644,,,,,,,
1512180028.802152,-2.097296,0.744925,0.582772,0.161006,0.103594,-0.078071,-0.635573,-0.677916,0.369411,0.061400,0.009856,-0.031673,-13.118423,-16.866158,-14.698860,,,,,,,
1512180028.822172,-2.098229,0.744951,0.587333,0.140929,0.105719,-0.089016,-0.635212,-0.677936,0.369995,0.011448,-0.019910,-0.039428,-13.418793,-16.941612,-14.771339,,,,,,,
1512180028.842161,-2.099181,0.744891,0.591939,0.141932,0.109987,-0.084721,-0.634895,-0.677892,0.370620,0.018059,0.003652,-0.016036,-12.893341,-16.865822,-14.550758,,,,,,,
1512180028.862149,-2.099936,0.745024,0.596340,0.135593,0.113189,-0.088000,-0.634538,-0.677989,0.371054,0.024644,-0.005254,-0.023917,-13.268311,-16.866386,-14.472588,,,,,,,
1512180028.882169,-2.100635,0.745051,0.600710,0.131415,0.113192,-0.093391,-0.634263,-0.678009,0.371488,-0.021285,-0.017975,-0.019498,-13.120712,-17.391167,-14.549095,,,,,,,
1512180028.902158,-2.101294,0.745023,0.605078,0.136502,0.118511,-0.078374,-0.634035,-0.677988,0.371916,0.014177,0.003535,-0.026884,-12.818832,-16.940712,-14.851448,,,,,,,
1512180028.922148,-2.101845,0.745128,0.609328,0.126038,0.124925,-0.090232,-0.633768,-0.678066,0.372229,-0.001363,-0.008915,-0.001151,-12.820145,-17.240715,-14.776588,,,,,,,
1512180028.942167,-2.102278,0.745016,0.613516,0.127971,0.123841,-0.077411,-0.633673,-0.677983,0.372542,-0.010965,-0.010234,-0.001372,-12.747177,-17.690605,-14.777428,,,,,,,
1512180028.962156,-2.102550,0.745011,0.617583,0.135187,0.121681,-0.063459,-0.633575,-0.677980,0.372716,0.033264,0.003099,-0.046361,-12.745819,-17.390602,-14.777290,,,,,,,
1512180028.982145,-2.102786,0.744943,0.621658,0.126970,0.125981,-0.081684,-0.633527,-0.677930,0.372889,-0.024814,-0.011889,-0.045039,-13.199539,-18.216286,-14.773842,,,,,,,
1512180029.002165,-2.102948,0.744793,0.625688,0.128892,0.133434,-0.068839,-0.633554,-0.677820,0.373044,0.005136,0.010187,-0.027157,-12.746750,-17.615593,-14.627388,,,,,,,
1512180029.022154,-2.103014,0.744746,0.629644,0.117224,0.135560,-0.072198,-0.633558,-0.677785,0.373102,0.009931,0.000127,-0.020822,-12.671051,-17.465492,-14.552956,,,,,,,
1512180029.042143,-2.103155,0.744571,0.633632,0.119412,0.130225,-0.076452,-0.633607,-0.677656,0.373252,-0.032149,-0.024431,-0.022406,-12.597763,-17.840370,-14.628777,,,,,,,
1512180029.062156,-2.103235,0.744480,0.637596,0.129935,0.129159,-0.067773,-0.633630,-0.677590,0.373334,0.006113,-0.009452,-0.069104,-12.447464,-17.765144,-14.705009,,,,,,,
1512180029.082145,-2.103429,0.744389,0.641667,0.119463,0.134509,-0.078565,-0.633612,-0.677523,0.373488,-0.006021,-0.013594,-0.010527,-12.074799,-18.289589,-14.633446,,,,,,,
1512180029.102134,-2.103654,0.744256,0.645764,0.138519,0.127045,-0.070853,-0.633606,-0.677425,0.373676,-0.001068,-0.003819,-0.048374,-11.998825,-18.064476,-14.708977,,,,,,,
1512180029.122123,-2.103594,0.744359,0.649668,0.130016,0.130234,-0.073100,-0.633568,-0.677501,0.373603,0.022271,-0.006535,-0.093238,-12.073929,-18.139595,-14.258369,,,,,,,
1512180029.142143,-2.103702,0.744329,0.653761,0.122707,0.136653,-0.081711,-0.633546,-0.677478,0.373682,-0.017928,-0.020901,-0.033076,-12.073364,-17.989586,-14.483299,,,,,,,
1512180029.162132,-2.103809,0.744314,0.657872,0.125808,0.138785,-0.075260,-0.633516,-0.677467,0.373756,0.005601,0.019112,-0.029060,-12.072876,-17.914589,-14.183266,,,,,,,
1512180029.182121,-2.104000,0.744317,0.662079,0.128178,0.131339,-0.090177,-0.633443,-0.677470,0.373876,-0.033122,-0.022878,-0.034246,-12.150208,-18.439705,-14.107872,,,,,,,
1512180029.202140,-2.104089,0.744252,0.666313,0.135517,0.133472,-0.082601,-0.633448,-0.677422,0.373956,-0.044347,-0.021873,-0.065194,-11.848145,-17.989250,-14.035210,,,,,,,
1512180029.222129,-2.104098,0.744257,0.670548,0.141774,0.140940,-0.073957,-0.633442,-0.677426,0.373960,0.011448,0.014736,-0.049161,-11.699417,-18.289024,-13.886635,,,,,,,
1512180029.242118,-2.103996,0.744206,0.674702,0.133370,0.147356,-0.080449,-0.633510,-0.677388,0.373912,-0.021763,-0.007808,-0.040416,-11.699341,-18.289024,-13.736641,,,,,,,
1512180029.262138,-2.103817,0.744128,0.678870,0.137458,0.151612,-0.069715,-0.633623,-0.677331,0.373826,-0.002822,-0.016334,-0.059525,-11.249710,-18.363350,-13.815483,,,,,,,
1512180029.282127,-2.103497,0.744054,0.683006,0.139720,0.154831,-0.078203,-0.633785,-0.677276,0.373649,-0.044987,-0.033692,-0.080009,-11.026367,-18.738014,-13.742577,,,,,,,
1512180029.302116,-2.103011,0.743904,0.687042,0.139534,0.163353,-0.066449,-0.634054,-0.677165,0.373392,-0.014307,-0.012074,-0.076563,-11.253021,-19.113350,-13.665840,,,,,,,
1512180029.322135,-2.102624,0.743761,0.691172,0.135245,0.164415,-0.064373,-0.634282,-0.677061,0.373196,0.031987,-0.004214,-0.028866,-11.022430,-17.913017,-13.292198,,,,,,,
1512180029.342125,-2.102181,0.743612,0.695293,0.129030,0.164429,-0.075123,-0.634534,-0.676951,0.372966,-0.007418,-0.016744,-0.048518,-10.650574,-18.587456,-13.520699,,,,,,,
1512180029.362114,-2.101703,0.743481,0.699414,0.127932,0.160146,-0.074091,-0.634789,-0.676855,0.372707,-0.022209,-0.007288,-0.069438,-10.651108,-18.737450,-13.220757,,,,,,,
1512180029.382133,-2.101260,0.743373,0.703644,0.125839,0.169759,-0.076221,-0.635017,-0.676775,0.372463,-0.014031,0.006502,-0.048091,-10.874008,-18.287788,-13.068642,,,,,,,
1512180029.402122,-2.100907,0.743272,0.707966,0.133386,0.169781,-0.081442,-0.635207,-0.676701,0.372273,-0.020845,0.018788,-0.020481,-10.650803,-18.662453,-13.295738,,,,,,,
1512180029.422111,-2.100327,0.743327,0.712149,0.120538,0.171894,-0.077354,-0.635390,-0.676741,0.371885,-0.018907,-0.008501,-0.022535,-10.349228,-18.362007,-12.848137,,,,,,,
1512180029.442100,-2.099670,0.743412,0.716359,0.130290,0.168718,-0.087888,-0.635584,-0.676803,0.371438,-0.062399,-0.026901,-0.064706,-9.747208,-17.911095,-12.853035,,,,,,,
1512180029.462120,-2.098816,0.743557,0.720513,0.128115,0.179392,-0.084683,-0.635816,-0.676910,0.370846,-0.050479,0.006164,-0.065334,-9.973175,-18.136436,-12.776222,,,,,,,
1512180029.482109,-2.098067,0.743752,0.724782,0.128180,0.189014,-0.087846,-0.635979,-0.677054,0.370303,-0.014396,0.011801,-0.007220,-9.598434,-18.210884,-12.629448,,,,,,,
1512180029.502098,-2.097371,0.743837,0.729164,0.149578,0.173037,-0.092920,-0.636187,-0.677116,0.369832,-0.070554,-0.043587,-0.095158,-9.524078,-18.360756,-12.555153,,,,,,,
1512180029.522117,-2.096418,0.744091,0.733474,0.140921,0.189029,-0.084462,-0.636391,-0.677303,0.369139,-0.021858,-0.009434,-0.095609,-9.447983,-18.135658,-12.405693,,,,,,,
1512180029.542106,-2.095757,0.744350,0.738076,0.138008,0.207212,-0.101501,-0.636483,-0.677494,0.368630,-0.014137,0.026874,-0.006021,-9.073593,-18.285088,-12.258949,,,,,,,
1512180029.562095,-2.094761,0.744605,0.742396,0.143250,0.190126,-0.096150,-0.636699,-0.677682,0.367909,-0.040180,-0.013480,-0.087117,-9.523544,-18.285759,-12.180122,,,,,,,
1512180029.582115,-2.093369,0.745040,0.746636,0.134749,0.204000,-0.097292,-0.636956,-0.678001,0.366875,-0.064521,-0.024773,-0.134240,-9.071793,-17.910088,-12.033775,,,,,,,
1512180029.602104,-2.092155,0.745340,0.751062,0.124139,0.221080,-0.099518,-0.637224,-0.678222,0.366001,-0.047713,-0.017610,0.011105,-8.921265,-17.834862,-11.660027,,,,,,,
1512180029.622093,-2.090813,0.745783,0.755348,0.149563,0.204009,-0.090681,-0.637454,-0.678547,0.364995,-0.016065,0.033268,-0.083776,-8.848053,-18.209755,-11.885826,,,,,,,
1512180029.642112,-2.089317,0.746192,0.759626,0.136957,0.208279,-0.102579,-0.637757,-0.678847,0.363904,-0.100600,-0.036164,-0.126507,-8.173325,-18.283745,-11.741600,,,,,,,
1512180029.662101,-2.087967,0.746423,0.764076,0.142166,0.218959,-0.093935,-0.638112,-0.679017,0.362965,-0.060939,-0.025100,-0.082066,-8.243668,-17.233849,-11.890480,,,,,,,
1512180029.682090,-2.086796,0.746748,0.768634,0.133712,0.228573,-0.097219,-0.638344,-0.679255,0.362109,-0.026725,0.037654,0.004911,-7.945175,-17.608391,-11.518196,,,,,,,
1512180029.702110,-2.085640,0.746957,0.773244,0.148791,0.199777,-0.107760,-0.638638,-0.679409,0.361300,-0.110065,-0.037098,-0.116518,-7.870163,-17.608284,-11.518837,,,,,,,
1512180029.722099,-2.084216,0.747200,0.777801,0.144226,0.215749,-0.089652,-0.639008,-0.679587,0.360310,-0.047531,-0.020226,-0.132542,-7.643524,-17.232948,-11.595573,,,,,,,
1512180029.742088,-2.082895,0.747553,0.782440,0.129503,0.241386,-0.100435,-0.639275,-0.679846,0.359348,-0.020225,0.024893,-0.020999,-7.419113,-17.382607,-11.447563,,,,,,,
1512180029.762077,-2.081778,0.747742,0.787270,0.151880,0.224333,-0.100168,-0.639563,-0.679985,0.358570,-0.036523,0.008262,-0.051197,-7.266266,-16.782372,-11.148552,,,,,,,
1512180029.782096,-2.080228,0.748123,0.791903,0.161339,0.215785,-0.092600,-0.639892,-0.680264,0.357452,-0.033585,-0.003040,-0.186935,-7.192322,-17.007271,-11.224297,,,,,,,
1512180029.802085,-2.078962,0.748472,0.796810,0.141259,0.238204,-0.102408,-0.640137,-0.680520,0.356526,-0.002441,0.047769,-0.010320,-7.192352,-17.007271,-11.299294,,,,,,,
1512180029.822074,-2.077968,0.748753,0.801794,0.173054,0.208324,-0.092457,-0.640324,-0.680726,0.355797,-0.000637,0.042359,-0.098717,-7.192612,-17.082268,-11.149330,,,,,,,
1512180029.842094,-2.076869,0.749091,0.806828,0.154007,0.215785,-0.101238,-0.640513,-0.680974,0.354981,-0.056707,-0.046428,-0.128648,-6.744003,-17.381599,-11.228294,,,,,,,
1512180029.862083,-2.076469,0.749211,0.812397,0.170050,0.214749,-0.104206,-0.640584,-0.681061,0.354685,-0.033961,0.009568,-0.036570,-6.742020,-16.931587,-11.303093,,,,,,,
1512180029.882072,-2.076148,0.749286,0.817984,0.185969,0.201946,-0.100823,-0.640654,-0.681116,0.354456,-0.056215,-0.002173,-0.104913,-6.516754,-16.856255,-11.454964,,,,,,,
1512180029.902092,-2.075918,0.749349,0.823618,0.152035,0.209395,-0.110881,-0.640697,-0.681162,0.354287,-0.090870,-0.009710,-0.020547,-6.291260,-16.780922,-11.156837,,,,,,,
1512180029.922081,-2.076183,0.749108,0.829587,0.208339,0.183821,-0.100561,-0.640746,-0.680986,0.354537,-0.068726,0.005266,-0.110045,-6.367950,-17.156029,-11.156380,,,,,,,
1512180029.942070,-2.075989,0.749196,0.835198,0.183833,0.192330,-0.100887,-0.640763,-0.681051,0.354383,-0.054809,0.000753,-0.126493,-6.067200,-17.005577,-11.008858,,,,,,,
1512180029.962089,-2.076250,0.748988,0.841161,0.194585,0.190224,-0.106066,-0.640795,-0.680898,0.354619,-0.063276,-0.002757,-0.065481,-6.597076,-18.056374,-11.304878,,,,,,,
1512180029.982078,-2.076462,0.748847,0.847019,0.197672,0.187010,-0.099637,-0.640804,-0.680795,0.354801,-0.039372,-0.000113,-0.081608,-6.296921,-18.055931,-11.007439,,,,,,,
1512180030.002067,-2.076718,0.748646,0.852891,0.187100,0.191275,-0.105107,-0.640833,-0.680647,0.355032,-0.061574,-0.008180,-0.047125,-6.219070,-17.455818,-10.707802,,,,,,,
1512180030.022087,-2.077260,0.748267,0.858960,0.200723,0.181656,-0.091084,-0.640866,-0.680370,0.355505,-0.019015,0.002010,-0.023535,-6.295425,-17.755928,-10.707298,,,,,,,
1512180030.042076,-2.077737,0.748043,0.865035,0.220979,0.169937,-0.091898,-0.640830,-0.680206,0.355884,0.001548,0.012054,-0.095173,-5.995956,-17.830467,-11.084877,,,,,,,
1512180030.062048,-2.078119,0.747793,0.871074,0.200775,0.177391,-0.094295,-0.640843,-0.680023,0.356212,-0.003353,0.011978,-0.046382,-5.846893,-18.055244,-10.936256,,,,,,,
1512180030.082037,-2.078644,0.747506,0.877216,0.209218,0.178464,-0.088838,-0.640827,-0.679812,0.356643,0.027165,0.037111,-0.019500,-5.772873,-18.280144,-10.861992,,,,,,,
