timestamp(unix),attitude_roll(radians),attitude_pitch(radians),attitude_yaw(radians),rotation_rate_x(radians/s),rotation_rate_y(radians/s),rotation_rate_z(radians/s),gravity_x(G),gravity_y(G),gravity_z(G),user_acc_x(G),user_acc_y(G),user_acc_z(G),magnetic_field_x(microteslas),magnetic_field_y(microteslas),magnetic_field_z(microteslas),latitude(degree),longitude(degree),altitude(meter),speed(m/s),course(degree),timestamp(unix),User Mark
1512180821.305457,0.102079,-0.049348,0.668877,0.000855,0.001873,0.003501,0.101777,0.049328,-0.993583,0.013884,0.004215,-0.013085,16.054274,-10.848089,7.214058,,,,,,,
1512180821.325476,0.102117,-0.049386,0.668861,-0.004451,-0.000266,0.002352,0.101816,0.049366,-0.993578,-0.002588,0.013332,0.024416,15.679167,-10.848654,6.992256,,,,,,,
1512180821.345465,0.102109,-0.049386,0.668845,0.001937,0.000811,0.002445,0.101808,0.049366,-0.993578,0.010009,0.002972,-0.017042,15.302015,-11.299215,6.770226,,,,,,,
1512180821.365454,0.102116,-0.049413,0.668823,-0.004446,-0.003470,0.001271,0.101814,0.049393,-0.993576,0.001793,0.013061,0.025452,15.453001,-11.073996,6.694069,,,,,,,
1512180821.385443,0.102108,-0.049434,0.668828,-0.000194,-0.000256,0.002409,0.101806,0.049414,-0.993576,0.011704,0.009745,-0.016281,15.374556,-11.824118,6.544365,,,,,,,
1512180821.405463,0.102106,-0.049452,0.668818,-0.001224,-0.003456,0.000252,0.101804,0.049431,-0.993576,-0.009885,0.013755,0.024551,15.300642,-11.599218,6.695091,,,,,,,
1512180821.425452,0.102076,-0.049436,0.668807,0.001967,-0.000244,0.001377,0.101774,0.049416,-0.993579,0.012957,0.005363,-0.016263,15.452330,-11.223989,6.693993,,,,,,,
1512180821.445441,0.102074,-0.049469,0.668804,-0.004405,-0.002391,-0.000858,0.101772,0.049449,-0.993578,-0.008190,0.013478,0.027742,15.377958,-11.074102,6.619698,,,,,,,
1512180821.465461,0.102061,-0.049443,0.668802,0.001959,-0.000248,0.001374,0.101759,0.049423,-0.993581,0.008287,0.007538,-0.012920,15.603148,-11.073767,6.992775,,,,,,,
1512180821.485450,0.102057,-0.049462,0.668782,-0.002294,-0.001324,0.000241,0.101755,0.049442,-0.993580,-0.007929,0.013745,0.026768,15.451765,-11.373999,6.918922,,,,,,,
1512180821.505439,0.102043,-0.049457,0.668776,0.001944,-0.000256,0.001370,0.101741,0.049437,-0.993582,0.005177,0.005815,-0.015162,15.451094,-11.523993,6.918846,,,,,,,
1512180821.525458,0.102045,-0.049474,0.668783,-0.001260,-0.001325,0.002389,0.101744,0.049454,-0.993581,-0.004255,0.013245,0.026585,15.452177,-11.299002,7.068947,,,,,,,
1512180821.545447,0.102058,-0.049463,0.668793,0.000908,0.001896,0.001368,0.101756,0.049443,-0.993580,0.005376,0.003367,-0.013226,15.378157,-11.074102,6.994698,,,,,,,
1512180821.565436,0.102092,-0.049477,0.668767,-0.002289,0.000819,0.000246,0.101790,0.049457,-0.993576,-0.011320,0.011044,0.023544,15.378370,-10.999105,6.769737,,,,,,,
1512180821.585425,0.102120,-0.049440,0.668770,0.001958,0.001892,0.001377,0.101818,0.049419,-0.993575,0.011967,0.002186,-0.017747,15.528837,-10.923880,6.993492,,,,,,,
1512180821.605445,0.102154,-0.049463,0.668766,-0.003338,0.000827,0.000235,0.101852,0.049443,-0.993570,-0.008255,0.014721,0.026514,15.829206,-10.848425,7.065971,,,,,,,
1512180821.625434,0.102150,-0.049474,0.668762,0.000899,-0.000243,0.001354,0.101848,0.049454,-0.993570,0.007558,0.006546,-0.018790,15.677443,-11.223654,6.917076,,,,,,,
1512180821.645423,0.102172,-0.049497,0.668742,-0.002273,-0.000245,0.000242,0.101870,0.049477,-0.993567,-0.001085,0.011039,0.019064,15.451536,-11.448996,7.143883,,,,,,,
1512180821.665442,0.102195,-0.049518,0.668728,0.000899,0.000823,0.002424,0.101892,0.049498,-0.993563,0.008429,0.002580,-0.014890,15.301466,-11.449224,6.995155,,,,,,,
1512180821.685431,0.102203,-0.049551,0.668731,-0.004424,-0.000263,0.001272,0.101900,0.049531,-0.993561,-0.002733,0.014877,0.028305,15.448683,-12.049002,6.843605,,,,,,,
1512180821.705420,0.102188,-0.049536,0.668724,0.002011,0.000824,0.000306,0.101885,0.049515,-0.993563,0.009214,0.008422,-0.017545,15.453260,-11.073996,7.219063,,,,,,,
1512180821.725409,0.102203,-0.049535,0.668723,-0.002251,-0.002392,0.000231,0.101900,0.049515,-0.993562,-0.008745,0.014160,0.023087,15.904799,-10.698309,6.915413,,,,,,,
1512180821.745418,0.102204,-0.049523,0.668722,0.000953,-0.001321,0.000279,0.101901,0.049503,-0.993562,0.011517,0.006222,-0.010207,15.602476,-11.223776,6.992714,,,,,,,
1512180821.765407,0.102207,-0.049540,0.668713,-0.002237,0.002945,0.000246,0.101904,0.049520,-0.993561,-0.009207,0.014658,0.020889,15.602217,-11.298773,7.142677,,,,,,,
1512180821.785396,0.102205,-0.049539,0.668723,-0.001194,0.000809,0.002387,0.101902,0.049519,-0.993561,0.012341,0.007930,-0.015793,15.601728,-11.373770,6.842644,,,,,,,
1512180821.805415,0.102197,-0.049533,0.668738,-0.002240,-0.001330,0.001297,0.101894,0.049512,-0.993562,-0.002605,0.013201,0.020998,15.676237,-11.523657,7.216942,,,,,,,
1512180821.825404,0.102183,-0.049511,0.668736,0.002020,-0.003463,0.001349,0.101881,0.049490,-0.993565,0.009646,0.004053,-0.013653,15.752256,-11.298544,7.216408,,,,,,,
1512180821.845393,0.102201,-0.049506,0.668741,-0.002225,0.000802,0.000234,0.101898,0.049486,-0.993563,0.005478,0.010558,0.018435,15.677290,-11.298651,7.292046,,,,,,,
1512180821.865413,0.102213,-0.049468,0.668743,0.004141,0.007216,0.002479,0.101910,0.049448,-0.993564,0.009097,0.016089,-0.027524,15.376570,-11.449102,7.219521,,,,,,,
1512180821.885402,0.102196,-0.049522,0.668729,-0.003315,0.000801,0.002349,0.101893,0.049502,-0.993563,-0.014384,0.013685,0.025439,15.677137,-11.298651,6.992043,,,,,,,
1512180821.905391,0.102205,-0.049487,0.668720,0.000985,0.006152,0.000296,0.101902,0.049466,-0.993564,0.003094,0.002856,-0.016919,15.228300,-11.074331,7.295967,,,,,,,
1512180821.925380,0.102183,-0.049529,0.668712,-0.003269,-0.000262,-0.000857,0.101880,0.049508,-0.993564,-0.001844,0.017112,0.019550,15.449858,-11.823996,7.143715,,,,,,,
1512180821.945399,0.102175,-0.049528,0.668727,0.000955,-0.000254,0.002405,0.101872,0.049508,-0.993565,0.009929,0.005988,-0.016079,15.601393,-11.448767,6.842613,,,,,,,
1512180821.965388,0.102191,-0.049544,0.668717,-0.001142,-0.000253,0.000240,0.101888,0.049524,-0.993562,-0.009420,0.016608,0.020158,15.227140,-11.299337,6.995872,,,,,,,
1512180821.985377,0.102193,-0.049520,0.668725,0.003066,0.000815,0.003501,0.101890,0.049500,-0.993563,0.008447,0.005020,-0.015134,15.677244,-11.298651,7.217033,,,,,,,
1512180822.005397,0.102210,-0.049546,0.668722,-0.001169,-0.000258,0.001301,0.101907,0.049526,-0.993560,0.000754,0.014164,0.023727,15.378599,-10.999105,7.219734,,,,,,,
1512180822.025386,0.102216,-0.049539,0.668721,0.002047,0.001884,0.000287,0.101913,0.049519,-0.993560,0.004563,0.006221,-0.017869,15.452284,-11.299002,7.293953,,,,,,,
1512180822.045375,0.102213,-0.049567,0.668712,-0.004347,-0.001329,0.000182,0.101910,0.049547,-0.993559,-0.008739,0.017058,0.022352,15.753340,-11.073538,7.366508,,,,,,,
1512180822.065364,0.102253,-0.049554,0.668716,-0.000102,0.014696,0.002431,0.101949,0.049534,-0.993555,-0.024724,0.004772,-0.033926,15.526579,-11.448874,7.218239,,,,,,,
1512180822.085384,0.102213,-0.049547,0.668677,-0.000045,-0.002389,-0.001893,0.101910,0.049527,-0.993560,-0.014950,0.026584,0.028854,15.750563,-11.673544,7.216225,,,,,,,
1512180822.105373,0.102226,-0.049550,0.668681,0.000992,0.006151,0.000282,0.101923,0.049530,-0.993558,0.022192,-0.000137,-0.007617,15.677290,-11.298651,7.292046,,,,,,,
1512180822.125362,0.102168,-0.049578,0.668672,0.000982,-0.012008,0.000218,0.101865,0.049558,-0.993563,0.026202,0.020510,0.019274,15.525496,-11.673880,7.068138,,,,,,,
1512180822.145381,0.102213,-0.049513,0.668659,0.006320,-0.002387,0.000329,0.101910,0.049492,-0.993562,0.010959,-0.018670,-0.005386,15.451460,-11.448996,6.993889,,,,,,,
1512180822.165370,0.102196,-0.049545,0.668668,-0.003348,-0.000279,0.004457,0.101893,0.049525,-0.993562,-0.029872,0.013616,0.034684,15.451460,-11.448996,6.993889,,,,,,,
1512180822.185359,0.102181,-0.049525,0.668632,0.003145,-0.001322,-0.000782,0.101878,0.049505,-0.993564,-0.010508,0.001551,-0.002529,15.525526,-11.673880,7.143150,,,,,,,
1512180822.205348,0.102205,-0.049537,0.668619,-0.001158,-0.001335,0.001285,0.101902,0.049517,-0.993561,-0.003742,0.020781,0.014649,15.527143,-11.298880,6.993309,,,,,,,
1512180822.225368,0.102202,-0.049520,0.668601,0.002065,0.005083,0.000288,0.101899,0.049500,-0.993562,0.009033,0.001617,-0.022200,15.451124,-11.523993,6.993843,,,,,,,
1512180822.245357,0.102182,-0.049562,0.668583,-0.002205,-0.000266,0.000205,0.101879,0.049541,-0.993562,-0.004742,0.017323,0.017549,15.600080,-11.748770,6.917473,,,,,,,
1512180822.265346,0.102178,-0.049528,0.668559,0.003117,0.001882,0.001356,0.101875,0.049507,-0.993564,0.006508,0.009895,-0.015164,15.451643,-11.448996,7.368889,,,,,,,
1512180822.285365,0.102168,-0.049524,0.668533,-0.002200,0.000807,0.000207,0.101866,0.049504,-0.993566,-0.004469,0.014202,0.016820,15.526472,-11.448874,6.993248,,,,,,,
1512180822.305354,0.102148,-0.049506,0.668525,0.002063,-0.001321,0.000261,0.101846,0.049486,-0.993569,0.006309,0.003081,-0.015892,15.676497,-11.448660,7.066963,,,,,,,
1512180822.325343,0.102156,-0.049522,0.668531,-0.001165,-0.001334,0.001275,0.101854,0.049501,-0.993567,-0.003282,0.013701,0.019766,15.451536,-11.448996,7.143883,,,,,,,
1512180822.345363,0.102157,-0.049510,0.668528,-0.000067,-0.000254,0.000231,0.101855,0.049490,-0.993567,0.001692,0.006983,-0.018395,15.677061,-11.298651,6.842033,,,,,,,
1512180822.365352,0.102156,-0.049529,0.668545,-0.001163,-0.003466,0.001266,0.101853,0.049509,-0.993567,0.000106,0.015646,0.021048,15.752058,-11.298544,6.841408,,,,,,,
1512180822.385341,0.102178,-0.049511,0.668538,-0.000096,0.001876,0.001298,0.101875,0.049491,-0.993565,0.003502,0.007455,-0.010097,15.677885,-11.148657,7.142113,,,,,,,
1512180822.405330,0.102191,-0.049543,0.668539,-0.003271,0.000808,0.000183,0.101888,0.049523,-0.993562,-0.010412,0.012947,0.021120,15.901884,-11.373312,7.140099,,,,,,,
1512180822.425349,0.102199,-0.049504,0.668540,0.002043,0.000815,0.001326,0.101896,0.049484,-0.993563,0.011385,0.008698,-0.016538,15.526320,-11.523886,7.368217,,,,,,,
1512180822.445338,0.102190,-0.049495,0.668522,-0.001146,0.000814,0.001280,0.101888,0.049475,-0.993565,-0.007390,0.013986,0.015324,15.452253,-11.299002,7.218956,,,,,,,
1512180822.465327,0.102186,-0.049458,0.668507,0.001000,-0.000251,0.000240,0.101883,0.049437,-0.993567,0.002029,0.002381,-0.009881,15.678984,-10.923651,7.292213,,,,,,,
1512180822.485347,0.102173,-0.049473,0.668507,-0.002199,-0.002392,0.000185,0.101871,0.049453,-0.993568,0.004010,0.013749,0.019645,15.523771,-12.048880,6.992973,,,,,,,
1512180822.505336,0.102159,-0.049457,0.668494,0.000977,0.001880,0.001309,0.101856,0.049437,-0.993570,0.001217,0.005815,-0.018897,15.675596,-11.673666,7.291878,,,,,,,
1512180822.525325,0.102160,-0.049458,0.668476,-0.001134,-0.000255,0.000205,0.101858,0.049438,-0.993570,-0.002340,0.016450,0.021493,15.525450,-11.673880,6.993141,,,,,,,
1512180822.545314,0.102141,-0.049412,0.668482,0.003113,-0.001323,0.000259,0.101839,0.049392,-0.993574,0.003584,0.009751,-0.013003,15.677595,-11.223654,7.217079,,,,,,,
1512180822.565334,0.102112,-0.049455,0.668474,-0.003267,-0.002391,0.000166,0.101810,0.049435,-0.993575,-0.007221,0.027179,0.024855,15.751921,-11.373541,7.216362,,,,,,,
1512180822.585323,0.102093,-0.049453,0.668472,0.000983,0.002949,0.000242,0.101791,0.049433,-0.993577,0.002945,0.027059,-0.017364,15.449507,-11.898993,7.143684,,,,,,,
1512180822.605312,0.102062,-0.049521,0.668439,-0.003257,-0.001320,-0.000898,0.101760,0.049501,-0.993577,-0.008452,0.040068,0.012421,15.752256,-11.298544,7.216408,,,,,,,
1512180822.625331,0.102025,-0.049575,0.668415,-0.003279,-0.002390,0.000164,0.101723,0.049555,-0.993578,-0.002785,0.031775,-0.004790,15.825560,-11.673437,7.215584,,,,,,,
1512180822.645320,0.102006,-0.049650,0.668365,-0.003205,-0.000241,-0.004090,0.101704,0.049630,-0.993576,0.000805,0.041404,0.016708,15.749891,-11.823553,7.216164,,,,,,,
1512180822.665309,0.101993,-0.049679,0.668316,-0.000040,0.000832,-0.001906,0.101691,0.049658,-0.993576,-0.010016,0.033136,-0.008072,15.751234,-11.523550,7.216301,,,,,,,
1512180822.685329,0.101984,-0.049748,0.668258,-0.001108,-0.002370,-0.001930,0.101682,0.049727,-0.993573,-0.002637,0.042268,0.019101,15.675932,-11.598654,7.291908,,,,,,,
1512180822.705318,0.102004,-0.049737,0.668193,0.001036,0.005116,-0.001867,0.101701,0.049716,-0.993572,-0.002656,0.037732,-0.011601,15.901167,-11.523321,7.065025,,,,,,,
1512180822.725307,0.101964,-0.049764,0.668129,-0.000032,-0.007698,-0.001921,0.101661,0.049744,-0.993575,0.008980,0.042984,0.026579,15.901091,-11.523321,6.915031,,,,,,,
1512180822.745282,0.102016,-0.049695,0.668066,0.004233,0.005125,-0.001811,0.101713,0.049675,-0.993573,-0.012495,0.034340,-0.006397,16.200041,-11.747869,6.837364,,,,,,,
1512180822.765301,0.101975,-0.049684,0.668014,0.002085,-0.005555,-0.000803,0.101673,0.049664,-0.993577,0.003323,0.044803,0.012620,15.902296,-11.223318,6.615166,,,,,,,
1512180822.785290,0.101951,-0.049664,0.667940,0.001037,-0.003415,-0.001869,0.101649,0.049644,-0.993581,-0.007396,0.040948,-0.001674,16.053831,-10.923086,6.989021,,,,,,,
1512180822.805279,0.101960,-0.049682,0.667878,-0.000031,-0.001279,-0.001869,0.101658,0.049661,-0.993579,-0.000584,0.049918,0.014270,15.749357,-11.898550,6.841118,,,,,,,
1512180822.825299,0.101924,-0.049681,0.667824,0.001052,-0.001271,-0.002909,0.101622,0.049661,-0.993583,-0.010695,0.040213,-0.006845,15.675795,-11.598654,6.991905,,,,,,,
1512180822.845288,0.101928,-0.049727,0.667768,-0.001060,-0.002335,-0.003997,0.101626,0.049706,-0.993580,-0.002825,0.044974,0.019825,15.675108,-11.748663,6.991829,,,,,,,
1512180822.865277,0.101931,-0.049745,0.667699,0.000005,-0.000194,-0.003962,0.101629,0.049724,-0.993579,-0.000524,0.037709,-0.003278,15.449171,-11.974005,7.143639,,,,,,,
1512180822.885266,0.101915,-0.049794,0.667607,0.000014,-0.000192,-0.005016,0.101613,0.049774,-0.993578,-0.009648,0.040024,0.020693,15.076231,-11.524557,7.222038,,,,,,,
1512180822.905285,0.101912,-0.049789,0.667515,0.001068,-0.003390,-0.003927,0.101609,0.049768,-0.993579,-0.002473,0.035452,-0.001615,15.150450,-11.674444,6.996330,,,,,,,
1512180822.925274,0.101895,-0.049809,0.667389,0.001120,-0.001240,-0.006047,0.101592,0.049789,-0.993579,-0.006759,0.040772,0.008563,15.451124,-11.523993,6.993843,,,,,,,
1512180822.945263,0.101885,-0.049779,0.667269,0.002171,0.000891,-0.006029,0.101583,0.049758,-0.993582,-0.010458,0.032288,-0.003931,15.449217,-11.974005,7.218636,,,,,,,
1512180822.965283,0.101864,-0.049776,0.667140,0.002165,-0.001246,-0.006037,0.101562,0.049755,-0.993584,-0.005035,0.045200,0.008843,15.151243,-11.524450,7.221397,,,,,,,
1512180822.985272,0.101863,-0.049732,0.666982,0.004352,0.000902,-0.009196,0.101562,0.049711,-0.993586,0.001328,0.039446,-0.008840,14.925825,-11.599783,7.073280,,,,,,,
1512180823.005261,0.101829,-0.049719,0.666832,0.002186,-0.001239,-0.007102,0.101528,0.049699,-0.993590,-0.009868,0.048186,0.007796,14.927702,-11.224783,7.448448,,,,,,,
1512180823.025280,0.101852,-0.049694,0.666700,0.002173,0.001966,-0.006025,0.101550,0.049673,-0.993589,0.001523,0.039957,-0.004946,14.924620,-11.899786,7.373131,,,,,,,
1512180823.045269,0.101861,-0.049692,0.666572,0.002173,0.000900,-0.006028,0.101560,0.049671,-0.993589,-0.006238,0.042843,0.007611,15.150221,-11.749441,7.221291,,,,,,,
1512180823.065259,0.101905,-0.049664,0.666425,0.003238,0.001970,-0.006009,0.101603,0.049643,-0.993586,-0.000880,0.036828,-0.009863,15.149549,-11.899450,7.221230,,,,,,,
1512180823.085248,0.101945,-0.049680,0.666277,0.002198,0.003044,-0.007085,0.101643,0.049659,-0.993581,0.002254,0.040184,0.005055,15.149885,-11.824453,7.221260,,,,,,,
1512180823.105267,0.101999,-0.049637,0.666118,0.004320,0.005177,-0.007050,0.101697,0.049617,-0.993577,-0.012494,0.034383,-0.005675,15.150602,-11.674444,7.296333,,,,,,,
1512180823.125256,0.102024,-0.049627,0.665967,0.001177,0.000909,-0.010307,0.101722,0.049606,-0.993575,0.005013,0.041931,0.010696,15.075636,-11.674566,7.371971,,,,,,,
1512180823.145245,0.102036,-0.049572,0.665818,0.003283,0.000913,-0.008142,0.101734,0.049551,-0.993577,-0.009022,0.034189,0.003892,14.923796,-12.049780,7.073067,,,,,,,
1512180823.165265,0.101982,-0.049549,0.665667,0.003261,-0.005499,-0.007098,0.101680,0.049529,-0.993583,-0.004421,0.042497,0.008354,15.225065,-11.749334,6.920662,,,,,,,
1512180823.185254,0.101986,-0.049496,0.665486,0.002223,0.003042,-0.009219,0.101685,0.049476,-0.993585,-0.003983,0.038933,-0.004309,15.151274,-11.524450,7.296410,,,,,,,
1512180823.205243,0.101952,-0.049499,0.665304,0.004334,-0.005501,-0.008151,0.101651,0.049479,-0.993589,-0.002881,0.024496,0.006650,15.076277,-11.524557,7.297035,,,,,,,
1512180823.225232,0.101974,-0.049470,0.665147,0.004344,0.004113,-0.008117,0.101673,0.049450,-0.993588,-0.002292,-0.021786,-0.015079,15.376768,-11.449102,7.594521,,,,,,,
1512180823.245251,0.102054,-0.049363,0.664999,0.008607,0.006255,-0.008048,0.101753,0.049342,-0.993585,0.002327,-0.067317,-0.001913,15.151457,-11.449438,6.996437,,,,,,,
1512180823.265240,0.102184,-0.049113,0.664865,0.014952,0.008395,-0.004751,0.101883,0.049094,-0.993584,0.009445,-0.106329,-0.011848,15.677366,-11.298651,7.442039,,,,,,,
1512180823.285229,0.102336,-0.048848,0.664773,0.015966,0.009459,-0.001534,0.102036,0.048828,-0.993582,-0.004974,-0.095856,-0.003779,15.526762,-11.448874,7.593239,,,,,,,
1512180823.305249,0.102467,-0.048472,0.664694,0.020216,0.007330,-0.000412,0.102167,0.048453,-0.993586,0.010366,-0.126151,-0.025746,15.526396,-11.523886,7.518211,,,,,,,
1512180823.325238,0.102590,-0.048083,0.664684,0.019091,0.009454,0.002775,0.102292,0.048064,-0.993592,0.004077,-0.134566,-0.020980,15.376356,-11.524099,7.444481,,,,,,,
1512180823.345227,0.102688,-0.047644,0.664671,0.019092,0.007319,0.002768,0.102391,0.047626,-0.993603,0.000026,-0.144642,-0.016651,15.374281,-11.974112,7.369286,,,,,,,
1512180823.365216,0.102758,-0.047282,0.664697,0.015865,0.001967,0.003767,0.102462,0.047264,-0.993613,0.006089,-0.126732,-0.004342,15.375181,-11.749105,7.144386,,,,,,,
1512180823.385235,0.102880,-0.046892,0.664753,0.019057,0.007314,0.004900,0.102586,0.046875,-0.993619,0.012740,-0.129715,-0.017383,15.826796,-11.448431,7.665703,,,,,,,
1512180823.405224,0.102972,-0.046569,0.664803,0.013745,0.006240,0.003753,0.102678,0.046552,-0.993625,0.000135,-0.104047,-0.012433,15.452070,-11.373999,7.518913,,,,,,,
1512180823.425213,0.103058,-0.046322,0.664818,0.008447,0.004099,0.001536,0.102766,0.046305,-0.993627,0.010165,-0.072566,-0.006617,15.450636,-11.674002,7.368782,,,,,,,
1512180823.445233,0.103080,-0.046204,0.664823,0.001001,0.000885,0.000351,0.102788,0.046188,-0.993630,-0.002111,-0.020782,0.011773,15.525938,-11.598883,7.293175,,,,,,,
1512180823.465222,0.103055,-0.046211,0.664807,-0.004293,-0.002322,-0.001868,0.102762,0.046194,-0.993633,0.009298,0.008783,-0.000661,15.676054,-11.598654,7.516899,,,,,,,
1512180823.485211,0.102961,-0.046375,0.664772,-0.012788,-0.006603,-0.004139,0.102669,0.046358,-0.993635,-0.010033,0.047087,0.023923,15.377241,-11.299109,7.219582,,,,,,,
1512180823.505230,0.102823,-0.046686,0.664717,-0.018104,-0.007679,-0.005286,0.102530,0.046669,-0.993634,-0.000510,0.067803,0.015088,15.376616,-11.449102,7.294518,,,,,,,
1512180823.525219,0.102662,-0.047106,0.664659,-0.022384,-0.007687,-0.004282,0.102368,0.047088,-0.993631,-0.007840,0.087845,0.025965,15.374922,-11.824102,7.294350,,,,,,,
1512180823.545208,0.102529,-0.047545,0.664603,-0.022381,-0.006618,-0.004278,0.102234,0.047527,-0.993624,-0.001434,0.086460,0.014361,15.676313,-11.523657,7.366936,,,,,,,
1512180823.565197,0.102388,-0.048069,0.664552,-0.023425,-0.006616,-0.005358,0.102091,0.048051,-0.993614,-0.006479,0.087142,0.018898,15.451918,-11.373999,7.218910,,,,,,,
1512180823.585217,0.102267,-0.048486,0.664518,-0.018132,-0.005544,-0.003146,0.101969,0.048467,-0.993606,0.001059,0.065027,0.013381,15.601347,-11.523764,7.442574,,,,,,,
1512180823.605206,0.102194,-0.048883,0.664529,-0.016056,-0.002346,0.000092,0.101895,0.048864,-0.993594,0.000141,0.053401,0.014545,15.751234,-11.523550,7.216301,,,,,,,
1512180823.625195,0.102134,-0.049130,0.664539,-0.009696,-0.001272,0.002320,0.101834,0.049111,-0.993588,-0.003201,0.026832,-0.000644,15.677290,-11.298651,7.292046,,,,,,,
1512180823.645215,0.102135,-0.049315,0.664625,-0.006531,-0.000203,0.004502,0.101834,0.049295,-0.993579,-0.004650,0.016897,-0.000699,15.603682,-10.998770,7.367821,,,,,,,
1512180823.665204,0.102143,-0.049332,0.664695,0.001996,0.000878,0.004630,0.101841,0.049312,-0.993578,-0.000859,-0.009944,-0.009200,15.675596,-11.673666,7.291878,,,,,,,
1512180823.685193,0.102148,-0.049280,0.664771,0.005191,0.000882,0.004675,0.101846,0.049260,-0.993580,-0.006647,-0.014028,-0.013195,15.451384,-11.523993,7.518852,,,,,,,
1512180823.705182,0.102137,-0.049117,0.664821,0.010551,-0.000176,0.002616,0.101837,0.049097,-0.993589,-0.007889,-0.031412,-0.025897,15.828749,-10.998419,7.515907,,,,,,,
1512180823.725201,0.102107,-0.048907,0.664846,0.011620,-0.001240,0.002629,0.101807,0.048888,-0.993602,-0.000275,-0.022688,-0.012593,15.602369,-11.298773,7.442680,,,,,,,
1512180823.745170,0.102102,-0.048663,0.664826,0.012729,0.003041,0.000529,0.101804,0.048644,-0.993614,-0.008817,-0.029494,-0.026619,15.301237,-11.524221,7.220116,,,,,,,
1512180823.765159,0.102093,-0.048461,0.664778,0.008484,0.000901,-0.000605,0.101796,0.048442,-0.993625,-0.004017,-0.012507,-0.006283,15.526915,-11.373877,7.218285,,,,,,,
1512180823.785179,0.102115,-0.048300,0.664701,0.006386,0.001969,-0.002765,0.101819,0.048281,-0.993631,-0.004742,-0.007204,-0.008963,15.451918,-11.373999,7.218910,,,,,,,
1512180823.805168,0.102148,-0.048198,0.664635,0.005313,0.004099,-0.002775,0.101852,0.048179,-0.993632,-0.011673,0.007271,-0.004415,15.375257,-11.749105,7.294380,,,,,,,
1512180823.825157,0.102202,-0.048138,0.664568,0.002109,0.003030,-0.001756,0.101905,0.048119,-0.993630,0.001351,0.005622,0.000649,15.677626,-11.223654,7.292076,,,,,,,
1512180823.845176,0.102252,-0.048190,0.664532,-0.003240,0.003019,-0.000768,0.101955,0.048172,-0.993622,-0.010815,0.020416,0.011429,15.525297,-11.748877,7.368111,,,,,,,
1512180823.865165,0.102337,-0.048281,0.664520,-0.005352,0.004087,-0.001861,0.102039,0.048262,-0.993609,0.001645,0.020357,0.004305,15.451612,-11.448996,7.293892,,,,,,,
1512180823.885154,0.102399,-0.048404,0.664528,-0.007536,0.008349,0.001320,0.102101,0.048385,-0.993597,-0.001744,0.030457,0.014242,15.374617,-11.899115,7.369316,,,,,,,
1512180823.905143,0.102445,-0.048510,0.664570,-0.005427,0.005144,0.002405,0.102146,0.048491,-0.993587,0.003750,0.019640,0.003352,15.150496,-11.674444,7.071327,,,,,,,
1512180823.925163,0.102479,-0.048634,0.664625,-0.003325,-0.001268,0.003477,0.102179,0.048615,-0.993577,0.005976,0.027786,0.013856,15.302397,-11.299215,7.520226,,,,,,,
1512180823.945152,0.102522,-0.048696,0.664680,-0.002265,0.005144,0.004582,0.102221,0.048676,-0.993570,0.005460,0.013122,-0.002249,15.302778,-11.224218,7.595268,,,,,,,
1512180823.965141,0.102540,-0.048732,0.664727,0.000965,-0.000187,0.002479,0.102239,0.048713,-0.993566,-0.001043,0.020135,0.007147,15.453596,-10.998983,7.219093,,,,,,,
1512180823.985160,0.102550,-0.048691,0.664740,0.002060,-0.000184,0.000361,0.102249,0.048672,-0.993567,0.001557,0.001667,-0.003305,15.377287,-11.299109,7.294594,,,,,,,
1512180824.005149,0.102522,-0.048662,0.664754,0.003127,-0.002318,0.000370,0.102222,0.048643,-0.993572,0.003964,0.014620,-0.000081,15.526960,-11.373877,7.293282,,,,,,,
1512180824.025138,0.102494,-0.048584,0.664743,0.005282,-0.001242,-0.000660,0.102194,0.048565,-0.993578,-0.003378,0.002766,-0.011656,15.303679,-10.999212,7.370369,,,,,,,
1512180824.045127,0.102421,-0.048524,0.664722,0.004227,-0.004448,-0.001754,0.102121,0.048505,-0.993589,-0.005350,0.008670,-0.005328,15.378523,-11.074102,7.744698,,,,,,,
1512180824.065147,0.102358,-0.048434,0.664683,0.003195,0.004103,-0.002802,0.102060,0.048415,-0.993599,-0.007821,-0.008788,-0.014152,15.376722,-11.449102,7.519524,,,,,,,
1512180824.085136,0.102236,-0.048415,0.664655,0.002096,-0.004451,-0.001784,0.101938,0.048396,-0.993613,-0.009851,0.007543,-0.001489,15.452436,-11.299002,7.593956,,,,,,,
1512180824.105125,0.102179,-0.048376,0.664647,0.005257,-0.003383,0.000397,0.101882,0.048357,-0.993620,-0.008895,-0.002153,-0.011949,14.998991,-12.049673,7.447426,,,,,,,
1512180824.125145,0.102168,-0.048380,0.664638,-0.000052,-0.000184,-0.000735,0.101871,0.048361,-0.993621,-0.014682,0.009515,-0.000824,15.078596,-10.999548,7.222282,,,,,,,
1512180824.145134,0.102162,-0.048358,0.664638,0.001009,0.001950,-0.000714,0.101865,0.048339,-0.993623,-0.006666,0.001481,0.001725,14.776274,-11.525000,7.299583,,,,,,,
1512180824.165123,0.102139,-0.048403,0.664637,-0.001094,-0.002316,-0.001822,0.101843,0.048384,-0.993623,-0.013311,0.010210,0.007722,14.853300,-11.074896,7.299156,,,,,,,
1512180824.185142,0.102157,-0.048415,0.664629,0.001018,0.003023,-0.000708,0.101860,0.048396,-0.993621,-0.008339,0.004369,0.000243,14.927366,-11.299780,7.448418,,,,,,,
1512180824.205131,0.102177,-0.048459,0.664650,-0.003258,0.003017,0.000297,0.101879,0.048440,-0.993617,-0.009640,0.023093,0.003657,14.852064,-11.374899,7.524025,,,,,,,
1512180824.225120,0.102172,-0.048461,0.664630,-0.001087,0.001958,-0.001806,0.101874,0.048442,-0.993617,-0.007209,0.008702,0.004893,14.702513,-11.300116,7.750328,,,,,,,
1512180824.245109,0.102144,-0.048507,0.664640,-0.001116,-0.002320,-0.000757,0.101847,0.048488,-0.993618,-0.008447,0.028661,0.007091,14.475142,-11.750463,7.077034,,,,,,,
1512180824.265129,0.102134,-0.048506,0.664620,-0.001067,0.004097,-0.002864,0.101836,0.048487,-0.993619,-0.001159,0.015768,-0.006442,14.403822,-11.000570,7.678017,,,,,,,
1512180824.285118,0.102117,-0.048545,0.664619,-0.001135,-0.000188,0.000315,0.101819,0.048526,-0.993619,-0.011716,0.029858,-0.000263,14.252470,-11.300802,7.679161,,,,,,,
1512180824.305107,0.102096,-0.048546,0.664598,0.001056,0.000893,-0.002846,0.101799,0.048527,-0.993621,0.001534,0.017436,-0.004701,14.027784,-11.226126,7.606102,,,,,,,
1512180824.325126,0.102047,-0.048569,0.664563,-0.002137,-0.000177,-0.002894,0.101750,0.048550,-0.993625,-0.009785,0.027866,0.005130,13.650557,-11.676702,7.234077,,,,,,,
1512180824.345115,0.102037,-0.048566,0.664537,-0.000023,0.003027,-0.001787,0.101740,0.048547,-0.993626,-0.007273,0.019873,-0.014080,14.027250,-11.301138,7.231056,,,,,,,
1512180824.365104,0.102007,-0.048585,0.664485,0.001049,0.001957,-0.002844,0.101710,0.048566,-0.993628,-0.007411,0.041537,-0.004312,14.176420,-11.450903,6.929726,,,,,,,
1512180824.385093,0.101958,-0.048598,0.664418,0.002125,0.000896,-0.002829,0.101662,0.048579,-0.993632,-0.008919,0.029592,-0.013845,13.876234,-11.526358,7.232231,,,,,,,
1512180824.405113,0.101918,-0.048633,0.664362,-0.000011,0.000890,-0.002862,0.101621,0.048614,-0.993635,-0.004667,0.039292,-0.002566,13.725142,-11.751577,7.083397,,,,,,,
1512180824.425102,0.101911,-0.048631,0.664293,0.001057,0.003029,-0.002838,0.101614,0.048612,-0.993635,-0.002844,0.032001,-0.009599,14.025145,-11.751135,7.080849,,,,,,,
1512180824.445091,0.101874,-0.048659,0.664221,0.000009,-0.000174,-0.003930,0.101578,0.048640,-0.993638,-0.017090,0.029241,-0.000091,13.725706,-11.601583,6.858467,,,,,,,
1512180824.465110,0.101868,-0.048640,0.664177,-0.001039,-0.001241,-0.005015,0.101572,0.048621,-0.993639,0.001242,0.006066,0.013811,13.874250,-11.901358,6.632072,,,,,,,
1512180824.485099,0.101855,-0.048650,0.664125,-0.002135,-0.002312,-0.002901,0.101558,0.048630,-0.993640,-0.014263,0.013091,0.024051,13.948423,-12.051260,6.331367,,,,,,,
1512180824.505088,0.101859,-0.048599,0.664068,0.002105,-0.000182,-0.002839,0.101563,0.048580,-0.993642,-0.006150,0.004658,0.003698,13.949095,-11.901251,6.331429,,,,,,,
1512180824.525077,0.101887,-0.048584,0.664029,0.001067,0.000892,-0.003913,0.101591,0.048565,-0.993640,-0.002363,0.012714,0.009128,14.098753,-11.976034,6.330116,,,,,,,
1512180824.545097,0.101897,-0.048488,0.663974,0.004236,-0.001240,-0.001741,0.101601,0.048469,-0.993644,-0.003960,0.004540,0.001304,13.722853,-12.126593,5.883247,,,,,,,
1512180824.565086,0.101903,-0.048453,0.663907,0.001051,-0.000178,-0.002851,0.101607,0.048434,-0.993645,-0.013457,0.008909,0.016502,14.097975,-12.126028,6.105049,,,,,,,
1512180824.585075,0.101919,-0.048383,0.663849,0.003195,-0.001243,-0.003891,0.101624,0.048364,-0.993647,0.007187,0.002203,0.004892,13.870726,-12.576361,5.656761,,,,,,,
1512180824.605094,0.101938,-0.048356,0.663788,-0.001078,0.001956,-0.002861,0.101643,0.048337,-0.993646,-0.006306,0.010989,0.008096,14.249815,-11.675802,5.728981,,,,,,,
1512180824.625083,0.101956,-0.048346,0.663709,0.002103,0.000910,-0.002777,0.101661,0.048327,-0.993644,0.000894,0.007368,-0.001290,14.249098,-11.825796,5.653923,,,,,,,
1512180824.645072,0.101996,-0.048329,0.663635,-0.002150,0.001990,-0.003857,0.101701,0.048310,-0.993641,-0.007890,0.001235,0.013417,14.473127,-12.050467,5.726906,,,,,,,
1512180824.665092,0.102012,-0.048323,0.663568,0.002073,0.000928,-0.002694,0.101716,0.048304,-0.993640,0.010940,0.006933,-0.007718,14.397673,-12.125570,5.502510,,,,,,,
1512180824.685081,0.102021,-0.048338,0.663504,0.000943,0.003058,0.000536,0.101725,0.048320,-0.993638,0.001364,0.008123,-0.004210,14.697935,-12.050131,5.349983,,,,,,,
1512180824.705070,0.102039,-0.048362,0.663420,0.002059,0.004139,-0.002598,0.101743,0.048343,-0.993635,-0.015973,0.014676,-0.003511,14.924131,-11.749792,5.048225,,,,,,,
1512180824.725059,0.102033,-0.048359,0.663361,-0.000048,0.002003,-0.004725,0.101737,0.048340,-0.993636,0.007027,-0.004135,0.007552,14.847303,-12.124899,4.748680,,,,,,,
1512180824.745065,0.101999,-0.048384,0.663333,0.002005,-0.002273,-0.000402,0.101703,0.048365,-0.993638,0.015744,0.011983,-0.002272,15.146925,-12.199453,4.671104,,,,,,,
1512180824.765054,0.101970,-0.048347,0.663257,0.000919,0.001999,0.000708,0.101675,0.048328,-0.993643,-0.016485,-0.001194,0.003531,15.221510,-12.274343,4.520439,,,,,,,
1512180824.785043,0.101979,-0.048374,0.663198,0.002023,0.002007,-0.002431,0.101683,0.048355,-0.993641,-0.004638,0.013946,-0.007214,15.521299,-12.348898,4.742851,,,,,,,
1512180824.805062,0.101976,-0.048338,0.663156,0.000931,-0.000136,-0.002413,0.101681,0.048320,-0.993643,0.022999,0.002996,0.002951,15.670546,-12.498663,4.591499,,,,,,,
1512180824.825051,0.101971,-0.048349,0.663119,-0.000190,-0.000137,0.000815,0.101675,0.048330,-0.993643,-0.013525,0.016383,0.000204,16.270811,-12.422766,4.436440,,,,,,,
1512180824.845040,0.102001,-0.048326,0.663053,-0.000147,0.000941,-0.002333,0.101705,0.048307,-0.993641,-0.001119,0.000796,0.000126,16.120695,-12.422995,4.212715,,,,,,,
1512180824.865029,0.102008,-0.048336,0.663018,0.004126,0.007359,-0.003270,0.101712,0.048318,-0.993640,-0.000562,0.015479,-0.020551,16.120054,-12.572989,4.287651,,,,,,,
1512180824.885049,0.102011,-0.048322,0.662993,0.000830,-0.001204,0.000958,0.101715,0.048303,-0.993640,0.001801,0.006171,-0.000302,16.342161,-13.172659,3.910454,,,,,,,
1512180824.905038,0.102008,-0.048370,0.662952,-0.003403,0.000932,-0.001183,0.101712,0.048351,-0.993638,0.003970,-0.004864,0.001908,16.565443,-13.547323,3.833366,,,,,,,
1512180824.925027,0.102037,-0.048314,0.662914,0.004003,-0.001202,0.001090,0.101742,0.048296,-0.993638,0.000904,0.005217,-0.006652,16.795500,-12.421988,3.831978,,,,,,,
1512180824.945046,0.102031,-0.048342,0.662862,0.004028,0.006274,-0.000975,0.101735,0.048323,-0.993637,0.000239,0.008134,-0.011047,17.095503,-12.421530,3.829430,,,,,,,
1512180824.965035,0.102037,-0.048341,0.662820,0.000823,-0.002275,-0.001007,0.101741,0.048322,-0.993636,0.016392,0.007876,0.000656,17.019423,-12.646643,3.679955,,,,,,,
1512180824.985024,0.102022,-0.048360,0.662780,0.003981,-0.002283,0.000143,0.101726,0.048342,-0.993637,-0.007838,0.016890,-0.007996,17.544752,-12.570852,3.675529,,,,,,,
1512180825.005044,0.102010,-0.048349,0.662738,0.001861,-0.000152,-0.000907,0.101714,0.048331,-0.993639,0.002000,0.009348,-0.012968,17.392576,-13.021078,3.376595,,,,,,,
1512180825.025033,0.102038,-0.048355,0.662693,0.005077,0.001983,-0.002948,0.101742,0.048336,-0.993636,-0.000728,0.012760,-0.011552,17.920134,-12.495291,3.747383,,,,,,,
1512180825.045022,0.102024,-0.048331,0.662631,-0.001324,-0.003376,-0.004090,0.101728,0.048313,-0.993638,-0.008833,0.001248,0.009507,18.219343,-12.644842,3.519768,,,,,,,
1512180825.065011,0.102009,-0.048342,0.662614,-0.000278,-0.003378,-0.002970,0.101713,0.048323,-0.993639,0.007525,0.004671,0.008303,18.294050,-12.719732,3.594093,,,,,,,
1512180825.085030,0.102033,-0.048325,0.662596,0.001776,0.004086,0.001384,0.101737,0.048306,-0.993638,-0.004081,0.004459,0.001053,18.443113,-12.944510,3.742714,,,,,,,
1512180825.105019,0.102000,-0.048354,0.662556,0.000716,-0.000199,-0.000749,0.101704,0.048336,-0.993640,-0.007984,0.003682,0.003192,18.669691,-12.569174,3.515968,,,,,,,
1512180825.125008,0.102027,-0.048341,0.662545,0.000712,-0.000203,-0.000715,0.101731,0.048322,-0.993638,0.005417,-0.000196,0.001923,18.744505,-12.644049,3.815300,,,,,,,
1512180825.145028,0.102028,-0.048361,0.662549,-0.002524,-0.001284,0.001398,0.101732,0.048343,-0.993636,-0.000871,0.005124,0.014022,18.970289,-12.418722,3.363487,,,,,,,
1512180825.165017,0.102031,-0.048393,0.662537,-0.001452,0.002982,0.000389,0.101735,0.048374,-0.993635,-0.010777,0.004162,-0.007815,19.044950,-12.493597,3.362816,,,,,,,
1512180825.185006,0.102028,-0.048424,0.662543,-0.000369,-0.001289,-0.000647,0.101731,0.048405,-0.993634,0.010772,0.007290,0.002270,19.195356,-12.418386,3.511574,,,,,,,
1512180825.204995,0.102057,-0.048395,0.662544,0.000626,0.005106,0.003680,0.101760,0.048376,-0.993632,-0.008071,0.003397,0.005122,19.119841,-12.568487,3.812141,,,,,,,
1512180825.225015,0.102044,-0.048427,0.662540,-0.000413,-0.001307,0.001534,0.101748,0.048408,-0.993632,-0.000277,0.005563,0.006220,19.340818,-13.393164,3.209846,,,,,,,
1512180825.245004,0.102055,-0.048435,0.662544,-0.001464,0.000824,0.000481,0.101759,0.048416,-0.993630,0.002230,-0.000778,0.001626,19.191984,-13.168386,3.511238,,,,,,,
1512180825.264993,0.102067,-0.048435,0.662533,-0.001438,0.002963,-0.000555,0.101770,0.048416,-0.993629,-0.010004,0.002868,0.003395,19.421186,-12.268042,3.809731,,,,,,,
1512180825.285012,0.102033,-0.048421,0.662537,-0.000382,-0.007720,-0.000559,0.101736,0.048403,-0.993633,0.000925,-0.007372,0.008907,19.644194,-12.717703,3.882622,,,,,,,
1512180825.305001,0.102019,-0.048414,0.662552,0.002804,-0.003444,0.000586,0.101723,0.048395,-0.993635,-0.001671,-0.002222,0.003523,19.644270,-12.717703,4.032616,,,,,,,
1512180825.324990,0.102013,-0.048397,0.662530,0.001758,0.006166,-0.000448,0.101717,0.048378,-0.993636,-0.014391,-0.014641,-0.008149,19.569502,-12.642813,3.808281,,,,,,,
1512180825.344979,0.101958,-0.048379,0.662529,0.001739,-0.001318,-0.000463,0.101662,0.048361,-0.993643,-0.002907,-0.013876,-0.006983,19.421644,-12.193045,4.034767,,,,,,,
1512180825.364999,0.101938,-0.048333,0.662531,0.001809,-0.004506,-0.003652,0.101643,0.048314,-0.993647,-0.004811,-0.021931,0.008082,19.647322,-12.042700,4.032921,,,,,,,
1512180825.384988,0.101905,-0.048318,0.662531,0.000677,-0.003452,-0.000458,0.101610,0.048300,-0.993651,-0.002367,-0.019476,0.009093,19.346403,-12.268148,4.260368,,,,,,,
1512180825.404977,0.101886,-0.048276,0.662503,-0.000379,-0.002378,-0.000455,0.101592,0.048258,-0.993655,-0.010832,-0.025537,0.006762,19.345701,-12.418158,4.185295,,,,,,,
1512180825.424996,0.101890,-0.048229,0.662454,0.003893,-0.000236,-0.001442,0.101596,0.048210,-0.993657,-0.007739,-0.027412,-0.004634,19.418715,-12.868048,4.259453,,,,,,,
1512180825.444985,0.101892,-0.048158,0.662401,0.002841,0.001900,-0.002505,0.101598,0.048140,-0.993660,-0.006109,-0.034178,0.000984,19.345884,-12.418158,4.560295,,,,,,,
1512180825.464974,0.101886,-0.048125,0.662362,0.003863,-0.001306,-0.000358,0.101592,0.048107,-0.993662,-0.003173,-0.026577,-0.000173,19.422010,-12.193045,4.784767,,,,,,,
1512180825.484994,0.101888,-0.048075,0.662305,0.000691,-0.002374,-0.002530,0.101594,0.048057,-0.993664,-0.013490,-0.033622,0.005017,19.195585,-12.493383,4.636543,,,,,,,
1512180825.504983,0.101916,-0.047995,0.662224,0.005996,0.002973,-0.001358,0.101622,0.047977,-0.993665,-0.008986,-0.037906,-0.004168,19.422544,-12.043036,4.484840,,,,,,,
1512180825.524972,0.101906,-0.047928,0.662174,0.001758,-0.003434,-0.003561,0.101613,0.047910,-0.993670,-0.006032,-0.040814,0.010729,19.270658,-12.493261,4.785896,,,,,,,
1512180825.544961,0.101898,-0.047842,0.662116,0.003874,-0.000227,-0.003508,0.101605,0.047824,-0.993675,-0.002682,-0.039966,-0.000420,19.272581,-12.043264,4.561104,,,,,,,
1512180825.564980,0.101887,-0.047767,0.662050,0.002814,-0.002359,-0.004583,0.101595,0.047749,-0.993679,-0.014223,-0.050388,0.006451,19.420286,-12.568045,4.709602,,,,,,,
1512180825.584969,0.101860,-0.047692,0.661972,0.003873,-0.002357,-0.005623,0.101569,0.047674,-0.993685,-0.003104,-0.049551,-0.001645,19.122618,-12.043493,4.637398,,,,,,,
1512180825.604958,0.101834,-0.047600,0.661889,0.003867,-0.004487,-0.004561,0.101543,0.047582,-0.993692,-0.010433,-0.048498,0.001169,18.973204,-11.968710,5.163689,,,,,,,
1512180825.624978,0.101806,-0.047497,0.661767,0.007082,-0.000215,-0.006637,0.101515,0.047479,-0.993700,-0.006652,-0.045221,-0.005567,19.196821,-12.268377,5.086632,,,,,,,
1512180825.644967,0.101815,-0.047449,0.661644,-0.001418,0.001916,-0.007817,0.101524,0.047431,-0.993702,-0.010887,-0.053229,0.000187,19.196562,-12.343374,5.236610,,,,,,,
1512180825.664956,0.101763,-0.047366,0.661508,0.009190,-0.008757,-0.005570,0.101473,0.047348,-0.993711,-0.007021,-0.047501,-0.010440,18.971937,-12.268713,5.313545,,,,,,,
1512180825.684945,0.101726,-0.047352,0.661322,0.000708,-0.005556,-0.007812,0.101437,0.047334,-0.993715,-0.003033,-0.049714,0.002519,18.973326,-11.968710,5.388695,,,,,,,
1512180825.704964,0.101702,-0.047266,0.661152,0.003902,-0.000212,-0.007749,0.101414,0.047248,-0.993722,-0.005588,-0.046699,-0.004325,18.675230,-11.594168,5.841408,,,,,,,
1512180825.724954,0.101664,-0.047237,0.660978,0.002848,0.000862,-0.007758,0.101376,0.047220,-0.993727,-0.016751,-0.051294,-0.004991,18.299437,-11.744726,5.619530,,,,,,,
1512180825.744898,0.101598,-0.047198,0.660743,0.000772,-0.005545,-0.012077,0.101311,0.047181,-0.993735,-0.006706,-0.064438,-0.003381,17.998426,-11.970175,5.621971,,,,,,,
1512180825.764917,0.101545,-0.047164,0.660509,0.001835,-0.002332,-0.010981,0.101258,0.047147,-0.993742,-0.003999,-0.052930,-0.003069,17.999968,-11.670172,5.997124,,,,,,,
1512180825.784906,0.101494,-0.047117,0.660258,-0.000298,-0.001265,-0.011009,0.101207,0.047099,-0.993750,-0.009105,-0.061687,0.000006,17.849287,-11.820395,5.998329,,,,,,,
1512180825.804895,0.101440,-0.047069,0.659992,0.007182,0.000889,-0.011959,0.101154,0.047052,-0.993757,-0.019566,-0.065271,-0.013552,17.699751,-11.745626,6.224632,,,,,,,
1512180825.824915,0.101360,-0.047077,0.659675,-0.001276,-0.004452,-0.016364,0.101074,0.047059,-0.993765,-0.017395,-0.081391,-0.005746,17.625792,-11.520742,6.300362,,,,,,,
1512180825.844904,0.101322,-0.047012,0.659343,0.007272,0.001977,-0.017284,0.101037,0.046994,-0.993772,-0.007760,-0.084973,-0.011431,17.700453,-11.595633,6.299690,,,,,,,
1512180825.864893,0.101255,-0.046955,0.658979,0.006188,-0.001226,-0.016245,0.100971,0.046938,-0.993782,-0.011585,-0.065141,-0.013405,17.325087,-11.671194,6.227852,,,,,,,
1512180825.884882,0.101221,-0.046813,0.658564,0.005177,-0.002283,-0.019460,0.100938,0.046796,-0.993791,-0.021089,-0.072873,0.005205,17.174330,-11.821417,6.079048,,,,,,,
1512180825.904901,0.101181,-0.046762,0.658093,0.006288,0.006274,-0.021546,0.100898,0.046745,-0.993798,-0.028999,-0.048362,-0.017539,16.874998,-11.671865,6.081673,,,,,,,
1512180825.924890,0.101183,-0.046774,0.657622,-0.003289,-0.002284,-0.023850,0.100900,0.046757,-0.993797,-0.000818,-0.042851,0.019691,17.251127,-11.446295,6.303596,,,,,,,
1512180825.944879,0.101244,-0.046816,0.657139,-0.000064,0.007339,-0.024835,0.100961,0.046799,-0.993789,-0.012612,-0.026230,-0.010438,16.874067,-11.896872,6.231575,,,,,,,
1512180825.964899,0.101275,-0.046998,0.656624,-0.009628,0.001986,-0.027125,0.100990,0.046981,-0.993777,-0.016853,-0.018660,0.008990,16.950453,-11.596746,6.306068,,,,,,,
1512180825.984888,0.101341,-0.047187,0.656072,-0.011720,0.007328,-0.029269,0.101055,0.047169,-0.993762,-0.038738,-0.032506,0.002520,16.874891,-11.746862,6.531639,,,,,,,
1512180826.004877,0.101313,-0.047433,0.655497,-0.007428,0.001997,-0.031358,0.101026,0.047415,-0.993753,-0.014509,-0.036093,-0.018057,16.497496,-12.272436,6.459587,,,,,,,
1512180826.024866,0.101275,-0.047648,0.654928,-0.008491,-0.003342,-0.031390,0.100987,0.047630,-0.993747,-0.010731,-0.058326,0.009235,16.725904,-11.522085,6.533028,,,,,,,
1512180826.044885,0.101255,-0.047781,0.654312,-0.002092,0.002008,-0.031279,0.100966,0.047763,-0.993743,-0.033294,-0.071399,0.003981,16.575483,-11.597311,6.384270,,,,,,,
1512180826.064874,0.101132,-0.047849,0.653658,0.003250,-0.003323,-0.032286,0.100844,0.047831,-0.993752,-0.020781,-0.073329,-0.024803,16.424635,-11.822531,6.685432,,,,,,,
1512180826.084863,0.101082,-0.047833,0.652966,0.002252,-0.004385,-0.036569,0.100794,0.047814,-0.993758,-0.010264,-0.076089,0.007765,16.652021,-11.297201,6.758751,,,,,,,
1512180826.104883,0.101039,-0.047759,0.652230,0.005481,0.003104,-0.037560,0.100752,0.047741,-0.993765,-0.024581,-0.084759,-0.009027,16.125334,-11.672979,6.763039,,,,,,,
1512180826.124872,0.101012,-0.047670,0.651451,0.008688,0.000971,-0.038588,0.100726,0.047652,-0.993772,-0.015094,-0.074142,-0.021761,15.976240,-11.448202,6.539436,,,,,,,
1512180826.144861,0.101098,-0.047590,0.650610,0.004497,0.004177,-0.042903,0.100812,0.047572,-0.993767,-0.020505,-0.070719,0.006890,16.276243,-11.447760,6.536888,,,,,,,
1512180826.164880,0.101166,-0.047520,0.649736,0.003483,0.008460,-0.045031,0.100880,0.047502,-0.993764,-0.027424,-0.068666,-0.007106,16.203047,-11.072866,6.762688,,,,,,,
1512180826.184869,0.101220,-0.047556,0.648825,0.002435,0.002047,-0.047204,0.100933,0.047538,-0.993757,-0.008236,-0.054984,-0.022616,15.975340,-11.673208,6.764320,,,,,,,
1512180826.204858,0.101307,-0.047654,0.647892,-0.003964,0.004170,-0.047291,0.101019,0.047636,-0.993743,-0.031454,-0.057859,0.007690,16.051344,-11.448095,6.763786,,,,,,,
1512180826.224847,0.101326,-0.047760,0.646927,-0.001812,0.005245,-0.048321,0.101038,0.047742,-0.993736,-0.041635,-0.064801,0.002403,15.599546,-11.823782,6.542442,,,,,,,
1512180826.244867,0.101292,-0.047912,0.645954,-0.001747,-0.001156,-0.052607,0.101003,0.047894,-0.993733,-0.013479,-0.061932,-0.018841,15.525312,-11.673880,6.693153,,,,,,,
1512180826.264856,0.101307,-0.048089,0.644969,-0.004960,0.002041,-0.051576,0.101017,0.048071,-0.993723,-0.020969,-0.067312,0.007822,15.902067,-11.298315,6.840126,,,,,,,
1512180826.284845,0.101282,-0.048223,0.643910,-0.004974,0.004177,-0.050503,0.100991,0.048204,-0.993719,-0.039819,-0.080660,0.015539,15.676695,-11.373648,6.767006,,,,,,,
1512180826.304865,0.101289,-0.048338,0.642831,-0.000633,0.004189,-0.055772,0.100998,0.048319,-0.993712,-0.020538,-0.077784,-0.002915,15.603010,-11.073767,6.692787,,,,,,,
1512180826.324854,0.101291,-0.048466,0.641718,0.002584,0.000994,-0.056802,0.100999,0.048447,-0.993706,-0.012452,-0.067643,-0.006431,15.527586,-11.148886,6.543388,,,,,,,
1512180826.344843,0.101307,-0.048539,0.640526,0.000508,0.005269,-0.060015,0.101015,0.048520,-0.993701,-0.034639,-0.076566,0.009524,15.452620,-11.148993,6.619026,,,,,,,
1512180826.364832,0.101390,-0.048599,0.639279,0.004860,0.008490,-0.065272,0.101097,0.048580,-0.993690,-0.017051,-0.065319,-0.014794,15.527372,-11.223883,6.768349,,,,,,,
1512180826.384851,0.101468,-0.048691,0.637990,0.001686,0.010626,-0.066375,0.101174,0.048671,-0.993677,-0.017357,-0.054912,-0.016012,15.450560,-11.523993,5.868858,,,,,,,
1512180826.404840,0.101510,-0.048788,0.636623,-0.000411,0.006356,-0.068552,0.101215,0.048769,-0.993668,-0.025394,-0.050173,-0.003966,15.449369,-11.823996,6.168724,,,,,,,
1512180826.424829,0.101561,-0.048919,0.635238,-0.001484,0.006350,-0.068569,0.101266,0.048900,-0.993657,-0.014550,-0.043941,-0.014995,15.525602,-11.598883,6.618187,,,,,,,
1512180826.444849,0.101569,-0.049110,0.633807,-0.003555,0.002086,-0.071810,0.101272,0.049090,-0.993647,-0.032302,-0.036120,-0.002126,15.826658,-11.373434,6.690742,,,,,,,
1512180826.464838,0.101590,-0.049304,0.632358,-0.004559,0.004232,-0.075013,0.101292,0.049284,-0.993635,-0.010639,-0.034101,-0.002275,15.677397,-11.223654,6.842079,,,,,,,
1512180826.484827,0.101584,-0.049558,0.630913,-0.003540,0.004223,-0.072869,0.101285,0.049538,-0.993623,-0.018246,-0.025795,-0.014571,15.453108,-11.073996,6.919060,,,,,,,
1512180826.504816,0.101594,-0.049818,0.629436,-0.008851,0.002082,-0.074019,0.101293,0.049798,-0.993609,-0.032934,-0.036156,0.020724,15.453718,-10.923986,6.769127,,,,,,,
1512180826.524835,0.101639,-0.050070,0.627946,-0.006658,0.007427,-0.078236,0.101337,0.050049,-0.993592,-0.018375,-0.036850,0.006562,15.228254,-10.999334,6.546013,,,,,,,
1512180826.544824,0.101649,-0.050378,0.626447,-0.008805,0.002085,-0.077218,0.101345,0.050357,-0.993576,-0.009014,-0.036395,-0.000366,15.227842,-11.074331,6.395973,,,,,,,
1512180826.564813,0.101675,-0.050606,0.624903,-0.006685,0.003156,-0.076116,0.101370,0.050585,-0.993562,-0.028036,-0.038881,0.014665,15.078077,-10.999548,6.172295,,,,,,,
1512180826.584833,0.101672,-0.050860,0.623300,-0.002352,0.006374,-0.080307,0.101366,0.050839,-0.993549,-0.031099,-0.032482,-0.007793,15.378492,-10.924109,6.319771,,,,,,,
1512180826.604822,0.101620,-0.051101,0.621671,-0.004389,0.002114,-0.085680,0.101313,0.051078,-0.993542,-0.013773,-0.032478,-0.005588,14.852919,-11.074896,6.549171,,,,,,,
1512180826.624811,0.101570,-0.051330,0.620020,-0.004415,0.002107,-0.084616,0.101262,0.051308,-0.993536,-0.016668,-0.027336,-0.004648,15.155333,-10.549444,6.621864,,,,,,,
1512180826.644830,0.101543,-0.051568,0.618282,-0.004371,0.006388,-0.086731,0.101233,0.051546,-0.993526,-0.040076,-0.023210,-0.002842,15.003599,-10.924673,6.547966,,,,,,,
1512180826.664819,0.101545,-0.051830,0.616510,-0.002170,0.006399,-0.090964,0.101234,0.051807,-0.993513,-0.019585,-0.013934,-0.004458,15.003935,-10.849676,6.547997,,,,,,,
1512180826.684808,0.101627,-0.052079,0.614714,-0.005350,0.008532,-0.092069,0.101315,0.052055,-0.993492,-0.014721,-0.014701,0.007041,14.778944,-10.850012,6.549904,,,,,,,
1512180826.704797,0.101688,-0.052369,0.612868,-0.004288,0.009599,-0.092051,0.101374,0.052346,-0.993470,-0.030787,-0.004494,0.001908,14.479094,-10.775457,6.177498,,,,,,,
1512180826.724817,0.101746,-0.052671,0.610979,-0.007430,0.006399,-0.095304,0.101430,0.052647,-0.993449,-0.036397,-0.009174,-0.001608,15.006300,-10.324667,6.548241,,,,,,,
1512180826.744793,0.101791,-0.052985,0.609096,-0.005275,0.008543,-0.096331,0.101473,0.052960,-0.993428,-0.016924,-0.001416,-0.003505,14.854490,-10.699896,6.324333,,,,,,,
1512180826.764782,0.101788,-0.053323,0.607188,-0.007402,0.007467,-0.097434,0.101468,0.053298,-0.993410,-0.030774,-0.015181,-0.004973,14.854490,-10.699896,6.324333,,,,,,,
1512180826.784802,0.101809,-0.053615,0.605224,-0.003116,0.005343,-0.098444,0.101487,0.053590,-0.993392,-0.021562,-0.007661,-0.003373,14.931486,-10.249777,6.248909,,,,,,,
1512180826.804791,0.101830,-0.053920,0.603287,-0.005260,0.009611,-0.097394,0.101507,0.053894,-0.993374,-0.025991,-0.022873,-0.001057,14.705732,-10.400122,6.100746,,,,,,,
1512180826.824780,0.101829,-0.054219,0.601324,-0.002023,0.008555,-0.099481,0.101504,0.054192,-0.993358,-0.026461,-0.017540,-0.002766,14.929655,-10.624777,5.948738,,,,,,,
1512180826.844769,0.101905,-0.054464,0.599324,-0.001999,0.006418,-0.101623,0.101578,0.054437,-0.993337,-0.013733,-0.024637,0.004949,14.704954,-10.550116,5.875679,,,,,,,
1512180826.864788,0.102026,-0.054667,0.597280,0.003323,0.016039,-0.100445,0.101697,0.054640,-0.993314,-0.030729,-0.020918,-0.007022,14.780592,-10.400000,5.800117,,,,,,,
1512180826.884777,0.102117,-0.054830,0.595171,0.002342,0.012843,-0.105801,0.101786,0.054803,-0.993296,-0.034465,-0.030114,-0.007605,14.629728,-10.625235,6.101280,,,,,,,
1512180826.904766,0.102264,-0.054965,0.593029,0.003452,0.010711,-0.108993,0.101932,0.054937,-0.993273,-0.012317,-0.023214,0.016360,15.229948,-10.549337,5.871223,,,,,,,
1512180826.924786,0.102340,-0.055028,0.590826,0.007730,0.010718,-0.109997,0.102006,0.055000,-0.993262,-0.033891,-0.037666,0.004782,15.231153,-10.249319,5.571358,,,,,,,
1512180826.944775,0.102399,-0.055112,0.588581,0.006722,0.008590,-0.113216,0.102065,0.055084,-0.993251,-0.033752,-0.023590,0.007488,14.781523,-10.175009,5.650215,,,,,,,
1512180826.964764,0.102471,-0.055164,0.586305,0.006724,0.007516,-0.114289,0.102136,0.055136,-0.993241,-0.016260,-0.032660,0.006272,15.080885,-10.324545,5.722603,,,,,,,
1512180826.984783,0.102468,-0.055224,0.583942,0.011041,0.009673,-0.116347,0.102133,0.055196,-0.993238,-0.047720,-0.025182,0.007490,15.079756,-10.549551,5.497490,,,,,,,
1512180827.004772,0.102449,-0.055302,0.581538,0.004737,0.003268,-0.121789,0.102113,0.055273,-0.993236,-0.022112,-0.031592,0.008128,15.377668,-10.999105,5.344734,,,,,,,
1512180827.024761,0.102440,-0.055367,0.579098,0.011163,0.007551,-0.123815,0.102104,0.055339,-0.993233,-0.015541,-0.020137,-0.006858,15.457121,-10.023993,5.494545,,,,,,,
1512180827.044750,0.102378,-0.055424,0.576565,0.008004,0.005417,-0.125999,0.102043,0.055396,-0.993236,-0.045204,-0.035147,0.009212,15.456419,-10.173986,5.419487,,,,,,,
1512180827.064770,0.102281,-0.055506,0.574005,0.008006,-0.003131,-0.127097,0.101946,0.055477,-0.993242,-0.010103,-0.019360,0.014177,15.754911,-10.473547,5.116798,,,,,,,
1512180827.084759,0.102210,-0.055598,0.571440,0.009063,0.004347,-0.125989,0.101874,0.055569,-0.993244,-0.023215,-0.030636,0.000324,15.680632,-10.323645,5.192497,,,,,,,
1512180827.104748,0.102056,-0.055665,0.568811,0.012317,0.002217,-0.130217,0.101722,0.055636,-0.993256,-0.039130,-0.028521,-0.001373,15.905973,-10.248312,5.190620,,,,,,,
1512180827.124767,0.101920,-0.055748,0.566130,0.008112,0.001153,-0.133478,0.101585,0.055720,-0.993265,-0.029198,-0.030298,-0.004141,15.832243,-9.948431,5.041405,,,,,,,
1512180827.144756,0.101826,-0.055836,0.563443,0.009182,0.005428,-0.133447,0.101491,0.055807,-0.993270,-0.040761,-0.037268,0.009551,15.908476,-9.648306,4.815910,,,,,,,
1512180827.164745,0.101653,-0.055943,0.560681,0.010304,0.001166,-0.136642,0.101319,0.055914,-0.993281,-0.047059,-0.039511,-0.013433,15.831038,-10.173422,4.666298,,,,,,,
1512180827.184734,0.101569,-0.056015,0.557876,0.008251,0.000101,-0.142008,0.101236,0.055986,-0.993286,-0.025079,-0.037172,0.004699,15.906187,-10.173315,4.965660,,,,,,,
1512180827.204754,0.101441,-0.056099,0.555044,0.009323,0.005445,-0.141973,0.101108,0.056070,-0.993294,-0.059115,-0.038232,-0.008506,16.131834,-10.022970,4.888817,,,,,,,
1512180827.224743,0.101267,-0.056172,0.552152,0.009415,-0.003085,-0.147329,0.100935,0.056142,-0.993308,-0.027891,-0.047338,0.002219,16.206114,-10.172873,4.813118,,,,,,,
1512180827.244732,0.101186,-0.056277,0.549216,0.009450,0.003326,-0.149440,0.100853,0.056248,-0.993310,-0.025322,-0.031315,-0.002341,16.732801,-9.797079,4.808815,,,,,,,
1512180827.264751,0.101020,-0.056395,0.546218,0.008363,0.002253,-0.148394,0.100688,0.056365,-0.993320,-0.057674,-0.039488,-0.010891,16.434752,-9.347525,4.661583,,,,,,,
1512180827.284740,0.100898,-0.056494,0.543160,0.010557,0.002261,-0.152628,0.100567,0.056464,-0.993327,-0.028621,-0.030067,-0.007009,16.582350,-9.872290,4.585060,,,,,,,
1512180827.304729,0.100812,-0.056637,0.540098,0.006305,0.004396,-0.152680,0.100480,0.056607,-0.993327,-0.031022,-0.030453,-0.003636,16.509047,-9.497412,4.585869,,,,,,,
1512180827.324749,0.100759,-0.056733,0.536978,0.011678,0.009744,-0.155785,0.100427,0.056702,-0.993327,-0.043298,-0.022004,-0.010884,16.581755,-9.947302,4.060020,,,,,,,
1512180827.344738,0.100714,-0.056853,0.533828,0.009588,0.005478,-0.157960,0.100381,0.056822,-0.993325,-0.032266,-0.023573,-0.011451,16.810163,-9.196951,4.133461,,,,,,,
1512180827.364727,0.100679,-0.056947,0.530676,0.010644,0.007617,-0.156870,0.100346,0.056916,-0.993323,-0.046131,-0.023973,0.004416,17.035505,-9.121618,4.131584,,,,,,,
1512180827.384716,0.100579,-0.057041,0.527465,0.010708,0.007622,-0.161134,0.100246,0.057010,-0.993328,-0.044261,-0.022052,-0.015278,16.959639,-9.346731,4.432121,,,,,,,
1512180827.404736,0.100493,-0.057094,0.524250,0.011804,0.002286,-0.163269,0.100161,0.057063,-0.993334,-0.019625,-0.027507,0.005556,16.809523,-9.346960,4.208397,,,,,,,
1512180827.424725,0.100417,-0.057176,0.520994,0.012894,0.008700,-0.164297,0.100085,0.057145,-0.993336,-0.035159,-0.028779,-0.010265,16.883894,-9.496847,4.282692,,,,,,,
1512180827.444714,0.100337,-0.057231,0.517689,0.015026,0.007636,-0.164269,0.100005,0.057200,-0.993341,-0.031157,-0.034983,0.004648,16.733625,-9.572073,4.433922,,,,,,,
1512180827.464733,0.100245,-0.057310,0.514337,0.013937,0.007629,-0.163221,0.099913,0.057279,-0.993346,-0.036268,-0.031369,-0.006150,17.033552,-9.571630,4.281380,,,,,,,
1512180827.484722,0.100156,-0.057378,0.510936,0.012952,0.007634,-0.168567,0.099824,0.057346,-0.993351,-0.027284,-0.039020,0.002751,17.035734,-9.121618,4.581581,,,,,,,
1512180827.504711,0.100016,-0.057475,0.507526,0.009813,0.000164,-0.171834,0.099685,0.057444,-0.993360,-0.020568,-0.037897,0.003110,17.183561,-9.571402,4.280113,,,,,,,
1512180827.524700,0.099865,-0.057570,0.504074,0.009829,-0.000902,-0.172904,0.099534,0.057538,-0.993369,-0.027665,-0.047544,0.014930,17.184538,-9.346395,4.205208,,,,,,,
1512180827.544720,0.099706,-0.057673,0.500585,0.009812,0.003367,-0.171823,0.099375,0.057641,-0.993379,-0.045176,-0.038857,0.006639,17.184263,-9.421408,4.355171,,,,,,,
1512180827.564709,0.099504,-0.057823,0.497084,0.006724,0.000174,-0.178274,0.099174,0.057790,-0.993391,-0.036277,-0.039495,0.010923,17.181425,-10.021399,4.054893,,,,,,,
1512180827.584698,0.099344,-0.057987,0.493589,0.008846,0.002307,-0.178239,0.099014,0.057954,-0.993397,-0.015564,-0.030595,0.005665,17.110624,-9.121511,4.355949,,,,,,,
1512180827.604717,0.099108,-0.058173,0.490075,0.006640,-0.000910,-0.174018,0.098779,0.058140,-0.993409,-0.048669,-0.034214,0.002229,17.111403,-8.971502,4.581017,,,,,,,
1512180827.624706,0.098911,-0.058339,0.486548,0.008838,-0.000893,-0.177181,0.098582,0.058306,-0.993419,-0.031962,-0.036089,0.006878,17.110624,-9.121511,4.355949,,,,,,,
1512180827.644695,0.098674,-0.058547,0.483020,0.005645,-0.000902,-0.178297,0.098345,0.058513,-0.993431,-0.027727,-0.034328,0.000129,17.262053,-8.821280,4.504814,,,,,,,
1512180827.664684,0.098417,-0.058763,0.479470,0.006711,0.000174,-0.177207,0.098089,0.058729,-0.993443,-0.041555,-0.026731,-0.003475,17.186064,-9.046392,4.580345,,,,,,,
1512180827.684704,0.098278,-0.058986,0.475879,0.005691,0.005515,-0.180404,0.097949,0.058952,-0.993444,-0.041248,-0.023307,0.001165,17.486677,-8.895941,4.427864,,,,,,,
1512180827.704693,0.098186,-0.059175,0.472301,0.006747,0.006586,-0.179317,0.097857,0.059141,-0.993442,-0.033922,-0.034483,0.007587,17.413435,-8.521048,4.578682,,,,,,,
1512180827.724682,0.098008,-0.059425,0.468622,0.005736,0.003381,-0.183611,0.097678,0.059390,-0.993444,-0.051398,-0.019595,-0.002405,17.638319,-8.520712,4.351768,,,,,,,
1512180827.744701,0.097866,-0.059617,0.464899,0.006865,0.001259,-0.186797,0.097536,0.059582,-0.993447,-0.053743,-0.028836,0.000710,17.486631,-8.895941,4.352867,,,,,,,
1512180827.764669,0.097683,-0.059805,0.461143,0.011212,0.001274,-0.192065,0.097353,0.059770,-0.993453,-0.021303,-0.015992,-0.020676,17.262877,-8.596273,4.129921,,,,,,,
1512180827.784658,0.097404,-0.060012,0.457346,0.004793,-0.000877,-0.191101,0.097075,0.059976,-0.993468,-0.049941,-0.033868,0.005889,17.266661,-7.771276,4.280296,,,,,,,
1512180827.804678,0.097119,-0.060193,0.453471,0.010121,-0.005140,-0.191038,0.096791,0.060156,-0.993485,-0.048283,-0.025031,0.011063,17.264036,-8.371283,4.430016,,,,,,,
1512180827.824667,0.096868,-0.060421,0.449601,0.004886,0.001272,-0.196421,0.096540,0.060384,-0.993496,-0.025709,-0.035954,0.002392,17.339293,-8.296164,4.279427,,,,,,,
1512180827.844656,0.096661,-0.060605,0.445674,0.010232,0.007696,-0.196318,0.096334,0.060568,-0.993505,-0.045552,-0.026113,-0.009593,17.714109,-8.370596,4.576195,,,,,,,
1512180827.864645,0.096520,-0.060849,0.441693,0.007021,0.003413,-0.196383,0.096192,0.060811,-0.993503,-0.047089,-0.026647,0.004017,17.713285,-8.520605,4.276131,,,,,,,
1512180827.884665,0.096421,-0.061030,0.437706,0.010239,0.009828,-0.197380,0.096093,0.060992,-0.993502,-0.049187,-0.029513,0.004473,17.417067,-7.696051,4.429054,,,,,,,
1512180827.904654,0.096287,-0.061306,0.433701,0.008141,0.009828,-0.199543,0.095957,0.061268,-0.993498,-0.047770,-0.023396,-0.015474,17.715986,-7.920599,4.276405,,,,,,,
1512180827.924643,0.096265,-0.061509,0.429695,0.008189,0.010907,-0.201668,0.095935,0.061470,-0.993488,-0.034656,-0.026085,0.005176,17.641737,-7.770712,4.427101,,,,,,,
1512180827.944662,0.096256,-0.061732,0.425685,0.010295,0.015175,-0.200559,0.095924,0.061693,-0.993475,-0.030708,-0.028688,-0.013041,17.642714,-7.545706,4.352211,,,,,,,
1512180827.964651,0.096245,-0.061872,0.421664,0.010240,0.013031,-0.197370,0.095912,0.061832,-0.993467,-0.062739,-0.029117,-0.006258,17.718016,-7.470602,4.276619,,,,,,,
1512180827.984640,0.096273,-0.061997,0.417610,0.015629,0.015186,-0.200480,0.095940,0.061958,-0.993457,-0.029000,-0.020652,-0.014249,17.641920,-7.695715,4.127144,,,,,,,
1512180828.004629,0.096363,-0.062110,0.413581,0.012449,0.020521,-0.201575,0.096029,0.062071,-0.993441,-0.041280,-0.025404,-0.014463,17.414000,-8.371054,4.353752,,,,,,,
1512180828.024649,0.096455,-0.062204,0.409523,0.018853,0.020536,-0.201480,0.096119,0.062164,-0.993427,-0.031910,-0.014236,-0.027951,18.018461,-7.395147,4.499092,,,,,,,
1512180828.044638,0.096635,-0.062330,0.405474,0.011335,0.024787,-0.198378,0.096297,0.062290,-0.993402,-0.076202,-0.022739,-0.011390,17.795073,-7.020483,4.351189,,,,,,,
1512180828.064627,0.096840,-0.062466,0.401335,0.009349,0.024796,-0.208004,0.096500,0.062425,-0.993373,-0.064259,-0.032625,-0.008565,17.795256,-7.020483,4.726189,,,,,,,
1512180828.084646,0.097062,-0.062647,0.397167,0.010518,0.022681,-0.213321,0.096720,0.062606,-0.993341,-0.029520,-0.025161,-0.031165,17.868803,-7.320364,4.500404,,,,,,,
1512180828.104635,0.097371,-0.062839,0.392963,0.006182,0.026936,-0.209106,0.097025,0.062798,-0.993299,-0.045130,-0.023278,0.012876,17.795973,-6.870474,4.801247,,,,,,,
1512180828.124624,0.097642,-0.063127,0.388696,0.010485,0.033356,-0.211153,0.097293,0.063085,-0.993254,-0.067554,-0.032293,-0.020158,17.570753,-6.870810,4.353157,,,,,,,
1512180828.144644,0.097980,-0.063333,0.384412,0.006232,0.029076,-0.212297,0.097628,0.063290,-0.993208,-0.049746,-0.035764,0.020506,18.172132,-6.569921,4.423195,,,,,,,
1512180828.164633,0.098279,-0.063619,0.380114,0.011646,0.034440,-0.216462,0.097923,0.063576,-0.993161,-0.042442,-0.024956,-0.014728,17.646116,-6.795706,4.427559,,,,,,,
1512180828.184622,0.098683,-0.063840,0.375811,0.012682,0.036568,-0.215377,0.098322,0.063797,-0.993108,-0.048884,-0.030594,-0.002452,17.946196,-6.795263,4.575005,,,,,,,
1512180828.204611,0.099223,-0.063970,0.371505,0.014783,0.044044,-0.213188,0.098857,0.063926,-0.993046,-0.056209,-0.038078,0.011982,17.872313,-6.570364,4.800743,,,,,,,
1512180828.224630,0.099752,-0.064130,0.367218,0.016930,0.039777,-0.214238,0.099382,0.064086,-0.992983,-0.047899,-0.039886,-0.008161,17.720930,-6.870596,4.726891,,,,,,,
1512180828.244619,0.100369,-0.064206,0.362929,0.011635,0.039773,-0.216447,0.099995,0.064162,-0.992917,-0.048664,-0.036864,0.017591,17.873671,-6.270361,4.800880,,,,,,,
1512180828.264608,0.100906,-0.064338,0.358646,0.019074,0.044058,-0.214190,0.100526,0.064293,-0.992855,-0.048845,-0.024697,-0.021427,17.873335,-6.345358,4.800850,,,,,,,
1512180828.284628,0.101375,-0.064441,0.354314,0.014841,0.035511,-0.216412,0.100991,0.064396,-0.992801,-0.050515,-0.021412,-0.006390,17.723524,-6.345587,5.177116,,,,,,,
1512180828.304617,0.101923,-0.064507,0.349965,0.017018,0.037652,-0.219574,0.101535,0.064462,-0.992741,-0.010898,-0.028054,-0.003139,17.873335,-6.345358,4.800850,,,,,,,
1512180828.324606,0.102357,-0.064670,0.345594,0.019136,0.041926,-0.218462,0.101965,0.064625,-0.992687,-0.026282,-0.037877,-0.044362,17.799910,-5.970480,4.576668,,,,,,,
1512180828.344595,0.102799,-0.064699,0.341157,0.013837,0.032310,-0.220704,0.102403,0.064654,-0.992640,-0.052141,-0.036319,-0.008276,17.876143,-5.745352,5.026131,,,,,,,
1512180828.364614,0.103222,-0.064750,0.336724,0.023490,0.032335,-0.223760,0.102823,0.064705,-0.992593,0.006353,-0.025795,-0.020041,18.101103,-5.745016,4.949211,,,,,,,
