timestamp(unix),attitude_roll(radians),attitude_pitch(radians),attitude_yaw(radians),rotation_rate_x(radians/s),rotation_rate_y(radians/s),rotation_rate_z(radians/s),gravity_x(G),gravity_y(G),gravity_z(G),user_acc_x(G),user_acc_y(G),user_acc_z(G),magnetic_field_x(microteslas),magnetic_field_y(microteslas),magnetic_field_z(microteslas),latitude(degree),longitude(degree),altitude(meter),speed(m/s),course(degree),timestamp(unix),User Mark
1512180271.772894,-0.003119,-0.047428,0.209676,-0.006614,-0.049802,0.001070,-0.003115,0.047410,-0.998871,-0.002332,-0.004213,-0.008515,14.603931,-2.564854,-20.689003,,,,,,,
1512180271.792883,-0.003023,-0.047220,0.209680,0.003039,0.022846,0.000394,-0.003019,0.047202,-0.998881,0.008497,-0.011848,0.009196,14.377201,-2.940189,-20.762260,,,,,,,
1512180271.812872,-0.003037,-0.047468,0.209687,-0.001259,0.004677,0.001333,-0.003034,0.047450,-0.998869,-0.002368,0.008199,-0.012392,14.528599,-2.639973,-20.688393,,,,,,,
1512180271.832891,-0.002965,-0.047337,0.209679,-0.008701,-0.026305,-0.001013,-0.002962,0.047319,-0.998875,-0.006041,0.005858,-0.000026,14.450703,-3.240086,-21.063026,,,,,,,
1512180271.852880,-0.003029,-0.047369,0.209662,0.011590,0.034610,-0.000508,-0.003025,0.047351,-0.998874,0.015705,-0.005176,0.016131,14.303593,-2.640308,-20.686485,,,,,,,
1512180271.872869,-0.003032,-0.047467,0.209655,-0.009786,-0.025241,0.000041,-0.003028,0.047449,-0.998869,-0.008828,-0.004022,-0.004717,14.002247,-2.940754,-20.684074,,,,,,,
1512180271.892858,-0.002872,-0.047318,0.209648,0.008397,0.013245,-0.001694,-0.002868,0.047300,-0.998877,0.005707,-0.011701,0.006231,14.604008,-2.564854,-20.538994,,,,,,,
1512180271.912878,-0.003130,-0.047450,0.209666,-0.001254,0.004679,0.001335,-0.003126,0.047432,-0.998870,0.002943,0.011376,-0.003297,14.303852,-2.565311,-20.836449,,,,,,,
1512180271.932867,-0.002850,-0.047406,0.209679,-0.010838,-0.018829,0.000050,-0.002846,0.047388,-0.998872,-0.004386,0.003363,-0.004393,14.001194,-3.165760,-20.759178,,,,,,,
1512180271.952856,-0.003064,-0.047387,0.209684,0.012639,0.021797,0.000531,-0.003060,0.047369,-0.998873,0.012399,-0.001288,0.010973,14.753971,-2.564625,-20.615273,,,,,,,
1512180271.972875,-0.003003,-0.047490,0.209672,-0.014020,-0.022036,-0.001074,-0.003000,0.047472,-0.998868,-0.009162,0.000334,-0.000812,14.453403,-2.640079,-21.062752,,,,,,,
1512180271.992864,-0.002863,-0.047365,0.209690,0.009418,0.016448,0.001530,-0.002859,0.047348,-0.998874,0.008597,-0.008575,0.008228,14.377583,-2.865192,-20.687218,,,,,,,
1512180272.012853,-0.003100,-0.047496,0.209693,-0.002305,-0.001728,0.000230,-0.003096,0.047478,-0.998867,0.001006,0.004752,-0.005283,14.075367,-3.315647,-21.059883,,,,,,,
1512180272.032873,-0.002854,-0.047405,0.209674,-0.005494,-0.017753,-0.000938,-0.002851,0.047387,-0.998873,-0.008807,-0.003228,-0.001539,14.074772,-3.465656,-20.909950,,,,,,,
1512180272.052862,-0.002999,-0.047429,0.209700,0.009426,0.027130,0.001566,-0.002996,0.047411,-0.998871,0.015965,0.006727,0.012253,14.229603,-2.415424,-20.685738,,,,,,,
1512180272.072851,-0.002979,-0.047515,0.209693,-0.011904,-0.028448,-0.001071,-0.002976,0.047497,-0.998867,-0.011108,0.001773,-0.002064,14.454014,-2.565083,-20.537727,,,,,,,
1512180272.092840,-0.002882,-0.047361,0.209701,0.012643,0.025002,0.000539,-0.002879,0.047343,-0.998874,0.014643,-0.009547,0.011967,14.302509,-2.865314,-20.836586,,,,,,,
1512180272.112859,-0.003083,-0.047535,0.209708,-0.004442,-0.012412,0.000159,-0.003080,0.047517,-0.998866,-0.004092,0.004470,-0.008535,14.153339,-2.715534,-20.535240,,,,,,,
1512180272.132848,-0.002851,-0.047402,0.209706,-0.003376,-0.008140,0.000189,-0.002848,0.047384,-0.998873,-0.001486,-0.003714,-0.002165,14.527592,-2.864964,-20.688499,,,,,,,
1512180272.152837,-0.002998,-0.047464,0.209721,0.009439,0.023926,0.000487,-0.002994,0.047446,-0.998869,0.017795,0.006234,0.004729,14.150562,-3.315540,-20.685524,,,,,,,
1512180272.172857,-0.002993,-0.047484,0.209721,-0.011914,-0.031649,-0.000014,-0.002989,0.047466,-0.998868,-0.015504,0.003758,-0.000918,14.153599,-2.640537,-20.685204,,,,,,,
1512180272.192846,-0.002841,-0.047405,0.209728,0.010532,0.029274,-0.000543,-0.002838,0.047387,-0.998873,0.013046,-0.004251,0.017793,14.302921,-2.790302,-20.686546,,,,,,,
1512180272.212835,-0.003136,-0.047564,0.209708,-0.004433,-0.022017,0.000132,-0.003132,0.047546,-0.998864,-0.002101,-0.003616,-0.006812,14.151386,-3.090534,-21.060417,,,,,,,
1512180272.232855,-0.002853,-0.047403,0.209707,-0.003354,0.000407,-0.000846,-0.002849,0.047385,-0.998873,0.001385,-0.006644,0.001787,13.926380,-3.090870,-21.058510,,,,,,,
1512180272.252844,-0.003076,-0.047525,0.209710,0.007284,0.013240,0.001487,-0.003073,0.047507,-0.998866,0.007223,0.011301,-0.000783,13.703190,-2.716206,-20.831413,,,,,,,
1512180272.272833,-0.003004,-0.047537,0.209710,-0.014037,-0.024174,-0.000017,-0.003001,0.047519,-0.998866,-0.013082,0.009320,0.000590,14.377506,-2.865192,-20.837227,,,,,,,
1512180272.292856,-0.002884,-0.047504,0.209706,0.012658,0.027139,-0.000520,-0.002881,0.047486,-0.998868,0.013501,-0.012132,0.007809,14.378178,-2.715199,-20.837151,,,,,,,
1512180272.312845,-0.003250,-0.047660,0.209713,-0.010856,-0.019899,0.001108,-0.003246,0.047642,-0.998859,-0.005207,-0.001530,-0.003689,14.152287,-2.940540,-20.610344,,,,,,,
1512180272.332834,-0.002793,-0.047647,0.209693,-0.007593,0.008949,-0.001945,-0.002790,0.047629,-0.998861,0.007429,-0.009818,-0.000086,14.226612,-3.090427,-20.611046,,,,,,,
1512180272.352823,-0.003207,-0.047879,0.209645,0.007374,0.001506,-0.003882,-0.003203,0.047861,-0.998849,0.019408,-0.030511,-0.006522,14.152882,-2.790531,-20.760277,,,,,,,
1512180272.372843,-0.003354,-0.047986,0.209638,-0.022563,-0.016712,-0.000118,-0.003350,0.047967,-0.998843,-0.004127,0.020804,0.011203,14.150440,-3.315540,-20.910515,,,,,,,
1512180272.392832,-0.003153,-0.047866,0.209624,0.024376,0.019679,-0.000377,-0.003149,0.047848,-0.998850,0.010855,-0.032055,0.023538,14.152287,-2.940540,-20.610344,,,,,,,
1512180272.412821,-0.003738,-0.048027,0.209620,-0.008745,-0.024178,0.001119,-0.003734,0.048009,-0.998840,-0.007283,0.005641,0.004287,14.377506,-2.865192,-20.837227,,,,,,,
1512180272.432840,-0.003194,-0.047840,0.209598,-0.002275,0.007890,-0.000802,-0.003190,0.047822,-0.998851,0.005083,-0.014664,0.004970,14.153294,-2.715534,-20.610237,,,,,,,
1512180272.452829,-0.003639,-0.047954,0.209605,0.010496,0.007906,0.000449,-0.003635,0.047935,-0.998844,0.012073,0.013542,0.005344,14.002628,-2.865757,-20.609032,,,,,,,
1512180272.472818,-0.003473,-0.047932,0.209596,-0.017225,-0.031655,-0.001156,-0.003469,0.047914,-0.998845,-0.018672,0.009169,-0.001719,13.925251,-3.390873,-20.608635,,,,,,,
1512180272.492838,-0.003401,-0.047824,0.209587,0.017995,0.033557,-0.000418,-0.003397,0.047806,-0.998851,0.017084,-0.010514,0.014415,14.226902,-3.015430,-20.686012,,,,,,,
1512180272.512827,-0.003691,-0.047973,0.209579,-0.009764,-0.023101,-0.001018,-0.003687,0.047954,-0.998843,-0.003546,-0.000133,-0.003690,14.004307,-2.490757,-20.608864,,,,,,,
1512180272.532816,-0.003337,-0.047841,0.209593,-0.000158,0.005757,0.000291,-0.003333,0.047822,-0.998850,0.003333,-0.007814,0.000803,13.778980,-2.566090,-20.606987,,,,,,,
1512180272.552805,-0.003634,-0.047942,0.209590,0.007310,0.010036,-0.000655,-0.003630,0.047923,-0.998844,0.006819,0.010884,-0.001796,14.002201,-2.940754,-20.759071,,,,,,,
1512180272.572824,-0.003564,-0.047878,0.209571,-0.014036,-0.029512,-0.000031,-0.003560,0.047860,-0.998848,-0.017192,0.008475,0.003425,13.705616,-2.191196,-20.681175,,,,,,,
1512180272.592813,-0.003400,-0.047818,0.209572,0.012678,0.037827,-0.000474,-0.003396,0.047800,-0.998851,0.020700,-0.004404,0.016185,13.703556,-2.641209,-20.756386,,,,,,,
1512180272.612802,-0.003743,-0.047931,0.209575,-0.005529,-0.033773,0.001146,-0.003738,0.047913,-0.998845,-0.008316,-0.009354,-0.006694,13.928516,-2.640873,-20.833290,,,,,,,
1512180272.632822,-0.003399,-0.047775,0.209569,-0.001190,0.010031,-0.001838,-0.003395,0.047756,-0.998853,0.009651,-0.008496,0.005781,13.777546,-2.866093,-20.757118,,,,,,,
1512180272.652811,-0.003664,-0.047921,0.209592,0.009429,0.015379,0.000465,-0.003660,0.047902,-0.998845,0.009351,0.013316,0.009450,13.778187,-2.716099,-20.832054,,,,,,,
1512180272.672800,-0.003619,-0.047899,0.209561,-0.012987,-0.034858,-0.000032,-0.003614,0.047881,-0.998846,-0.017382,0.006257,0.003409,13.700932,-3.241215,-20.606651,,,,,,,
1512180272.692820,-0.003458,-0.047819,0.209531,0.013731,0.033544,-0.001541,-0.003454,0.047801,-0.998851,0.018178,-0.008540,0.010051,13.852955,-2.790989,-20.607719,,,,,,,
1512180272.712809,-0.003753,-0.047925,0.209556,-0.005562,-0.022031,0.003323,-0.003749,0.047906,-0.998845,0.000239,-0.004465,-0.008022,13.703892,-2.566212,-20.756340,,,,,,,
1512180272.732798,-0.003401,-0.047810,0.209559,-0.002295,0.003615,0.000262,-0.003397,0.047792,-0.998852,0.004846,-0.009004,0.001796,13.553974,-2.566425,-20.605064,,,,,,,
1512180272.752817,-0.003752,-0.047901,0.209567,0.009430,0.011108,0.000458,-0.003748,0.047883,-0.998846,0.007196,0.012633,-0.002283,13.402287,-2.941654,-20.603966,,,,,,,
1512180272.772806,-0.003712,-0.047903,0.209542,-0.015024,-0.054074,-0.006517,-0.003708,0.047885,-0.998846,-0.008148,0.016050,-0.005198,13.702290,-2.941212,-20.606514,,,,,,,
1512180272.792795,-0.005341,-0.047647,0.209594,0.034992,-0.079637,-0.001613,-0.005335,0.047629,-0.998851,0.007563,-0.007209,0.030314,13.702839,-2.791203,-20.831459,,,,,,,
1512180272.812784,-0.002181,-0.047843,0.209550,-0.052545,0.236368,0.020603,-0.002178,0.047824,-0.998853,-0.015766,-0.019779,-0.004122,13.551304,-3.091434,-21.205315,,,,,,,
1512180272.832804,-0.000888,-0.048853,0.209763,0.010979,-0.063726,0.032204,-0.000887,0.048833,-0.998807,0.006593,-0.001440,-0.021793,13.703526,-2.641209,-20.831383,,,,,,,
1512180272.852793,-0.005145,-0.047271,0.209697,0.026572,0.129704,0.001121,-0.005139,0.047253,-0.998870,0.007672,-0.000286,0.136290,13.928440,-2.640873,-20.983284,,,,,,,
1512180272.872782,-0.005173,-0.048695,0.209714,-0.027058,-0.210072,0.004493,-0.005167,0.048676,-0.998801,-0.005194,0.007339,-0.054910,13.703602,-2.641209,-20.681389,,,,,,,
1512180272.892801,-0.005073,-0.047971,0.210597,-0.034910,0.167848,0.111234,-0.005067,0.047952,-0.998837,-0.023802,-0.024225,0.056820,13.703632,-2.641209,-20.606377,,,,,,,
1512180272.912790,0.000850,-0.052850,0.221541,-0.327307,0.231368,0.713804,0.000849,0.052826,-0.998603,-0.008264,0.040726,-0.041619,13.628635,-2.641315,-20.605736,,,,,,,
1512180272.932779,0.008763,-0.059567,0.233371,-0.349468,0.461390,0.518132,0.008748,0.059532,-0.998188,0.020854,-0.021919,-0.007183,13.701496,-3.091206,-20.831596,,,,,,,
1512180272.952799,0.022560,-0.070304,0.245503,-0.710462,0.697619,0.699217,0.022502,0.070246,-0.997276,-0.074443,-0.065470,-0.075921,13.702244,-2.941212,-20.681526,,,,,,,
1512180272.972788,0.034371,-0.088309,0.265395,-0.999713,0.375939,1.092613,0.034230,0.088195,-0.995515,-0.144277,-0.301161,-0.062606,13.927692,-2.865864,-20.458397,,,,,,,
1512180272.992777,0.043385,-0.110022,0.285445,-1.253456,0.465905,0.774761,0.043109,0.109800,-0.993018,-0.334308,-0.312452,-0.142007,14.003300,-2.715763,-20.608955,,,,,,,
1512180273.012766,0.054327,-0.137313,0.290923,-1.369998,0.479348,-0.173541,0.053789,0.136882,-0.989126,-0.503847,-0.242595,-0.487055,13.778675,-2.641087,-20.532021,,,,,,,
1512180273.032785,0.059909,-0.158995,0.277503,-0.751039,0.288586,-0.996759,0.059118,0.158326,-0.985615,-0.556890,-0.542023,-0.497814,14.156193,-2.115528,-20.234962,,,,,,,
1512180273.052774,0.059846,-0.161563,0.254104,0.380725,0.178497,-1.173705,0.059031,0.160861,-0.985210,-0.529185,-0.669161,-0.435124,14.460835,-1.140079,-19.712059,,,,,,,
1512180273.072763,0.061647,-0.142000,0.227968,1.422610,0.314964,-1.318046,0.060988,0.141523,-0.988054,-0.658522,-0.507429,-0.238997,15.590595,-0.163380,-18.971184,,,,,,,
1512180273.092783,0.061822,-0.106630,0.193521,2.083106,0.151261,-1.750393,0.061431,0.106428,-0.992421,-0.643417,-0.339262,0.016179,15.591206,-0.163380,-17.771187,,,,,,,
1512180273.112772,0.058686,-0.063891,0.154661,2.292207,-0.080182,-1.771624,0.058532,0.063847,-0.996242,-0.500457,-0.285756,0.263118,16.120060,0.512417,-16.125343,,,,,,,
1512180273.132761,0.052631,-0.022178,0.118976,2.077223,-0.296607,-1.610254,0.052594,0.022177,-0.998370,-0.386197,-0.232824,0.464266,15.897465,0.887081,-14.698265,,,,,,,
1512180273.152780,0.044827,0.013386,0.087029,1.725244,-0.407559,-1.409987,0.044808,-0.013385,-0.998906,-0.203973,-0.175640,0.643681,16.207218,2.837551,-12.749916,,,,,,,
1512180273.172769,0.040039,0.044435,0.066238,1.547455,-0.185032,-0.637829,0.039989,-0.044420,-0.998212,0.008443,-0.157850,0.821378,15.539295,4.261547,-11.393532,,,,,,,
1512180273.192758,0.036859,0.074705,0.064180,1.496944,-0.152766,0.293287,0.036748,-0.074635,-0.996534,0.179804,0.053761,0.927854,15.243504,5.011105,-9.740639,,,,,,,
1512180273.212778,0.034867,0.103461,0.077856,1.332875,0.046520,0.942964,0.034674,-0.103276,-0.994048,0.309885,0.275502,1.025084,14.572407,5.760098,-8.684563,,,,,,,
1512180273.232767,0.033861,0.125595,0.095418,0.878385,-0.000700,0.703816,0.033588,-0.125265,-0.991554,0.265698,0.669561,0.859719,13.753666,7.033871,-7.626961,,,,,,,
1512180273.252756,0.035045,0.133562,0.093024,0.060326,0.118170,-0.624207,0.034726,-0.133165,-0.990485,0.272708,0.872438,0.590415,13.006992,7.632748,-6.345314,,,,,,,
1512180273.272745,0.042867,0.119163,0.071092,-1.136312,0.352537,-1.227060,0.042550,-0.118881,-0.991996,0.501914,0.575607,0.281577,11.736942,8.605846,-5.209038,,,,,,,
1512180273.292736,0.055428,0.083953,0.054164,-1.952479,0.639649,-0.656882,0.055204,-0.083855,-0.994948,0.698717,0.357735,0.098814,10.840763,9.279507,-3.626076,,,,,,,
1512180273.312725,0.069379,0.044907,0.052980,-1.832903,0.687579,0.045417,0.069254,-0.044892,-0.996588,0.627081,0.440720,-0.074670,9.493992,9.802486,-1.889381,,,,,,,
1512180273.332714,0.079000,0.016241,0.056688,-1.205495,0.301957,-0.007599,0.078908,-0.016240,-0.996750,0.341365,0.696508,-0.299866,8.522694,10.476025,-0.530785,,,,,,,
1512180273.352733,0.081097,-0.003499,0.053329,-0.900610,0.056327,-0.343046,0.081008,0.003499,-0.996707,0.147081,0.569346,-0.431225,7.997517,10.250240,1.123573,,,,,,,
1512180273.372722,0.079590,-0.023605,0.049660,-1.069060,-0.147249,-0.157499,0.079483,0.023603,-0.996557,0.179672,0.148959,-0.578807,7.249577,10.549114,2.555077,,,,,,,
1512180273.392711,0.077810,-0.044590,0.051278,-0.950454,-0.031000,0.024785,0.077655,0.044575,-0.995983,0.155896,-0.016713,-0.589252,6.650394,10.548214,4.210167,,,,,,,
1512180273.412731,0.080215,-0.054310,0.049500,-0.134621,0.253838,-0.238515,0.080011,0.054284,-0.995315,0.096427,-0.002938,-0.538667,6.201069,10.547543,5.563988,,,,,,,
1512180273.432720,0.088830,-0.045891,0.041952,0.776768,0.519300,-0.349114,0.088620,0.045875,-0.995008,0.088169,-0.049461,-0.432863,5.603016,10.846645,6.769218,,,,,,,
1512180273.452709,0.101166,-0.022376,0.036229,1.415322,0.703349,-0.016206,0.100968,0.022374,-0.994638,0.154372,-0.044576,-0.294165,5.154484,11.070965,7.673149,,,,,,,
1512180273.472698,0.143022,0.007187,0.039020,1.360948,3.055775,0.357917,0.142531,-0.007187,-0.989764,0.094117,0.088028,-0.513272,4.405521,11.294842,7.754631,,,,,,,
1512180273.492717,0.206710,0.018600,0.032408,0.057050,2.680907,-0.687827,0.205206,-0.018599,-0.978542,-0.256704,-0.005388,-0.280537,4.113209,12.944408,8.282936,,,,,,,
1512180273.512706,0.234343,0.006125,0.007811,-0.141065,0.475213,-1.452075,0.232200,-0.006125,-0.972648,-0.156608,0.283988,-0.702172,3.438358,12.943401,8.588676,,,,,,,
1512180273.532695,0.235433,0.009084,-0.014532,0.394059,-0.308980,-0.971590,0.233254,-0.009084,-0.972373,0.055533,0.190084,-0.280770,2.615726,13.392162,9.270882,,,,,,,
1512180273.552715,0.217987,-0.001442,-0.031985,-0.637450,-1.091668,-0.842143,0.216265,0.001442,-0.976333,0.153608,0.041450,0.192886,2.316700,13.616711,9.198540,,,,,,,
1512180273.572704,0.201211,-0.010127,-0.036988,-0.103476,-0.563562,-0.098054,0.199846,0.010126,-0.979775,0.259337,0.070913,-0.079628,2.465717,13.316936,9.947121,,,,,,,
1512180273.592693,0.196095,-0.012146,-0.037716,-0.143175,-0.050965,-0.057401,0.194826,0.012146,-0.980762,0.060057,-0.004318,0.226368,2.842365,13.692501,9.869102,,,,,,,
1512180273.612712,0.204187,-0.009411,-0.038213,0.325337,0.727259,0.013926,0.202762,0.009411,-0.979182,-0.022830,0.045429,-0.038396,2.465763,13.391933,9.347160,,,,,,,
1512180273.632701,0.226695,0.002223,-0.040467,0.692560,1.369808,0.015086,0.224758,-0.002223,-0.974412,-0.029217,-0.015523,0.101899,2.315723,13.391720,9.273430,,,,,,,
1512180273.652690,0.260129,0.018032,-0.044102,0.880570,1.817677,0.014040,0.257164,-0.018031,-0.966199,-0.021370,0.008586,0.012006,1.941502,13.616146,8.826729,,,,,,,
1512180273.672710,0.298124,0.037428,-0.047896,1.003408,1.939394,0.133505,0.293521,-0.037419,-0.955219,-0.065296,0.020116,0.017948,1.943348,14.066158,8.451942,,,,,,,
1512180273.692699,0.335646,0.059151,-0.047972,1.046710,1.817014,0.475914,0.328803,-0.059117,-0.942545,-0.097373,-0.003902,0.036433,1.793156,14.065929,8.078209,,,,,,,
1512180273.712688,0.369026,0.078319,-0.042879,0.708410,1.481883,0.610565,0.359601,-0.078239,-0.929819,0.005191,-0.047905,-0.148901,1.642063,13.840710,7.929375,,,,,,,
1512180273.732677,0.391235,0.095080,-0.034581,0.537482,1.044475,0.740893,0.379607,-0.094937,-0.920262,-0.048812,-0.093113,0.073262,1.789890,13.390926,7.627907,,,,,,,
1512180273.752697,0.404752,0.110904,-0.021708,0.434424,0.559873,1.019153,0.391371,-0.110677,-0.913552,-0.087828,-0.025355,0.045494,1.790897,13.615932,7.628014,,,,,,,
1512180273.772686,0.404646,0.124770,-0.000673,-0.012812,-0.023499,1.283556,0.390633,-0.124447,-0.912094,-0.030556,-0.070316,-0.063537,2.240910,13.616604,7.624184,,,,,,,
1512180273.792675,0.391917,0.130756,0.026455,-0.334417,-0.742095,1.421379,0.378699,-0.130383,-0.916288,0.015985,-0.044543,-0.074846,2.315006,13.391705,7.848442,,,,,,,
1512180273.812694,0.368046,0.133700,0.058516,-0.485984,-1.145408,1.606470,0.356581,-0.133302,-0.924704,-0.054885,-0.053358,0.099661,2.762638,12.867382,7.844368,,,,,,,
1512180273.832683,0.334428,0.137051,0.095442,-0.453798,-1.592431,1.896419,0.325151,-0.136622,-0.935740,-0.044587,-0.050573,0.026576,3.512730,12.868511,7.987999,,,,,,,
1512180273.852672,0.290932,0.142997,0.138940,-0.316064,-2.065189,2.312531,0.283917,-0.142510,-0.948198,-0.113476,-0.032722,0.097948,3.883259,11.819073,8.509315,,,,,,,
1512180273.872692,0.234934,0.153530,0.191881,-0.105042,-2.558415,2.873552,0.230040,-0.152927,-0.961090,-0.138060,-0.023022,0.172439,4.704746,10.995296,8.876930,,,,,,,
1512180273.892681,0.169057,0.166722,0.256155,0.091720,-2.929950,3.464639,0.165920,-0.165951,-0.972075,-0.124737,-0.023457,0.000167,5.828587,10.696987,9.242226,,,,,,,
1512180273.912670,0.068917,0.149642,0.297718,0.377971,-3.440902,2.243175,0.068093,-0.149084,-0.986477,-0.109642,-0.276331,-0.362888,6.500690,9.947994,10.211143,,,,,,,
1512180273.932659,0.017659,0.189071,0.334264,1.811652,-2.505004,1.652086,0.017344,-0.187946,-0.982026,0.069051,0.193516,0.658738,7.546574,9.124554,9.376839,,,,,,,
1512180273.952678,0.001198,0.209963,0.354267,0.042665,0.432060,0.526908,0.001171,-0.208424,-0.978038,0.265003,0.062778,-0.138082,7.621052,9.049664,9.001167,,,,,,,
1512180273.972667,0.006553,0.191899,0.359714,-0.894537,0.984654,0.175182,0.006432,-0.190723,-0.981622,0.067115,0.071522,0.500620,7.466175,7.924435,9.376930,,,,,,,
1512180273.992656,0.034712,0.183896,0.361008,-0.350304,0.668575,-0.003531,0.034120,-0.182862,-0.982546,0.076476,0.021820,-0.081983,7.089375,7.473873,9.829903,,,,,,,
1512180274.012676,0.024428,0.189831,0.358305,0.619180,-1.077167,-0.179986,0.023987,-0.188693,-0.981743,0.092636,-0.027005,-0.264961,7.086597,6.873867,9.679619,,,,,,,
1512180274.032665,0.006978,0.205350,0.353110,0.870984,-0.468753,-0.292553,0.006831,-0.203910,-0.978965,0.045766,0.037818,0.325126,6.784412,6.423412,9.381966,,,,,,,
1512180274.052654,0.000599,0.215218,0.345547,0.215334,-0.372309,-0.415787,0.000585,-0.213561,-0.976929,0.029460,-0.038881,-0.155502,7.157841,6.048977,9.603600,,,,,,,
1512180274.072673,0.003814,0.214463,0.335684,-0.155870,0.162470,-0.505654,0.003726,-0.212823,-0.977083,0.023831,0.023187,0.177157,7.005405,5.523754,9.454643,,,,,,,
1512180274.092662,0.010976,0.213234,0.324537,0.059378,0.138350,-0.565516,0.010727,-0.211622,-0.977292,0.032852,-0.017153,-0.053332,6.852818,4.923519,9.680641,,,,,,,
1512180274.112651,0.007463,0.218674,0.312602,0.376625,-0.392060,-0.564897,0.007285,-0.216935,-0.976158,0.014718,-0.037551,-0.029274,6.775333,4.398403,9.456032,,,,,,,
1512180274.132671,0.008336,0.218435,0.308584,-0.317825,0.149338,0.070826,0.008138,-0.216702,-0.976204,-0.163320,-0.212574,0.119697,6.992954,2.823727,8.853386,,,,,,,
1512180274.152660,0.008838,0.212220,0.315174,-0.177291,-0.083951,0.394001,0.008640,-0.210630,-0.977527,-0.000705,-0.117724,-0.060620,7.144382,3.123959,9.002251,,,,,,,
1512180274.172649,-0.001203,0.219383,0.323204,0.726380,-0.587826,0.389345,-0.001174,-0.217627,-0.976031,0.040817,-0.028375,-0.003782,7.212971,1.699062,9.000969,,,,,,,
1512180274.192638,-0.020406,0.240390,0.333816,1.143466,-0.886731,0.618223,-0.019818,-0.238082,-0.971042,-0.042331,-0.070680,0.066990,7.211536,1.399059,8.850822,,,,,,,
1512180274.212657,-0.028006,0.245383,0.347664,-0.284510,-0.062143,0.625989,-0.027163,-0.242928,-0.969663,0.041583,-0.078895,-0.046694,6.907154,0.498592,8.177956,,,,,,,
1512180274.232646,-0.030029,0.241245,0.357028,0.042691,-0.083575,0.370534,-0.029155,-0.238912,-0.970603,0.045375,-0.037501,-0.054193,6.902760,-0.476414,8.177513,,,,,,,
1512180274.252635,-0.036669,0.243388,0.361834,0.099937,-0.042425,0.133777,-0.035580,-0.240992,-0.969874,0.053067,-0.033224,0.131434,7.348530,-1.375736,7.798271,,,,,,,
1512180274.272655,-0.038818,0.242000,0.362195,-0.104035,-0.185522,-0.045576,-0.037677,-0.239645,-0.970129,0.036228,-0.050791,-0.013315,6.893284,-2.501423,7.426582,,,,,,,
1512180274.292609,-0.039875,0.241979,0.359034,0.000845,-0.048341,-0.192827,-0.038703,-0.239624,-0.970093,0.022788,-0.046661,0.070939,6.589085,-3.401875,7.128716,,,,,,,
1512180274.312598,-0.041265,0.239997,0.357446,-0.122173,-0.078872,0.024891,-0.040071,-0.237700,-0.970511,-0.045363,-0.146547,-0.001001,6.359119,-4.452229,6.680138,,,,,,,
1512180274.332618,-0.042999,0.239627,0.360658,0.034526,-0.061928,0.220177,-0.041757,-0.237340,-0.970528,-0.003058,-0.091868,0.050393,5.829136,-5.503025,6.159126,,,,,,,
1512180274.352607,-0.045651,0.240008,0.365753,0.027782,-0.026728,0.243658,-0.044327,-0.237711,-0.970323,0.045014,-0.065069,0.037554,5.600834,-6.178364,5.635735,,,,,,,
1512180274.372596,-0.047426,0.240582,0.369950,0.037219,-0.036223,0.187257,-0.046043,-0.238268,-0.970107,0.046242,-0.064375,-0.010408,5.146336,-7.079044,4.739128,,,,,,,
1512180274.392585,-0.048673,0.240424,0.374269,-0.010475,0.010610,0.237902,-0.047254,-0.238114,-0.970086,0.028318,-0.073242,0.045999,4.766117,-8.204624,4.441811,,,,,,,
1512180274.412604,-0.050355,0.241364,0.380707,0.082425,0.006242,0.357565,-0.048875,-0.239027,-0.969781,0.007798,-0.111055,0.013147,4.310947,-9.255299,3.545158,,,,,,,
1512180274.432593,-0.052025,0.242052,0.389823,0.041988,0.014478,0.482802,-0.050486,-0.239696,-0.969534,0.003931,-0.104802,0.020605,3.858356,-9.780979,3.098732,,,,,,,
1512180274.452582,-0.054392,0.243009,0.400954,0.088558,0.027194,0.567737,-0.052768,-0.240624,-0.969182,0.006122,-0.094139,0.025869,3.253666,-10.756886,2.503380,,,,,,,
1512180274.472602,-0.056823,0.244193,0.413700,0.086281,0.025986,0.642329,-0.055107,-0.241774,-0.968766,0.008858,-0.091249,0.014756,2.723759,-11.807682,2.132362,,,,,,,
1512180274.492591,-0.059715,0.245098,0.428147,0.080576,0.037550,0.729701,-0.057896,-0.242651,-0.968384,0.010013,-0.087717,0.025787,1.896046,-12.333912,1.464134,,,,,,,
1512180274.512580,-0.063268,0.246221,0.444294,0.106984,0.004324,0.807792,-0.061319,-0.243741,-0.967899,0.020059,-0.069278,0.021793,1.816395,-13.309040,0.939323,,,,,,,
1512180274.532599,-0.067795,0.247374,0.462120,0.107790,-0.011853,0.887703,-0.065680,-0.244859,-0.967331,0.028861,-0.051314,0.017410,0.838093,-13.985508,0.422310,,,,,,,
1512180274.552588,-0.072947,0.248626,0.481467,0.134350,-0.010886,0.957382,-0.070641,-0.246072,-0.966673,0.036751,-0.035895,0.000014,0.308445,-14.961308,-0.098686,,,,,,,
1512180274.572577,-0.077196,0.250696,0.502027,0.201858,0.061761,1.004453,-0.074709,-0.248078,-0.965854,0.038439,-0.012694,0.009662,-0.144070,-15.486988,-0.395088,,,,,,,
1512180274.592597,-0.081927,0.253905,0.523769,0.264900,-0.003405,1.057378,-0.079212,-0.251186,-0.964692,0.037372,-0.010319,0.005982,-0.820309,-15.713001,-0.839470,,,,,,,
1512180274.612586,-0.091137,0.258509,0.547282,0.365322,-0.277983,1.160218,-0.087987,-0.255639,-0.962759,0.022679,-0.016212,-0.054071,-1.199215,-16.538563,-1.211647,,,,,,,
1512180274.632575,-0.105514,0.263748,0.574420,0.392781,-0.400118,1.363808,-0.101676,-0.260700,-0.960050,-0.005349,-0.037395,-0.021914,-3.079464,-17.666386,-1.571236,,,,,,,
1512180274.652564,-0.118508,0.272419,0.597183,0.736904,-0.205572,0.481445,-0.113870,-0.269062,-0.956367,-0.380576,0.100651,0.006690,-3.979916,-17.667728,-2.463585,,,,,,,
1512180274.672583,-0.117958,0.283986,0.597982,0.330098,0.034005,0.014782,-0.112971,-0.280184,-0.953275,-0.052922,-0.025602,0.090451,-4.281185,-17.893192,-2.986122,,,,,,,
1512180274.692572,-0.126815,0.284193,0.604869,-0.057136,-0.467381,0.458369,-0.121402,-0.280383,-0.952179,0.123736,-0.036191,-0.023941,-5.037014,-19.094318,-3.805305,,,,,,,
1512180274.712561,-0.133085,0.283252,0.611384,0.107532,-0.073373,0.124185,-0.127405,-0.279479,-0.951660,0.041651,-0.000321,-0.114456,-4.959042,-18.494205,-3.280678,,,,,,,
1512180274.732581,-0.134128,0.287063,0.610367,0.122053,-0.026962,-0.107845,-0.128254,-0.283136,-0.950465,0.061466,0.032282,0.108286,-5.184612,-18.569538,-3.728798,,,,,,,
1512180274.752570,-0.130259,0.285549,0.609915,-0.099690,0.239469,0.034854,-0.124631,-0.281684,-0.951378,-0.037173,-0.009622,0.059898,-5.333553,-18.269764,-4.327370,,,,,,,
1512180274.772559,-0.127231,0.286864,0.610943,0.138761,0.128712,0.050718,-0.121703,-0.282946,-0.951382,-0.043550,-0.041380,-0.094623,-5.262600,-19.094654,-5.003395,,,,,,,
1512180274.792578,-0.129196,0.288599,0.613504,0.059302,-0.177082,0.134852,-0.123508,-0.284609,-0.950653,0.037235,0.000078,0.013367,-5.936291,-18.795658,-5.072517,,,,,,,
1512180274.812568,-0.131574,0.288113,0.615173,-0.029467,-0.001834,0.030765,-0.125787,-0.284143,-0.950494,-0.024238,0.003885,0.037286,-6.164074,-19.321018,-5.895851,,,,,,,
1512180274.832557,-0.129928,0.289148,0.615325,0.088135,0.116950,0.016895,-0.124184,-0.285135,-0.950408,0.012123,-0.019415,0.010741,-6.311855,-18.796238,-6.194328,,,,,,,
1512180274.852546,-0.129071,0.289591,0.617229,-0.003188,-0.011572,0.118533,-0.123354,-0.285560,-0.950388,0.025331,-0.023262,-0.030233,-6.838360,-19.097019,-6.489998,,,,,,,
1512180274.872565,-0.130453,0.289487,0.619144,0.024446,0.006742,0.059296,-0.124670,-0.285461,-0.950246,-0.018305,-0.012726,-0.008174,-6.762463,-18.871906,-6.715523,,,,,,,
1512180274.892554,-0.130141,0.290243,0.620104,0.034270,0.028148,0.046721,-0.124346,-0.286185,-0.950071,-0.001615,-0.015939,0.011152,-6.988369,-19.022251,-7.163689,,,,,,,
1512180274.912543,-0.129637,0.290344,0.621426,0.015865,0.031288,0.063520,-0.123863,-0.286282,-0.950105,0.004570,-0.023060,-0.025497,-6.837383,-18.797016,-7.239861,,,,,,,
1512180274.932563,-0.130047,0.291061,0.622630,0.048076,-0.009222,0.047856,-0.124226,-0.286968,-0.949850,0.001103,-0.015857,0.000753,-7.139111,-19.097477,-7.987450,,,,,,,
1512180274.952552,-0.130263,0.291362,0.623603,0.008693,0.001402,0.044122,-0.124420,-0.287257,-0.949737,-0.000824,-0.018285,0.012054,-7.738888,-19.023365,-8.207314,,,,,,,
1512180274.972541,-0.130253,0.291760,0.624499,0.036515,0.037778,0.040391,-0.124395,-0.287638,-0.949625,0.002203,-0.017202,0.019053,-7.963223,-18.873707,-8.205330,,,,,,,
1512180274.992560,-0.130071,0.292299,0.625608,0.027692,0.001412,0.056126,-0.124203,-0.288154,-0.949494,-0.002308,-0.024193,-0.000640,-7.889156,-19.023594,-8.731026,,,,,,,
1512180275.012549,-0.130223,0.292663,0.626740,0.024680,0.016382,0.045474,-0.124333,-0.288503,-0.949371,-0.003963,-0.018534,0.019180,-7.963665,-18.873707,-9.105324,,,,,,,
1512180275.032538,-0.130323,0.293126,0.627540,0.024893,0.010002,0.032663,-0.124411,-0.288946,-0.949226,-0.000314,-0.018595,0.024940,-8.265911,-19.324162,-9.552971,,,,,,,
1512180275.052527,-0.129870,0.293425,0.628377,0.021523,0.032401,0.043350,-0.123970,-0.289233,-0.949196,-0.014045,-0.026548,0.002282,-8.412991,-18.649387,-9.776390,,,,,,,
1512180275.072547,-0.130034,0.293877,0.629695,0.029616,0.015272,0.068993,-0.124109,-0.289665,-0.949046,-0.000449,-0.023704,0.014278,-8.714458,-18.949833,-9.998985,,,,,,,
1512180275.092536,-0.130251,0.294201,0.631358,0.019826,0.001351,0.080531,-0.124303,-0.289975,-0.948927,-0.006725,-0.021182,0.006513,-9.014263,-18.800282,-10.971352,,,,,,,
1512180275.112525,-0.130025,0.294571,0.632714,0.032134,0.053777,0.047844,-0.124074,-0.290330,-0.948848,-0.021830,-0.021819,0.007411,-9.542004,-19.326084,-11.717140,,,,,,,
1512180275.132544,-0.129808,0.295126,0.633715,0.027823,0.015312,0.048713,-0.123847,-0.290861,-0.948715,0.000831,-0.018343,0.009109,-9.019558,-19.925297,-11.421867,,,,,,,
1512180275.152533,-0.129475,0.295292,0.634820,0.007509,0.034504,0.053818,-0.123525,-0.291019,-0.948708,-0.009974,-0.017208,0.008691,-9.538784,-18.576069,-12.016792,,,,,,,
1512180275.172522,-0.129358,0.295521,0.636133,0.020134,0.034500,0.063594,-0.123405,-0.291238,-0.948657,-0.012169,-0.014579,0.016406,-10.290661,-18.952198,-12.385582,,,,,,,
1512180275.192542,-0.129047,0.295659,0.637942,0.012055,0.029074,0.100771,-0.123105,-0.291370,-0.948655,-0.006045,-0.015896,0.011384,-10.064938,-18.726856,-12.987389,,,,,,,
1512180275.212531,-0.129129,0.295717,0.640201,0.020560,0.044039,0.103079,-0.123181,-0.291426,-0.948628,-0.011280,-0.004152,0.022985,-10.590511,-18.802647,-13.432961,,,,,,,
1512180275.232520,-0.128799,0.295884,0.642153,0.016613,0.030182,0.082716,-0.122862,-0.291586,-0.948621,-0.009585,-0.001307,0.018628,-10.741253,-18.877872,-14.256721,,,,,,,
1512180275.252539,-0.128209,0.295757,0.643888,-0.002632,0.070740,0.088979,-0.122307,-0.291464,-0.948730,-0.012581,-0.006800,0.019424,-10.813488,-18.202976,-14.780769,,,,,,,
1512180275.272528,-0.128311,0.295672,0.646147,0.007422,0.033293,0.123104,-0.122406,-0.291383,-0.948742,0.000046,0.000184,0.028896,-11.265697,-18.653660,-15.152138,,,,,,,
1512180275.292497,-0.127929,0.295423,0.649058,0.012359,0.051411,0.147758,-0.122053,-0.291145,-0.948861,-0.010164,0.008018,0.019860,-11.489834,-18.354008,-16.125099,,,,,,,
1512180275.312486,-0.127984,0.295160,0.652773,0.006276,0.073743,0.194655,-0.122115,-0.290893,-0.948930,-0.005082,0.013564,0.041215,-11.413494,-17.978886,-16.800545,,,,,,,
1512180275.332506,-0.127639,0.295013,0.657328,0.023875,0.069432,0.225809,-0.121793,-0.290752,-0.949014,-0.012698,0.010341,0.008783,-11.561535,-17.454105,-17.624031,,,,,,,
1512180275.352495,-0.127412,0.294707,0.662509,0.013798,0.105673,0.256704,-0.121590,-0.290459,-0.949130,-0.024651,0.008034,0.027942,-11.862286,-17.529560,-18.446510,,,,,,,
1512180275.372484,-0.127350,0.294345,0.668257,0.003576,0.078882,0.293776,-0.121544,-0.290113,-0.949242,-0.022575,0.011625,0.017387,-12.013042,-17.604786,-19.270256,,,,,,,
1512180275.392504,-0.127237,0.293659,0.674798,0.024555,0.118401,0.317676,-0.121461,-0.289456,-0.949453,-0.039534,0.016598,0.004430,-11.784893,-16.779438,-20.396797,,,,,,,
1512180275.412493,-0.127236,0.293104,0.682116,0.002159,0.100076,0.381249,-0.121481,-0.288925,-0.949612,-0.020060,0.012131,0.024121,-12.083431,-16.329884,-21.519035,,,,,,,
1512180275.432482,-0.127034,0.292216,0.690199,0.018101,0.148154,0.385908,-0.121321,-0.288075,-0.949891,-0.031617,0.008397,0.004731,-12.082409,-16.029896,-22.193901,,,,,,,
1512180275.452501,-0.126513,0.291425,0.698704,0.028595,0.104362,0.394439,-0.120856,-0.287318,-0.950179,-0.022394,-0.037511,0.010467,-11.853207,-14.979542,-23.245323,,,,,,,
1512180275.472490,-0.122719,0.294789,0.701567,0.215475,0.497568,-0.058827,-0.117131,-0.290538,-0.949667,-0.058498,-0.573385,0.094640,-11.778255,-14.904438,-23.995918,,,,,,,
1512180275.492479,-0.107491,0.301821,0.699649,0.365939,0.746683,-0.055780,-0.102435,-0.297259,-0.949285,0.120028,-0.237134,-0.058329,-11.625546,-14.304203,-23.996910,,,,,,,
1512180275.512468,-0.098992,0.307105,0.699964,0.164439,0.228224,-0.014659,-0.094207,-0.302300,-0.948545,-0.001924,0.065499,-0.047045,-11.551037,-14.454090,-23.622627,,,,,,,
1512180275.532488,-0.099801,0.307066,0.699725,-0.086612,-0.170627,-0.002630,-0.094975,-0.302263,-0.948480,0.020054,0.008730,0.003076,-11.474606,-14.153980,-23.473122,,,,,,,
1512180275.552477,-0.102615,0.304949,0.698955,-0.088178,-0.078704,-0.032181,-0.097709,-0.300244,-0.948844,-0.005273,0.025922,0.019828,-11.250729,-14.378635,-23.700142,,,,,,,
1512180275.572466,-0.102419,0.304693,0.698491,0.020396,0.002616,-0.018600,-0.097530,-0.300000,-0.948939,0.012310,0.024198,-0.056508,-11.400433,-14.303867,-23.773827,,,,,,,
1512180275.592485,-0.102019,0.305489,0.698264,0.032153,0.037888,-0.018305,-0.097127,-0.300760,-0.948740,-0.016628,0.024759,0.007136,-11.324642,-14.153751,-23.549400,,,,,,,
1512180275.612474,-0.101882,0.305313,0.697743,-0.032918,-0.033781,-0.019498,-0.097002,-0.300592,-0.948806,0.016100,0.003168,-0.003998,-11.400738,-14.378864,-23.698860,,,,,,,
1512180275.632463,-0.102598,0.304825,0.697242,-0.008373,-0.032674,-0.021272,-0.097697,-0.300126,-0.948883,0.004679,0.022279,-0.025284,-11.174084,-14.003529,-23.775612,,,,,,,
1512180275.652483,-0.102235,0.305339,0.696967,0.027845,0.032533,-0.016255,-0.097336,-0.300616,-0.948764,-0.003463,0.016818,0.005649,-11.625179,-14.229206,-23.921883,,,,,,,
1512180275.672472,-0.102553,0.305246,0.696533,-0.015904,-0.049778,-0.017173,-0.097641,-0.300528,-0.948761,0.022628,0.009467,-0.007111,-11.552166,-14.679081,-23.847725,,,,,,,
1512180275.692461,-0.102624,0.305242,0.696149,0.002318,0.002589,-0.022063,-0.097709,-0.300524,-0.948755,-0.005731,0.021624,0.002192,-11.173336,-13.853519,-23.625526,,,,,,,
1512180275.712480,-0.103063,0.305337,0.695773,0.013898,-0.017700,-0.013435,-0.098121,-0.300615,-0.948684,0.018532,0.004884,0.005889,-10.875805,-14.378071,-23.853325,,,,,,,
1512180275.732469,-0.102759,0.305499,0.695361,-0.010437,-0.019850,-0.024454,-0.097829,-0.300769,-0.948665,-0.002300,0.025058,-0.007344,-11.175289,-14.303532,-23.475746,,,,,,,
1512180275.752458,-0.103485,0.305350,0.695001,0.002162,-0.009175,-0.012509,-0.098521,-0.300627,-0.948639,0.003856,0.006544,0.018753,-11.400021,-14.228870,-23.623802,,,,,,,
1512180275.772447,-0.103438,0.305449,0.694556,0.000137,-0.032662,-0.020082,-0.098474,-0.300722,-0.948614,0.004541,0.013811,-0.012660,-11.478893,-15.053974,-23.923531,,,,,,,
1512180275.792467,-0.103687,0.305528,0.694235,0.003422,0.005807,-0.023097,-0.098708,-0.300797,-0.948565,-0.011338,0.031357,0.018970,-11.327236,-14.678745,-23.999641,,,,,,,
1512180275.812456,-0.103978,0.305395,0.693778,-0.009570,-0.043373,-0.013864,-0.098988,-0.300670,-0.948576,0.009388,-0.003087,-0.009004,-11.249493,-14.078632,-23.924995,,,,,,,
1512180275.832445,-0.104127,0.305379,0.693326,0.001321,-0.000601,-0.025282,-0.099130,-0.300654,-0.948567,-0.022391,0.018794,0.005604,-11.023373,-13.853306,-23.701805,,,,,,,
1512180275.852465,-0.104316,0.305507,0.692903,0.007598,-0.009153,-0.018826,-0.099305,-0.300777,-0.948509,-0.003295,0.001094,0.011681,-11.549831,-14.154087,-23.922478,,,,,,,
1512180275.872454,-0.104223,0.305443,0.692318,-0.014650,-0.026258,-0.027735,-0.099219,-0.300716,-0.948538,-0.005487,-0.001103,-0.009287,-11.400066,-14.228870,-23.698799,,,,,,,
1512180275.892443,-0.104624,0.305369,0.691790,0.003527,-0.001655,-0.029517,-0.099601,-0.300645,-0.948520,-0.014702,0.004869,0.011508,-11.325176,-14.228748,-23.924431,,,,,,,
1512180275.912462,-0.104598,0.305548,0.691224,0.007710,-0.024093,-0.026339,-0.099572,-0.300816,-0.948469,-0.010276,-0.005154,-0.007738,-11.399044,-14.003864,-23.698692,,,,,,,
1512180275.932451,-0.104302,0.305684,0.690580,-0.007079,0.009013,-0.032834,-0.099286,-0.300946,-0.948458,-0.015567,-0.010471,0.016283,-11.025021,-14.228306,-23.626976,,,,,,,
1512180275.952440,-0.105167,0.305418,0.689885,-0.000816,-0.050807,-0.027621,-0.100115,-0.300692,-0.948451,0.002001,-0.018934,-0.009282,-11.324429,-14.078754,-23.774361,,,,,,,
1512180275.972429,-0.104315,0.305918,0.689227,0.009009,0.031477,-0.037854,-0.099291,-0.301169,-0.948387,-0.030943,-0.008798,0.017921,-11.325283,-14.303745,-23.474464,,,,,,,
1512180275.992449,-0.105108,0.305737,0.688536,-0.005030,-0.041192,-0.029779,-0.100050,-0.300996,-0.948362,0.000745,-0.028960,0.021039,-10.950253,-14.228184,-24.077614,,,,,,,
1512180276.012438,-0.104588,0.305993,0.687813,0.000445,-0.003785,-0.037033,-0.099548,-0.301240,-0.948337,-0.009522,-0.021117,0.005283,-11.099163,-14.003407,-23.926231,,,,,,,
1512180276.032427,-0.105205,0.305967,0.687137,-0.000706,-0.009141,-0.032807,-0.100134,-0.301215,-0.948283,-0.015329,-0.015389,0.040202,-11.100140,-14.228413,-23.851341,,,,,,,
1512180276.052446,-0.104904,0.306093,0.686334,-0.000662,-0.028360,-0.036070,-0.099844,-0.301335,-0.948276,0.001395,-0.027583,-0.003644,-11.175396,-14.303532,-23.700737,,,,,,,
1512180276.072435,-0.105041,0.306170,0.685608,0.001538,0.006902,-0.038045,-0.099971,-0.301409,-0.948239,-0.016331,-0.021024,0.031613,-11.175808,-14.378529,-23.850777,,,,,,,
1512180276.092424,-0.105339,0.306092,0.684783,-0.010265,-0.046532,-0.036271,-0.100257,-0.301335,-0.948232,-0.012582,-0.031749,-0.002940,-11.175442,-14.303532,-23.775749,,,,,,,
1512180276.112444,-0.105038,0.306255,0.683996,0.000549,0.010108,-0.043383,-0.099966,-0.301490,-0.948214,-0.026438,-0.020654,0.007555,-11.100842,-14.378407,-23.926414,,,,,,,
1512180276.132433,-0.105442,0.306348,0.683248,0.001422,-0.019818,-0.032812,-0.100346,-0.301578,-0.948145,-0.005107,-0.038159,0.024119,-11.403957,-15.053867,-24.074165,,,,,,,
1512180276.152422,-0.105517,0.306233,0.682347,-0.019773,-0.051876,-0.041758,-0.100421,-0.301469,-0.948172,-0.015714,-0.029403,-0.010354,-11.399868,-14.153858,-23.998756,,,,,,,
1512180276.172441,-0.105650,0.306499,0.681588,0.019800,0.038988,-0.045133,-0.100539,-0.301722,-0.948079,-0.034104,-0.014196,0.051137,-11.324841,-14.153751,-23.924400,,,,,,,
1512180276.192430,-0.105786,0.306476,0.680701,-0.022035,-0.085006,-0.035510,-0.100668,-0.301701,-0.948072,0.000998,-0.040356,-0.018984,-11.250439,-14.303638,-23.775108,,,,,,,
1512180276.212419,-0.106061,0.306504,0.679775,0.009201,0.028297,-0.049588,-0.100928,-0.301727,-0.948036,-0.030435,-0.017090,0.043358,-11.476223,-14.453983,-23.998268,,,,,,,
1512180276.232408,-0.106250,0.306615,0.678860,-0.003776,-0.055058,-0.042605,-0.101104,-0.301833,-0.947984,-0.013764,-0.031266,0.002137,-10.949841,-14.153187,-23.927574,,,,,,,
1512180276.252428,-0.106007,0.306838,0.677868,0.000706,0.011202,-0.051901,-0.100866,-0.302046,-0.947941,-0.019525,-0.026491,0.028325,-11.324764,-14.153751,-23.774406,,,,,,,
1512180276.272417,-0.106517,0.306772,0.676852,-0.007958,-0.034755,-0.045789,-0.101352,-0.301983,-0.947910,-0.019833,-0.026081,0.032657,-11.248638,-13.928638,-23.549919,,,,,,,
1512180276.292382,-0.106282,0.306861,0.675740,-0.007823,-0.021928,-0.054275,-0.101126,-0.302068,-0.947907,-0.023263,-0.029078,0.003128,-11.173489,-13.853519,-23.925529,,,,,,,
1512180276.312402,-0.106567,0.306977,0.674722,0.005000,-0.005881,-0.055099,-0.101393,-0.302178,-0.947843,-0.040132,-0.010490,0.022794,-11.399426,-14.078861,-23.773720,,,,,,,
1512180276.332391,-0.106381,0.307188,0.673606,-0.003686,-0.031547,-0.046785,-0.101210,-0.302379,-0.947798,-0.004854,-0.029774,0.015731,-11.175167,-14.228535,-23.925697,,,,,,,
1512180276.352379,-0.106639,0.307064,0.672407,-0.013044,-0.017650,-0.060732,-0.101459,-0.302261,-0.947810,-0.036847,-0.024308,0.019862,-11.548412,-13.854084,-23.772346,,,,,,,
1512180276.372399,-0.106542,0.307318,0.671230,0.013564,0.001612,-0.057081,-0.101358,-0.302504,-0.947743,-0.007834,-0.037004,0.029499,-11.474346,-14.078968,-23.623085,,,,,,,
1512180276.392388,-0.106659,0.307298,0.669972,-0.019436,-0.064655,-0.063120,-0.101469,-0.302485,-0.947737,-0.021227,-0.018179,0.003493,-11.173031,-13.778522,-23.700493,,,,,,,
1512180276.412377,-0.106577,0.307499,0.668749,0.012647,0.036875,-0.064435,-0.101386,-0.302676,-0.947685,-0.040933,-0.014234,0.057930,-10.948864,-13.928181,-24.002480,,,,,,,
1512180276.432366,-0.106637,0.307445,0.667367,-0.017434,-0.064670,-0.055630,-0.101444,-0.302624,-0.947695,0.000782,-0.041431,-0.002332,-11.323452,-13.853748,-23.849251,,,,,,,
1512180276.452386,-0.106545,0.307582,0.665990,0.003147,0.016578,-0.071039,-0.101352,-0.302755,-0.947663,-0.027356,-0.022852,0.029374,-11.173565,-13.853519,-24.075523,,,,,,,
1512180276.472375,-0.106900,0.307492,0.664597,-0.016189,-0.058231,-0.065180,-0.101692,-0.302669,-0.947654,-0.022698,-0.031162,0.003120,-11.548779,-13.929081,-23.847374,,,,,,,
1512180276.492364,-0.106479,0.307788,0.663195,0.011676,0.014457,-0.070921,-0.101283,-0.302951,-0.947608,-0.027486,-0.026532,0.018104,-11.174084,-14.003529,-23.775612,,,,,,,
1512180276.512383,-0.106696,0.307861,0.661834,-0.015138,-0.042214,-0.064046,-0.101487,-0.303021,-0.947564,-0.014663,-0.033298,0.022149,-10.795742,-13.252949,-23.853447,,,,,,,
1512180276.532372,-0.106829,0.307734,0.660325,-0.009761,-0.031517,-0.066061,-0.101617,-0.302900,-0.947589,-0.015189,-0.036303,0.001696,-10.948177,-13.778187,-24.002419,,,,,,,
1512180276.552361,-0.106703,0.308048,0.658903,0.009618,0.008058,-0.075235,-0.101488,-0.303199,-0.947507,-0.028151,-0.022164,0.026288,-11.172924,-13.703526,-24.150459,,,,,,,
1512180276.572381,-0.106977,0.308090,0.657442,-0.016167,-0.069980,-0.067354,-0.101745,-0.303239,-0.947466,-0.009125,-0.036177,-0.003934,-11.172695,-13.703526,-23.700462,,,,,,,
1512180276.592371,-0.106781,0.308164,0.655888,-0.007494,0.012286,-0.073344,-0.101557,-0.303309,-0.947464,-0.013754,-0.025472,0.030106,-11.019466,-12.953297,-24.001396,,,,,,,
1512180276.612360,-0.107501,0.308136,0.654355,-0.000062,-0.051784,-0.073454,-0.102240,-0.303283,-0.947399,-0.016427,-0.029587,0.010754,-10.947399,-13.628178,-23.777351,,,,,,,
1512180276.632378,-0.106822,0.308494,0.652794,-0.009575,-0.026159,-0.077770,-0.101585,-0.303624,-0.947360,-0.024208,-0.029719,-0.001340,-11.022472,-13.628300,-23.926704,,,,,,,
1512180276.652367,-0.107722,0.308347,0.651190,-0.004298,-0.027224,-0.074498,-0.102443,-0.303484,-0.947313,-0.019154,-0.033384,0.042512,-11.021343,-13.403294,-23.701591,,,,,,,
1512180276.672356,-0.107502,0.308587,0.649573,-0.004219,-0.042167,-0.079879,-0.102226,-0.303712,-0.947263,-0.019325,-0.026961,0.008130,-10.947918,-13.703190,-24.152382,,,,,,,
1512180276.692345,-0.107761,0.308595,0.648031,-0.012795,-0.027229,-0.075684,-0.102472,-0.303720,-0.947234,-0.030188,-0.021170,0.032287,-10.722164,-13.552845,-24.004219,,,,,,,
1512180276.712365,-0.108135,0.308527,0.646330,-0.006474,-0.036840,-0.071361,-0.102828,-0.303656,-0.947216,0.003265,-0.050714,0.021069,-10.646160,-13.327732,-24.004753,,,,,,,
1512180276.732354,-0.108151,0.308729,0.644711,-0.003021,-0.030400,-0.087283,-0.102837,-0.303848,-0.947154,-0.042015,-0.017350,0.016917,-10.721722,-13.477848,-23.779182,,,,,,,
1512180276.752343,-0.108244,0.308943,0.643134,-0.004287,-0.016541,-0.074460,-0.102918,-0.304052,-0.947079,-0.024035,-0.034037,0.042202,-11.246792,-13.478626,-23.924721,,,,,,,
1512180276.772362,-0.108714,0.308698,0.641367,-0.018133,-0.073170,-0.078056,-0.103371,-0.303819,-0.947105,-0.003791,-0.035827,-0.008126,-11.546764,-13.479084,-23.847176,,,,,,,
1512180276.792351,-0.108579,0.309056,0.639766,0.007594,0.003790,-0.082745,-0.103231,-0.304160,-0.947010,-0.032084,-0.021951,0.030568,-11.020519,-13.178288,-24.076500,,,,,,,
1512180276.812340,-0.109204,0.308960,0.638015,-0.018127,-0.062489,-0.078019,-0.103827,-0.304068,-0.946975,-0.007379,-0.036874,0.016768,-10.418575,-12.727390,-24.231392,,,,,,,
1512180276.832361,-0.109020,0.309008,0.636247,-0.011541,-0.020800,-0.087373,-0.103651,-0.304114,-0.946979,-0.010546,-0.014841,0.004566,-10.570599,-13.177616,-24.230324,,,,,,,
1512180276.852350,-0.109788,0.309046,0.634572,-0.004201,-0.052843,-0.080980,-0.104376,-0.304150,-0.946888,-0.022256,-0.038532,0.021305,-11.020748,-13.253300,-23.851524,,,,,,,
1512180276.872339,-0.109613,0.309016,0.632715,-0.025414,-0.041118,-0.087645,-0.104212,-0.304121,-0.946915,-0.011114,-0.033601,-0.000411,-10.945599,-13.178181,-24.227135,,,,,,,
1512180276.892328,-0.110416,0.308994,0.630985,0.005447,-0.032533,-0.083970,-0.104973,-0.304101,-0.946838,-0.016869,-0.009544,0.025756,-10.719433,-12.952839,-23.928932,,,,,,,
1512180276.912347,-0.110230,0.309282,0.629173,-0.007350,-0.045369,-0.084200,-0.104787,-0.304375,-0.946771,-0.024196,-0.036827,0.015298,-10.794765,-13.027958,-23.928337,,,,,,,
1512180276.932336,-0.110573,0.308901,0.627229,-0.037086,-0.047536,-0.091034,-0.105125,-0.304012,-0.946850,-0.017785,-0.024937,0.000637,-10.718914,-12.802845,-24.228874,,,,,,,
1512180276.952325,-0.111102,0.309392,0.625559,0.039637,-0.005764,-0.086577,-0.105609,-0.304480,-0.946646,-0.027814,-0.010660,0.033163,-10.795483,-13.177952,-24.003410,,,,,,,
1512180276.972344,-0.110546,0.309527,0.623699,-0.049999,-0.081753,-0.086012,-0.105079,-0.304608,-0.946663,-0.041574,-0.037997,-0.008232,-10.794582,-12.952946,-24.228310,,,,,,,
1512180276.992333,-0.111856,0.309220,0.621825,0.016181,0.000603,-0.086898,-0.106329,-0.304316,-0.946618,-0.007792,-0.023291,0.047066,-10.795666,-13.177952,-24.378410,,,,,,,
1512180277.012322,-0.111452,0.309748,0.620018,-0.007353,-0.093435,-0.086500,-0.105928,-0.304819,-0.946501,-0.010695,-0.013312,-0.028826,-10.945034,-13.028187,-24.452065,,,,,,,
1512180277.032342,-0.112143,0.309735,0.618158,-0.003922,0.005932,-0.095699,-0.106583,-0.304806,-0.946431,-0.040725,-0.014575,0.064641,-10.944622,-12.953175,-24.302025,,,,,,,
1512180277.052331,-0.112152,0.309844,0.616207,-0.010468,-0.082747,-0.090771,-0.106587,-0.304910,-0.946397,0.012090,-0.022238,-0.023955,-10.644772,-13.027729,-23.929604,,,,,,,
1512180277.072320,-0.112584,0.310208,0.614382,0.009859,-0.015421,-0.092377,-0.106984,-0.305257,-0.946241,-0.040416,-0.007228,0.038877,-10.721645,-13.402851,-24.304146,,,,,,,
1512180277.092340,-0.112766,0.310014,0.612249,-0.032809,-0.053936,-0.092060,-0.107163,-0.305072,-0.946280,-0.009842,-0.039243,-0.002542,-10.944546,-12.953175,-24.152031,,,,,,,
1512180277.112329,-0.113179,0.310200,0.610233,0.019656,-0.030332,-0.105078,-0.107548,-0.305249,-0.946179,-0.003750,-0.001422,-0.026614,-10.946682,-13.403187,-24.377235,,,,,,,
1512180277.132318,-0.113176,0.310710,0.608357,-0.015741,-0.051774,-0.092872,-0.107527,-0.305735,-0.946025,-0.031419,-0.009145,0.027095,-11.171764,-13.403522,-24.525322,,,,,,,
1512180277.152306,-0.114125,0.310071,0.606141,-0.026353,-0.065668,-0.096272,-0.108446,-0.305126,-0.946117,-0.014723,-0.015538,0.000636,-10.718502,-12.727848,-24.078835,,,,,,,
1512180277.172326,-0.113557,0.310736,0.604177,0.022839,0.018803,-0.101662,-0.107886,-0.305760,-0.945976,-0.004266,0.006764,0.028480,-10.718914,-12.802845,-24.228874,,,,,,,
1512180277.192315,-0.114471,0.310328,0.602044,-0.049917,-0.122328,-0.092547,-0.108766,-0.305371,-0.946001,-0.011718,-0.012591,0.000093,-10.793499,-12.727955,-24.078194,,,,,,,
1512180277.212304,-0.114444,0.310133,0.599830,-0.001517,0.008108,-0.111645,-0.108746,-0.305185,-0.946063,-0.052142,0.003260,0.011218,-10.794689,-12.952946,-24.453300,,,,,,,
1512180277.232323,-0.114462,0.310652,0.597884,0.008789,-0.032508,-0.092449,-0.108745,-0.305680,-0.945903,-0.012120,-0.015090,0.040905,-10.793911,-12.802952,-24.228233,,,,,,,
1512180277.252312,-0.114792,0.310165,0.595660,-0.062624,-0.095638,-0.096904,-0.109074,-0.305216,-0.946015,-0.028178,-0.029348,-0.001891,-10.943005,-12.578175,-24.451851,,,,,,,
1512180277.272301,-0.115689,0.309929,0.593536,0.015395,-0.007907,-0.103995,-0.109931,-0.304991,-0.945988,-0.034539,0.005248,0.021397,-10.867641,-12.503071,-24.377464,,,,,,,
1512180277.292312,-0.115082,0.310628,0.591524,0.003539,-0.052798,-0.097925,-0.109333,-0.305657,-0.945843,0.000797,-0.010399,0.015469,-10.717892,-12.577839,-24.228767,,,,,,,
1512180277.312301,-0.115666,0.310342,0.589306,-0.037883,-0.035758,-0.106996,-0.109895,-0.305385,-0.945866,-0.019073,-0.013967,0.060459,-10.718502,-12.727848,-24.078835,,,,,,,
1512180277.332290,-0.116260,0.310080,0.587006,-0.007031,-0.064556,-0.104517,-0.110466,-0.305134,-0.945880,-0.009590,-0.011333,-0.012448,-11.094585,-12.953403,-24.225761,,,,,,,
1512180277.352279,-0.115922,0.310684,0.584777,0.016594,-0.010028,-0.112515,-0.110125,-0.305710,-0.945734,-0.023557,0.001098,0.017649,-10.718609,-12.727848,-24.303841,,,,,,,
1512180277.372298,-0.116156,0.310603,0.582400,-0.033493,-0.057096,-0.115535,-0.110349,-0.305633,-0.945733,-0.032687,-0.010957,0.024056,-10.942226,-12.428165,-24.226784,,,,,,,
1512180277.392287,-0.116766,0.310440,0.580067,-0.004814,-0.066679,-0.109823,-0.110932,-0.305477,-0.945715,-0.025848,-0.007282,-0.034785,-10.416958,-12.352390,-24.381218,,,,,,,
1512180277.412276,-0.116606,0.310951,0.577780,0.002731,-0.015385,-0.111664,-0.110762,-0.305964,-0.945577,-0.026613,0.000865,0.019628,-11.092632,-12.503407,-24.375542,,,,,,,
1512180277.432296,-0.117426,0.310579,0.575324,-0.035714,-0.104108,-0.112533,-0.111551,-0.305610,-0.945599,-0.016699,-0.011132,-0.002628,-10.716702,-12.277836,-24.528633,,,,,,,
1512180277.452285,-0.117402,0.310866,0.572950,0.007098,-0.003621,-0.117959,-0.111518,-0.305883,-0.945515,-0.025536,0.002950,0.030781,-10.944592,-12.878178,-24.901985,,,,,,,
1512180277.472274,-0.117932,0.310780,0.570460,-0.028220,-0.074188,-0.113388,-0.112023,-0.305802,-0.945481,-0.014458,-0.009552,0.024812,-10.941662,-12.278172,-24.451714,,,,,,,
1512180277.492294,-0.117957,0.310668,0.567843,-0.020517,-0.038898,-0.125945,-0.112050,-0.305695,-0.945512,-0.026073,-0.008392,0.005418,-11.091579,-12.278400,-24.300438,,,,,,,
1512180277.512283,-0.118379,0.310798,0.565370,-0.001411,-0.039943,-0.120339,-0.112444,-0.305819,-0.945426,-0.042891,-0.005674,0.030875,-11.017330,-12.428288,-24.451149,,,,,,,
1512180277.532272,-0.118224,0.310869,0.562710,-0.024810,-0.064540,-0.125028,-0.112296,-0.305886,-0.945422,-0.031534,-0.009941,0.011813,-10.717403,-12.427830,-24.603691,,,,,,,
1512180277.552291,-0.118501,0.310842,0.560067,-0.005566,-0.011098,-0.125629,-0.112558,-0.305860,-0.945399,-0.020697,0.001447,0.036814,-10.791988,-12.352955,-24.453026,,,,,,,
1512180277.572280,-0.118891,0.310779,0.557396,-0.022738,-0.095519,-0.122974,-0.112929,-0.305801,-0.945374,-0.016603,-0.009446,-0.014801,-10.640636,-12.052723,-24.454155,,,,,,,
1512180277.592269,-0.118696,0.310852,0.554691,-0.014968,-0.006820,-0.137479,-0.112742,-0.305870,-0.945374,-0.053961,0.001946,0.024323,-10.639965,-11.902729,-24.454094,,,,,,,
1512180277.612258,-0.119285,0.310747,0.551994,-0.017311,-0.075208,-0.128157,-0.113302,-0.305770,-0.945339,-0.008417,-0.014405,0.000621,-10.490002,-11.902500,-24.530373,,,,,,,
1512180277.632278,-0.119286,0.310910,0.549246,-0.003378,-0.050609,-0.131066,-0.113298,-0.305925,-0.945289,-0.037032,-0.006957,0.005974,-10.715496,-11.977833,-24.828484,,,,,,,
1512180277.652267,-0.119131,0.310897,0.546433,-0.029985,-0.023941,-0.132424,-0.113152,-0.305912,-0.945311,-0.016639,-0.022197,0.049895,-10.641094,-12.127720,-24.679192,,,,,,,
1512180277.672256,-0.120101,0.310499,0.543522,-0.019249,-0.089068,-0.139957,-0.114083,-0.305534,-0.945321,-0.023399,-0.023629,-0.019873,-10.717556,-12.427830,-24.903694,,,,,,,
1512180277.692275,-0.119151,0.311112,0.540691,0.000044,0.014577,-0.141450,-0.113163,-0.306117,-0.945243,-0.052837,-0.029042,0.027564,-10.715755,-12.052830,-24.678520,,,,,,,
1512180277.712264,-0.120085,0.310565,0.537712,-0.041797,-0.117962,-0.131857,-0.114066,-0.305597,-0.945303,-0.018076,-0.035025,-0.018121,-10.714108,-11.677830,-24.753349,,,,,,,
1512180277.732253,-0.119483,0.311116,0.534842,0.014014,0.038107,-0.147564,-0.113476,-0.306122,-0.945204,-0.049656,-0.020798,0.046095,-10.339062,-11.677265,-24.681526,,,,,,,
1512180277.752273,-0.120023,0.310744,0.531824,-0.049215,-0.130786,-0.135207,-0.114001,-0.305767,-0.945256,-0.018934,-0.045124,-0.014049,-10.489819,-11.827488,-24.830330,,,,,,,
1512180277.772262,-0.119800,0.310918,0.528868,0.008616,0.014593,-0.144526,-0.113783,-0.305933,-0.945228,-0.031237,-0.015783,0.025474,-10.640301,-11.902729,-25.129082,,,,,,,
1512180277.792251,-0.119903,0.311010,0.525888,-0.036237,-0.067726,-0.143328,-0.113877,-0.306020,-0.945189,-0.030792,-0.036463,0.035628,-10.488201,-11.452488,-24.980156,,,,,,,
1512180277.812240,-0.120086,0.310732,0.522825,-0.016994,-0.048468,-0.146183,-0.114061,-0.305755,-0.945253,-0.035170,-0.026139,-0.000655,-10.336819,-11.152271,-24.906288,,,,,,,
1512180277.832259,-0.119497,0.311378,0.519939,0.010640,-0.006780,-0.139241,-0.113480,-0.306371,-0.945123,-0.017089,-0.026637,0.053094,-10.262493,-11.302158,-24.907005,,,,,,,
1512180277.852248,-0.120081,0.310869,0.516744,-0.063981,-0.108360,-0.143872,-0.114051,-0.305886,-0.945211,-0.019128,-0.033134,0.017096,-10.487835,-11.377491,-24.905128,,,,,,,
1512180277.872237,-0.119910,0.310935,0.513688,0.015121,0.018889,-0.150813,-0.113887,-0.305949,-0.945211,-0.055501,-0.006520,0.024831,-10.638210,-11.452717,-24.978874,,,,,,,
1512180277.892257,-0.119394,0.311358,0.510654,-0.018174,-0.074120,-0.140960,-0.113384,-0.306352,-0.945141,-0.009358,-0.024809,0.003796,-10.336407,-11.077259,-24.756264,,,,,,,
1512180277.912246,-0.119454,0.311050,0.507404,-0.030678,-0.027107,-0.155902,-0.113451,-0.306059,-0.945228,-0.060072,-0.007876,0.024299,-10.111858,-11.151936,-24.983208,,,,,,,
1512180277.932235,-0.118936,0.311412,0.504311,0.006584,-0.001417,-0.151006,-0.112949,-0.306403,-0.945176,-0.038754,-0.009729,0.032136,-10.337490,-11.302265,-24.906364,,,,,,,
1512180277.952255,-0.118587,0.311344,0.501087,-0.035116,-0.079469,-0.147618,-0.112622,-0.306338,-0.945236,-0.016452,-0.033033,-0.027878,-10.337124,-11.227268,-24.831322,,,,,,,
1512180277.972244,-0.118183,0.311295,0.497767,-0.015652,0.024195,-0.159771,-0.112241,-0.306292,-0.945297,-0.039004,-0.005445,0.033492,-9.961514,-11.076710,-24.984444,,,,,,,
1512180277.992233,-0.118075,0.311312,0.494525,-0.016894,-0.069820,-0.153720,-0.112139,-0.306308,-0.945304,-0.031904,-0.008252,-0.006097,-10.183102,-10.327030,-24.907188,,,,,,,
1512180278.012252,-0.117132,0.311448,0.491180,-0.020918,0.003905,-0.164180,-0.111242,-0.306437,-0.945368,-0.033732,-0.014745,0.006861,-9.959576,-10.626698,-25.134239,,,,,,,
1512180278.032241,-0.117101,0.311409,0.487779,-0.011398,-0.028131,-0.160954,-0.111214,-0.306400,-0.945383,-0.014167,-0.006299,0.032282,-10.034298,-10.551807,-25.283562,,,,,,,
1512180278.052230,-0.116516,0.311606,0.484427,-0.018889,-0.056988,-0.161165,-0.110654,-0.306588,-0.945388,-0.039019,0.018822,0.010497,-9.960323,-10.776707,-25.284309,,,,,,,
1512180278.072219,-0.115624,0.311840,0.480995,-0.004911,0.048793,-0.162725,-0.109802,-0.306810,-0.945415,-0.028488,-0.012327,0.063762,-10.033779,-10.476810,-24.908531,,,,,,,
1512180278.092239,-0.115496,0.311469,0.477425,-0.041307,-0.110429,-0.161675,-0.109695,-0.306457,-0.945542,-0.005372,-0.018891,-0.067031,-9.734188,-10.551365,-25.061104,,,,,,,
1512180278.112228,-0.114854,0.312182,0.474142,0.038900,0.055282,-0.168463,-0.109063,-0.307135,-0.945395,-0.057334,0.027839,0.034857,-10.036816,-11.151814,-24.908836,,,,,,,
1512180278.132217,-0.113650,0.312430,0.470658,-0.037026,-0.068764,-0.160401,-0.107916,-0.307372,-0.945450,0.003362,0.004363,-0.022598,-9.810238,-10.776478,-25.135582,,,,,,,
1512180278.152236,-0.113692,0.312361,0.467209,0.000423,-0.002471,-0.166026,-0.107957,-0.307306,-0.945466,-0.009581,-0.011145,-0.001372,-9.582500,-10.176136,-25.062218,,,,,,,
1512180278.172225,-0.112952,0.312812,0.463811,-0.015613,-0.021727,-0.164194,-0.107243,-0.307735,-0.945408,-0.029888,-0.006596,0.003865,-9.509640,-10.626026,-25.288063,,,,,,,
1512180278.192214,-0.112829,0.312604,0.460357,-0.006064,-0.067642,-0.163147,-0.107133,-0.307537,-0.945485,-0.006911,0.010708,-0.055583,-9.509228,-10.551029,-25.138023,,,,,,,
1512180278.212234,-0.111011,0.313612,0.457036,0.014282,0.085137,-0.161254,-0.105380,-0.308496,-0.945370,0.013522,-0.003546,0.071529,-9.357876,-10.250797,-25.139168,,,,,,,
1512180278.232223,-0.112154,0.312579,0.453490,-0.078733,-0.179927,-0.158195,-0.106495,-0.307513,-0.945565,-0.013515,-0.020535,-0.061973,-9.284191,-10.550694,-25.064934,,,,,,,
1512180278.252212,-0.110633,0.313179,0.450127,0.048558,0.125796,-0.169145,-0.105037,-0.308084,-0.945542,-0.008367,0.018793,0.045579,-9.358288,-10.325794,-25.289192,,,,,,,
1512180278.272201,-0.109712,0.313583,0.446842,-0.035085,-0.100830,-0.150892,-0.104152,-0.308469,-0.945514,0.008098,-0.015322,-0.003186,-9.432613,-10.175907,-25.288490,,,,,,,
1512180278.292207,-0.109727,0.312999,0.443359,-0.030479,-0.002515,-0.166473,-0.104186,-0.307914,-0.945692,-0.028626,0.018180,0.023496,-9.133923,-10.475468,-25.216179,,,,,,,
1512180278.312196,-0.108548,0.313521,0.440172,0.019381,0.002870,-0.151875,-0.103054,-0.308410,-0.945654,-0.002217,0.015564,0.007574,-9.433636,-10.400913,-25.288597,,,,,,,
1512180278.332185,-0.108128,0.313453,0.436824,-0.038191,-0.063443,-0.155073,-0.102659,-0.308345,-0.945718,0.005842,-0.013753,-0.001776,-9.283138,-10.325687,-24.989830,,,,,,,
1512180278.352205,-0.107747,0.313408,0.433537,0.004601,0.015685,-0.159505,-0.102300,-0.308303,-0.945771,-0.026743,0.019530,0.031907,-9.432461,-10.175907,-24.988487,,,,,,,
1512180278.372194,-0.106948,0.313715,0.430384,-0.014852,-0.062347,-0.147265,-0.101534,-0.308595,-0.945758,0.000414,0.005509,0.008457,-9.355846,-9.800800,-25.138954,,,,,,,
1512180278.392183,-0.106768,0.313470,0.427080,-0.029507,-0.001459,-0.161126,-0.101372,-0.308361,-0.945852,-0.026314,0.000088,0.024191,-9.356304,-9.875797,-25.363991,,,,,,,
1512180278.412202,-0.106291,0.313510,0.423859,-0.002048,-0.035626,-0.146988,-0.100920,-0.308400,-0.945888,0.001554,0.004628,-0.011113,-9.505932,-9.801014,-25.287682,,,,,,,
1512180278.432191,-0.105614,0.313810,0.420748,-0.011628,-0.035641,-0.148194,-0.100270,-0.308685,-0.945864,0.018772,-0.005356,0.001055,-9.131603,-9.950459,-25.290932,,,,,,,
1512180278.452180,-0.105661,0.313565,0.417544,-0.027504,-0.015355,-0.153682,-0.100322,-0.308452,-0.945934,-0.022969,-0.000554,0.023861,-9.132381,-10.100468,-25.515999,,,,,,,
1512180278.472200,-0.105087,0.313740,0.414355,0.000122,-0.037752,-0.149095,-0.099773,-0.308619,-0.945938,0.012447,-0.003668,-0.016495,-9.131634,-9.950459,-25.365929,,,,,,,
1512180278.492189,-0.104745,0.313793,0.411258,-0.026489,-0.040992,-0.151624,-0.099448,-0.308669,-0.945956,-0.014230,-0.007555,-0.014463,-9.129910,-9.575459,-25.290764,,,,,,,
1512180278.512178,-0.104333,0.313790,0.408105,-0.005261,0.006018,-0.144761,-0.099058,-0.308666,-0.945998,-0.006075,-0.033696,0.001509,-9.131298,-9.875462,-25.365898,,,,,,,
1512180278.532167,-0.104144,0.313894,0.405058,-0.006436,-0.071960,-0.140780,-0.098876,-0.308765,-0.945984,0.003051,-0.001767,-0.034362,-9.055965,-9.800343,-25.366508,,,,,,,
1512180278.552187,-0.103318,0.314420,0.402108,0.003369,0.035955,-0.148793,-0.098078,-0.309265,-0.945904,-0.025686,-0.001038,0.054257,-8.906033,-9.800129,-25.517784,,,,,,,
1512180278.572176,-0.103381,0.314056,0.399053,-0.036378,-0.092316,-0.137024,-0.098149,-0.308919,-0.946010,-0.011333,-0.044139,-0.016103,-8.980968,-9.800236,-25.367134,,,,,,,
1512180278.592165,-0.102884,0.314363,0.396213,0.010648,0.002834,-0.139208,-0.097670,-0.309210,-0.945964,-0.030703,-0.007272,-0.009816,-8.904018,-9.350117,-25.517570,,,,,,,
1512180278.612184,-0.102619,0.314669,0.393376,-0.010816,-0.019650,-0.132137,-0.097409,-0.309502,-0.945896,-0.015292,-0.019051,0.033451,-8.604046,-9.349674,-25.595116,,,,,,,
1512180278.632173,-0.102561,0.314406,0.390449,-0.023577,-0.069860,-0.135691,-0.097363,-0.309251,-0.945982,0.006176,-0.025923,-0.033342,-8.904049,-9.350117,-25.592567,,,,,,,
1512180278.652162,-0.102103,0.314997,0.387747,0.017085,0.021010,-0.140114,-0.096910,-0.309814,-0.945845,-0.023909,-0.009232,0.037184,-8.754131,-9.349903,-25.743843,,,,,,,
1512180278.672182,-0.102335,0.314716,0.384852,-0.039730,-0.114768,-0.128621,-0.097139,-0.309546,-0.945909,0.006257,-0.029809,-0.021971,-8.903973,-9.350117,-25.442574,,,,,,,
1512180278.692171,-0.101888,0.314913,0.381980,0.011746,0.042360,-0.139054,-0.096710,-0.309734,-0.945892,-0.004929,-0.028111,0.043594,-8.754086,-9.349903,-25.668846,,,,,,,
