timestamp(unix),attitude_roll(radians),attitude_pitch(radians),attitude_yaw(radians),rotation_rate_x(radians/s),rotation_rate_y(radians/s),rotation_rate_z(radians/s),gravity_x(G),gravity_y(G),gravity_z(G),user_acc_x(G),user_acc_y(G),user_acc_z(G),magnetic_field_x(microteslas),magnetic_field_y(microteslas),magnetic_field_z(microteslas),latitude(degree),longitude(degree),altitude(meter),speed(m/s),course(degree),timestamp(unix),User Mark
1512180642.207094,0.105680,-0.044779,0.612358,-0.000259,-0.001478,-0.000764,0.105378,0.044764,-0.993424,0.004852,0.020482,-0.008926,14.510778,-9.978922,7.826500,,,,,,,
1512180642.227083,0.105671,-0.044769,0.612339,-0.000243,0.000659,-0.001822,0.105369,0.044755,-0.993426,-0.016456,0.018463,0.013872,14.359243,-10.354151,8.127602,,,,,,,
1512180642.247103,0.105669,-0.044801,0.612346,-0.000288,-0.000418,0.000304,0.105366,0.044786,-0.993424,0.005107,0.021193,-0.009170,14.359472,-10.279154,7.902641,,,,,,,
1512180642.267092,0.105663,-0.044791,0.612339,-0.001319,0.001720,-0.001835,0.105361,0.044776,-0.993425,-0.016661,0.016732,0.011919,14.360479,-10.054148,7.902748,,,,,,,
1512180642.287081,0.105650,-0.044830,0.612338,-0.001340,0.000648,-0.000773,0.105347,0.044815,-0.993425,-0.002503,0.021392,-0.004652,14.356726,-10.879160,7.827370,,,,,,,
1512180642.307100,0.105657,-0.044840,0.612350,-0.002382,-0.000416,-0.001855,0.105354,0.044825,-0.993424,-0.011482,0.016942,0.008347,14.055716,-11.104609,7.829811,,,,,,,
1512180642.327089,0.105632,-0.044843,0.612340,0.001875,-0.000406,-0.000723,0.105329,0.044828,-0.993426,0.003634,0.019671,-0.006024,14.133490,-10.504496,7.979454,,,,,,,
1512180642.347078,0.105643,-0.044820,0.612338,0.000806,0.001727,-0.000732,0.105341,0.044805,-0.993426,-0.017160,0.018900,0.013614,14.057714,-10.654612,7.755013,,,,,,,
1512180642.367067,0.105635,-0.044864,0.612353,-0.000290,-0.003623,0.000299,0.105332,0.044849,-0.993425,0.007278,0.022092,-0.005232,14.283346,-10.504267,7.678185,,,,,,,
1512180642.387087,0.105642,-0.044841,0.612362,-0.000247,0.002792,-0.001809,0.105340,0.044826,-0.993425,-0.017357,0.017903,0.010698,14.506430,-10.953928,7.901054,,,,,,,
1512180642.407076,0.105634,-0.044843,0.612358,0.001855,-0.000417,-0.000725,0.105331,0.044827,-0.993426,0.005600,0.019671,-0.007215,14.359137,-10.354151,7.902596,,,,,,,
1512180642.427065,0.105634,-0.044837,0.612358,-0.000260,-0.001479,-0.000754,0.105331,0.044822,-0.993427,-0.013992,0.020348,0.013919,13.905600,-11.179834,8.281044,,,,,,,
1512180642.447084,0.105632,-0.044882,0.612352,-0.000261,-0.000411,-0.000750,0.105330,0.044867,-0.993425,0.001436,0.020853,-0.005812,14.137396,-9.679483,8.354836,,,,,,,
1512180642.467073,0.105627,-0.044871,0.612356,0.001856,-0.000409,0.000348,0.105325,0.044856,-0.993426,-0.011224,0.017156,0.009325,14.135550,-10.054499,8.054649,,,,,,,
1512180642.487062,0.105609,-0.044903,0.612365,-0.000297,-0.001484,0.001380,0.105306,0.044888,-0.993426,0.006251,0.017643,-0.000135,14.208151,-10.579386,7.978783,,,,,,,
1512180642.507082,0.105621,-0.044881,0.612369,-0.001335,0.000650,-0.000761,0.105318,0.044866,-0.993426,-0.016009,0.017848,0.019488,14.286383,-9.904261,8.353447,,,,,,,
1512180642.527071,0.105598,-0.044903,0.612388,0.001845,-0.001482,0.000345,0.105295,0.044888,-0.993427,0.009542,0.020603,-0.007381,14.284658,-10.279261,8.278282,,,,,,,
1512180642.547060,0.105604,-0.044898,0.612372,-0.001321,0.000651,-0.001826,0.105301,0.044883,-0.993427,-0.020295,0.016366,0.013813,14.134878,-10.204493,8.054588,,,,,,,
1512180642.567049,0.105574,-0.044917,0.612364,0.000802,-0.003614,-0.000740,0.105272,0.044901,-0.993429,0.010024,0.019109,-0.005915,14.436865,-9.754038,7.977242,,,,,,,
1512180642.587044,0.105569,-0.044942,0.612372,-0.003477,-0.000420,0.000277,0.105267,0.044927,-0.993429,-0.015438,0.015833,0.017782,14.435522,-10.054041,7.977104,,,,,,,
1512180642.607033,0.105552,-0.044981,0.612371,0.000801,-0.001480,-0.000730,0.105250,0.044966,-0.993429,0.001745,0.018556,-0.004588,14.360815,-9.979151,7.902779,,,,,,,
1512180642.627022,0.105579,-0.044974,0.612376,-0.000241,0.000668,-0.000731,0.105276,0.044959,-0.993426,-0.015097,0.017281,0.010974,14.359137,-10.354151,7.902596,,,,,,,
1512180642.647041,0.105566,-0.045003,0.612364,0.000813,-0.002538,-0.000728,0.105263,0.044988,-0.993426,0.006340,0.019023,-0.003308,14.134619,-10.279490,8.204552,,,,,,,
1512180642.667030,0.105582,-0.045003,0.612359,-0.001328,-0.000401,0.000317,0.105280,0.044987,-0.993424,-0.016947,0.015773,0.019456,14.358526,-10.504160,8.052528,,,,,,,
1512180642.687019,0.105554,-0.045028,0.612379,0.000800,-0.001458,0.001415,0.105251,0.045013,-0.993426,0.010822,0.020478,-0.009320,14.810705,-10.053476,8.348915,,,,,,,
1512180642.707039,0.105571,-0.045012,0.612373,0.000824,0.001752,0.000363,0.105268,0.044997,-0.993425,-0.019529,0.018693,0.014315,14.360998,-9.979151,8.277779,,,,,,,
1512180642.727028,0.105564,-0.045034,0.612371,0.000835,-0.001451,-0.000713,0.105261,0.045019,-0.993425,0.013895,0.018015,-0.003432,13.910254,-10.129831,8.131523,,,,,,,
1512180642.747017,0.105579,-0.045040,0.612351,-0.001285,0.001756,-0.000728,0.105276,0.045025,-0.993423,-0.013754,0.016468,0.018051,14.137579,-9.604486,8.054863,,,,,,,
1512180642.767006,0.105584,-0.045062,0.612349,0.001886,-0.001448,0.000374,0.105281,0.045047,-0.993422,0.006825,0.018964,-0.004030,14.435934,-9.979044,8.127144,,,,,,,
1512180642.787025,0.105601,-0.045060,0.612355,-0.001307,0.001752,0.000340,0.105298,0.045045,-0.993420,-0.015164,0.017196,0.014126,14.360891,-9.979151,8.052773,,,,,,,
1512180642.807014,0.105578,-0.045095,0.612333,0.001905,-0.004649,-0.000699,0.105275,0.045080,-0.993421,0.005107,0.015269,-0.002841,14.435675,-10.054041,8.277107,,,,,,,
1512180642.827003,0.105580,-0.045109,0.612335,-0.004494,-0.000390,-0.000777,0.105277,0.045094,-0.993420,-0.013068,0.016643,0.020977,14.434851,-10.204035,7.977043,,,,,,,
1512180642.847023,0.105573,-0.045136,0.612339,0.000845,-0.002512,-0.000702,0.105270,0.045121,-0.993420,0.008622,0.018173,-0.009602,14.360403,-10.129145,8.427711,,,,,,,
1512180642.867012,0.105569,-0.045125,0.612334,-0.001310,-0.000385,0.000340,0.105265,0.045110,-0.993420,-0.018885,0.017345,0.019910,14.435629,-10.054041,8.202110,,,,,,,
1512180642.887001,0.105540,-0.045147,0.612332,-0.000219,-0.000376,-0.000706,0.105237,0.045131,-0.993423,0.011767,0.016453,-0.006150,13.910101,-10.129831,7.831535,,,,,,,
1512180642.907020,0.105552,-0.045140,0.612333,-0.000242,0.000687,0.000364,0.105249,0.045125,-0.993421,-0.013788,0.016109,0.022184,14.135672,-10.054499,8.279655,,,,,,,
1512180642.927009,0.105546,-0.045140,0.612339,0.001891,-0.002511,0.000387,0.105243,0.045124,-0.993422,0.006161,0.017666,-0.005983,14.359655,-10.279154,8.277641,,,,,,,
1512180642.946998,0.105562,-0.045128,0.612335,-0.001309,0.001755,0.000357,0.105259,0.045113,-0.993421,-0.010777,0.018089,0.016385,14.135824,-9.979486,7.904686,,,,,,,
1512180642.966987,0.105534,-0.045144,0.612343,-0.000243,-0.001446,0.000364,0.105231,0.045128,-0.993423,0.009301,0.016685,-0.003266,13.985296,-10.129709,8.205894,,,,,,,
1512180642.987007,0.105541,-0.045154,0.612335,-0.002362,-0.000381,-0.000728,0.105238,0.045138,-0.993422,-0.015959,0.015851,0.021910,14.135214,-10.129496,8.054619,,,,,,,
1512180643.006996,0.105518,-0.045164,0.612348,0.001870,-0.003579,0.001458,0.105215,0.045149,-0.993424,0.015543,0.015475,-0.011932,14.436193,-9.904047,7.977180,,,,,,,
1512180643.026985,0.105551,-0.045137,0.612336,-0.000206,0.001765,-0.001750,0.105248,0.045122,-0.993422,-0.018197,0.019774,0.023588,14.285666,-10.054270,8.278374,,,,,,,
1512180643.047004,0.105550,-0.045149,0.612328,0.000843,-0.000370,-0.000673,0.105246,0.045133,-0.993421,0.014779,0.017199,-0.011706,14.434622,-10.279047,8.202003,,,,,,,
1512180643.066993,0.105577,-0.045180,0.612322,-0.003422,0.000691,-0.000730,0.105273,0.045165,-0.993417,-0.014575,0.017046,0.024606,14.062277,-9.679605,8.130455,,,,,,,
1512180643.086982,0.105603,-0.045186,0.612301,0.000820,0.000692,0.000399,0.105300,0.045170,-0.993414,0.006914,0.016658,-0.010858,14.362356,-9.679148,8.277916,,,,,,,
1512180643.107002,0.105613,-0.045192,0.612280,-0.002345,-0.002515,-0.001788,0.105310,0.045176,-0.993413,-0.000939,0.017537,0.022877,14.211264,-9.904383,8.129082,,,,,,,
1512180643.126991,0.105612,-0.045187,0.612263,0.002975,-0.003574,-0.000643,0.105308,0.045172,-0.993413,0.022179,0.014948,-0.005503,14.358984,-10.429163,8.277565,,,,,,,
1512180643.146980,0.105628,-0.045203,0.612243,-0.002406,-0.001455,0.002487,0.105324,0.045188,-0.993411,-0.019539,0.015542,0.026721,14.435064,-10.129038,7.752068,,,,,,,
1512180643.166969,0.105610,-0.045210,0.612222,0.000842,0.001757,-0.000651,0.105306,0.045195,-0.993412,0.011561,0.017382,-0.012493,14.359579,-10.279154,8.127632,,,,,,,
1512180643.186989,0.105608,-0.045232,0.612199,-0.002331,-0.000380,-0.001765,0.105304,0.045217,-0.993412,-0.015109,0.017726,0.025089,14.059164,-10.354609,7.980156,,,,,,,
1512180643.206978,0.105613,-0.045232,0.612189,0.000815,-0.000383,0.001483,0.105309,0.045216,-0.993411,0.013237,0.015895,-0.010755,13.986120,-9.904718,7.831001,,,,,,,
1512180643.226967,0.105628,-0.045237,0.612169,-0.002362,0.001750,0.000382,0.105324,0.045221,-0.993409,-0.017342,0.022100,0.026032,14.285101,-10.129267,7.828346,,,,,,,
1512180643.246986,0.105606,-0.045248,0.612155,0.000865,-0.001449,-0.001712,0.105302,0.045232,-0.993411,0.013290,0.017832,-0.014417,14.134054,-10.354502,7.754524,,,,,,,
1512180643.266975,0.105611,-0.045226,0.612146,-0.001280,-0.001454,-0.000673,0.105307,0.045211,-0.993412,-0.006750,0.019700,0.020587,14.510443,-10.053934,7.826469,,,,,,,
1512180643.286964,0.105594,-0.045242,0.612128,-0.000250,0.000678,0.001485,0.105290,0.045227,-0.993413,0.003750,0.015626,-0.010661,14.660559,-10.053705,8.050194,,,,,,,
1512180643.306953,0.105605,-0.045252,0.612118,-0.002345,0.001746,-0.000671,0.105301,0.045237,-0.993411,-0.009308,0.015738,0.029315,14.436087,-9.904047,7.752174,,,,,,,
1512180643.326973,0.105594,-0.045256,0.612129,0.001883,-0.001457,0.001515,0.105290,0.045241,-0.993412,0.012889,0.014910,-0.018566,14.507177,-10.728937,7.376167,,,,,,,
1512180643.346962,0.105599,-0.045277,0.612123,-0.004516,-0.000403,0.001427,0.105295,0.045262,-0.993410,-0.016855,0.016933,0.028460,14.886755,-9.753366,7.748421,,,,,,,
1512180643.366951,0.105592,-0.045276,0.612130,0.001875,-0.000396,0.001522,0.105288,0.045261,-0.993411,0.016462,0.012921,-0.012662,14.810003,-10.128473,7.598900,,,,,,,
1512180643.386970,0.105593,-0.045280,0.612133,-0.002389,-0.001471,0.001459,0.105289,0.045265,-0.993411,-0.013416,0.015709,0.027789,14.886084,-9.903360,7.748360,,,,,,,
1512180643.406959,0.105592,-0.045311,0.612134,0.000834,-0.000393,0.000447,0.105288,0.045296,-0.993410,0.009382,0.014351,-0.012526,14.883505,-10.503366,7.973076,,,,,,,
1512180643.426948,0.105591,-0.045311,0.612131,-0.002368,-0.002537,0.000395,0.105287,0.045296,-0.993410,-0.008470,0.018868,0.022508,14.807333,-10.803476,8.348579,,,,,,,
1512180643.446968,0.105564,-0.045316,0.612124,-0.000251,-0.000398,0.001502,0.105260,0.045300,-0.993412,0.005977,0.014087,-0.010875,14.810369,-10.128473,8.348885,,,,,,,
1512180643.466957,0.105522,-0.045340,0.612140,-0.004522,-0.004680,0.001426,0.105218,0.045324,-0.993416,-0.009012,0.016626,0.031029,14.659216,-10.353708,8.050056,,,,,,,
1512180643.486946,0.105521,-0.045361,0.612139,0.000832,0.001741,0.000462,0.105217,0.045345,-0.993415,0.011238,0.015782,-0.017373,14.883947,-10.428370,8.198112,,,,,,,
1512180643.506935,0.105516,-0.045371,0.612138,-0.003421,-0.000403,-0.000673,0.105212,0.045356,-0.993415,-0.016956,0.022943,0.024817,14.434652,-10.279047,8.277000,,,,,,,
1512180643.526954,0.105509,-0.045360,0.612134,0.001889,0.000678,0.001545,0.105205,0.045345,-0.993416,0.012898,0.013814,-0.013694,14.583838,-10.428827,7.975655,,,,,,,
1512180643.546943,0.105489,-0.045375,0.612139,-0.003421,-0.001462,0.000397,0.105185,0.045359,-0.993418,-0.011099,0.020025,0.025888,14.660223,-10.128702,8.050163,,,,,,,
1512180643.566932,0.105482,-0.045369,0.612141,0.000815,-0.001462,0.001523,0.105179,0.045353,-0.993419,0.004654,0.014538,-0.015279,14.583426,-10.503824,7.825630,,,,,,,
1512180643.586922,0.105466,-0.045378,0.612161,-0.003424,-0.002530,0.000395,0.105163,0.045362,-0.993420,-0.007155,0.021731,0.024731,14.733114,-10.578592,7.899315,,,,,,,
1512180643.606911,0.105444,-0.045373,0.612153,0.000833,0.000678,0.000467,0.105140,0.045357,-0.993422,0.002968,0.016472,-0.013352,14.583792,-10.428827,7.900658,,,,,,,
1512180643.626900,0.105443,-0.045356,0.612147,-0.000246,-0.000390,0.001516,0.105140,0.045341,-0.993423,-0.007453,0.018563,0.030090,14.433264,-10.579050,8.201866,,,,,,,
1512180643.646920,0.105447,-0.045329,0.612141,0.001914,-0.000378,0.000485,0.105144,0.045313,-0.993424,0.008687,0.013616,-0.021301,14.659887,-10.203699,8.050117,,,,,,,
1512180643.666909,0.105448,-0.045340,0.612134,-0.002347,-0.001448,0.000421,0.105144,0.045324,-0.993424,-0.012340,0.019068,0.030502,14.358160,-10.579157,7.977501,,,,,,,
1512180643.686898,0.105445,-0.045323,0.612125,0.001904,-0.000377,0.000484,0.105141,0.045307,-0.993425,0.010765,0.010433,-0.012984,14.208944,-10.429377,8.203850,,,,,,,
1512180643.706887,0.105435,-0.045333,0.612125,-0.002363,-0.000383,0.000422,0.105132,0.045317,-0.993425,-0.006667,0.019822,0.026689,14.433264,-10.579050,8.201866,,,,,,,
1512180643.726906,0.105430,-0.045325,0.612133,0.002979,0.000704,0.000507,0.105126,0.045309,-0.993426,0.008201,0.016306,-0.019834,14.509024,-10.428934,8.351295,,,,,,,
1512180643.746895,0.105408,-0.045346,0.612121,-0.003396,-0.001434,-0.000658,0.105105,0.045331,-0.993427,-0.001696,0.019824,0.022389,14.434240,-10.354044,8.126961,,,,,,,
1512180643.766884,0.105381,-0.045339,0.612117,0.002956,-0.000360,0.001567,0.105078,0.045323,-0.993431,0.003610,0.013850,-0.019906,14.584967,-10.203821,8.200768,,,,,,,
1512180643.786904,0.105366,-0.045361,0.612090,-0.002329,-0.004625,-0.000654,0.105063,0.045345,-0.993431,-0.001501,0.019550,0.027748,14.358450,-10.504160,7.902534,,,,,,,
1512180643.806893,0.105360,-0.045370,0.612088,0.000849,0.001787,0.000478,0.105057,0.045355,-0.993431,0.006622,0.017969,-0.024238,14.584692,-10.278818,8.350731,,,,,,,
1512180643.826882,0.105342,-0.045401,0.612105,-0.002342,-0.000344,0.000425,0.105038,0.045385,-0.993432,-0.011212,0.023890,0.026635,14.584173,-10.353815,7.975700,,,,,,,
1512180643.846901,0.105331,-0.045377,0.612111,0.001912,-0.001405,0.000480,0.105028,0.045361,-0.993434,0.004347,0.017703,-0.017217,14.357626,-10.729151,8.277428,,,,,,,
1512180643.866890,0.105317,-0.045403,0.612112,-0.001253,-0.004605,-0.001711,0.105014,0.045387,-0.993434,-0.000888,0.024162,0.022411,14.434546,-10.279047,8.051994,,,,,,,
1512180643.886879,0.105323,-0.045385,0.612119,0.000837,-0.000327,0.001533,0.105020,0.045370,-0.993435,-0.003732,0.020365,-0.013935,14.433233,-10.579050,8.126854,,,,,,,
1512180643.906868,0.105329,-0.045422,0.612131,-0.003425,0.003944,0.001483,0.105026,0.045406,-0.993432,-0.006927,0.024631,0.018655,14.434546,-10.279047,8.051994,,,,,,,
1512180643.926888,0.105341,-0.045442,0.612136,0.000858,0.000754,0.000467,0.105038,0.045426,-0.993430,-0.002544,0.013473,-0.012704,14.357962,-10.654154,8.277458,,,,,,,
1512180643.946877,0.105381,-0.045471,0.612120,-0.003392,0.002887,-0.000657,0.105077,0.045455,-0.993425,-0.000875,0.029221,0.017778,14.358603,-10.504160,8.202538,,,,,,,
1512180643.966866,0.105374,-0.045482,0.612108,0.000881,0.006106,-0.000584,0.105070,0.045466,-0.993425,-0.008757,0.018834,-0.023512,14.658575,-10.503702,8.124977,,,,,,,
1512180643.986885,0.105386,-0.045502,0.612075,-0.002319,-0.000304,-0.000653,0.105082,0.045487,-0.993423,-0.002986,0.028930,0.027496,14.204702,-11.329386,7.828438,,,,,,,
1512180644.006874,0.105390,-0.045511,0.612079,0.000872,-0.000299,-0.000609,0.105086,0.045495,-0.993422,-0.002745,0.017814,-0.019045,14.434286,-10.354044,8.201973,,,,,,,
1512180644.026863,0.105382,-0.045525,0.612057,-0.001272,-0.003502,0.000416,0.105078,0.045509,-0.993422,0.011270,0.025033,0.020155,14.433538,-10.504038,8.051903,,,,,,,
1512180644.046883,0.105406,-0.045504,0.612053,0.000830,0.001842,0.002597,0.105102,0.045488,-0.993421,0.001816,0.018065,-0.015323,14.133612,-10.504496,8.204445,,,,,,,
1512180644.066872,0.105372,-0.045517,0.612035,-0.001252,-0.001350,0.000428,0.105068,0.045501,-0.993424,0.001759,0.020630,0.021469,14.133200,-10.579493,8.054405,,,,,,,
1512180644.086861,0.105339,-0.045496,0.612026,0.003021,-0.001343,-0.000578,0.105036,0.045480,-0.993428,0.000936,0.008307,-0.016796,14.358603,-10.504160,8.202538,,,,,,,
1512180644.106850,0.105329,-0.045512,0.612025,-0.001265,-0.002420,0.000422,0.105025,0.045496,-0.993428,0.006410,0.021612,0.023244,14.132513,-10.729502,8.054344,,,,,,,
1512180644.126869,0.105324,-0.045511,0.612028,0.001913,0.001856,0.001548,0.105020,0.045495,-0.993429,-0.007791,0.011466,-0.019129,14.358648,-10.504160,8.277534,,,,,,,
1512180644.146858,0.105339,-0.045527,0.612022,-0.001274,-0.002412,0.001490,0.105036,0.045511,-0.993427,0.001562,0.015494,0.021213,14.883200,-10.578363,8.048042,,,,,,,
1512180644.166848,0.105356,-0.045512,0.612017,-0.000172,0.001868,-0.000612,0.105052,0.045496,-0.993425,-0.006251,0.009496,-0.010343,14.358419,-10.504160,7.827538,,,,,,,
1512180644.186867,0.105355,-0.045528,0.612000,-0.001257,-0.003474,0.000421,0.105051,0.045512,-0.993425,-0.001154,0.014760,0.022386,14.432516,-10.729044,8.051796,,,,,,,
1512180644.206856,0.105381,-0.045529,0.612002,0.000877,0.002939,0.000474,0.105077,0.045514,-0.993422,-0.006185,0.011691,-0.016420,14.433615,-10.504038,8.201897,,,,,,,
1512180644.226845,0.105402,-0.045550,0.611978,-0.002343,0.001862,0.001489,0.105097,0.045534,-0.993419,-0.006556,0.014006,0.021800,14.510931,-9.978922,8.126503,,,,,,,
1512180644.246834,0.105394,-0.045521,0.611950,0.003039,0.002946,-0.001627,0.105090,0.045505,-0.993421,-0.009433,0.010953,-0.012820,14.360220,-10.129145,8.052711,,,,,,,
1512180644.266854,0.105409,-0.045528,0.611943,-0.000199,-0.001336,0.000444,0.105105,0.045513,-0.993419,0.009138,0.014546,0.015483,14.583227,-10.578821,8.125587,,,,,,,
1512180644.286843,0.105396,-0.045504,0.611930,0.001923,0.000806,0.001551,0.105092,0.045488,-0.993422,-0.010014,0.013670,-0.022570,13.908300,-10.579828,8.281319,,,,,,,
1512180644.306832,0.105405,-0.045529,0.611925,-0.001261,-0.000266,0.000435,0.105101,0.045513,-0.993419,0.000444,0.020161,0.009746,14.132513,-10.729502,8.054344,,,,,,,
1512180644.326851,0.105413,-0.045498,0.611920,-0.000177,0.004018,0.000471,0.105109,0.045482,-0.993420,-0.000663,0.012196,-0.012928,14.055487,-11.179605,8.054771,,,,,,,
1512180644.346840,0.105404,-0.045522,0.611926,-0.002316,-0.003463,0.000415,0.105100,0.045506,-0.993420,-0.007017,0.021113,0.019375,14.360174,-10.129145,7.977715,,,,,,,
1512180644.366829,0.105399,-0.045522,0.611951,-0.000197,-0.004534,0.000440,0.105095,0.045506,-0.993420,0.013680,0.011211,-0.009784,14.359549,-10.279154,8.052635,,,,,,,
1512180644.386849,0.105404,-0.045557,0.611962,-0.001273,0.000805,0.001510,0.105100,0.045541,-0.993418,-0.000089,0.022070,0.012904,14.356512,-10.954157,8.052330,,,,,,,
1512180644.406838,0.105378,-0.045542,0.611975,0.001910,-0.001326,0.002616,0.105074,0.045526,-0.993422,-0.005908,0.016562,-0.019090,14.056875,-10.879602,8.129906,,,,,,,
1512180644.426827,0.105356,-0.045589,0.611972,-0.003355,-0.003464,-0.001733,0.105052,0.045573,-0.993422,0.005452,0.023000,0.020552,14.208456,-10.504374,7.903801,,,,,,,
1512180644.446816,0.105342,-0.045584,0.611991,-0.000205,-0.000259,0.001523,0.105038,0.045569,-0.993424,-0.001263,0.016763,-0.017074,14.208792,-10.429377,7.903847,,,,,,,
1512180644.466835,0.105331,-0.045616,0.611992,-0.001246,-0.001322,0.000441,0.105027,0.045600,-0.993423,-0.005265,0.025171,0.021118,14.134878,-10.204493,8.054588,,,,,,,
1512180644.486824,0.105321,-0.045608,0.611990,-0.000182,0.001883,0.000467,0.105017,0.045592,-0.993425,-0.006415,0.012574,-0.013991,14.508154,-10.578928,7.976234,,,,,,,
1512180644.506813,0.105310,-0.045644,0.611996,-0.003371,-0.001321,0.000412,0.105006,0.045628,-0.993424,0.006185,0.021236,0.023240,14.508200,-10.578928,8.051231,,,,,,,
1512180644.526833,0.105300,-0.045642,0.611999,-0.000216,-0.002391,0.002586,0.104996,0.045626,-0.993425,-0.007187,0.019605,-0.009611,14.657858,-10.653711,8.049919,,,,,,,
1512180644.546822,0.105308,-0.045648,0.611987,-0.001230,0.000818,-0.000616,0.105004,0.045633,-0.993424,-0.005624,0.021491,0.014527,14.134176,-10.354502,7.979515,,,,,,,
1512180644.566811,0.105298,-0.045635,0.611979,0.001970,0.000826,-0.000569,0.104994,0.045619,-0.993426,-0.015181,0.018635,-0.012906,14.359137,-10.354151,7.902596,,,,,,,
1512180644.586795,0.105308,-0.045658,0.611959,-0.001217,0.000828,-0.000612,0.105004,0.045643,-0.993424,0.010444,0.024655,0.015763,14.133535,-10.504496,8.054451,,,,,,,
1512180644.606784,0.105367,-0.045644,0.611961,0.004065,0.009377,0.002692,0.105063,0.045628,-0.993418,-0.012167,0.020122,-0.023824,14.282858,-10.654276,8.053108,,,,,,,
1512180644.626773,0.105404,-0.045649,0.611956,-0.003352,0.007232,-0.000624,0.105099,0.045633,-0.993414,-0.010738,0.030981,0.022986,14.432409,-10.729044,7.826790,,,,,,,
1512180644.646762,0.105364,-0.045615,0.611957,0.003039,-0.005572,-0.000575,0.105060,0.045599,-0.993420,-0.000141,0.016718,-0.012424,14.657629,-10.728708,8.274879,,,,,,,
1512180644.666782,0.105354,-0.045646,0.611959,-0.001259,-0.003446,0.001501,0.105050,0.045630,-0.993419,0.009345,0.028802,0.020870,14.359625,-10.279154,8.202644,,,,,,,
1512180644.686771,0.105385,-0.045650,0.611941,0.003061,0.008321,-0.000526,0.105081,0.045634,-0.993416,-0.014810,0.024770,-0.027015,14.733496,-10.503595,7.974358,,,,,,,
1512180644.706760,0.105346,-0.045674,0.611919,0.000924,-0.004498,-0.000602,0.105041,0.045658,-0.993419,0.013138,0.033199,0.011913,14.583273,-10.578821,8.200584,,,,,,,
1512180644.726780,0.105346,-0.045660,0.611919,0.000920,-0.000229,-0.000590,0.105042,0.045644,-0.993420,-0.000397,0.028391,-0.011204,13.983160,-10.579721,7.980690,,,,,,,
1512180644.746769,0.105332,-0.045698,0.611906,-0.000162,0.000836,0.000463,0.105027,0.045682,-0.993420,-0.006059,0.037325,0.008449,14.358084,-10.579157,7.827507,,,,,,,
1512180644.766758,0.105314,-0.045688,0.611894,0.005164,-0.003428,0.000525,0.105010,0.045672,-0.993422,0.007951,0.036466,-0.028597,14.283422,-10.504267,7.828178,,,,,,,
1512180644.786777,0.105343,-0.045686,0.611868,0.002014,-0.004489,-0.001653,0.105038,0.045670,-0.993419,0.005252,0.042480,0.001582,14.284094,-10.354273,7.828239,,,,,,,
1512180644.806766,0.105337,-0.045688,0.611843,0.000922,0.002986,0.000491,0.105032,0.045672,-0.993419,-0.009497,0.036389,-0.005726,14.132177,-10.804499,8.054314,,,,,,,
1512180644.826755,0.105308,-0.045716,0.611804,0.000932,-0.001285,-0.000591,0.105004,0.045700,-0.993421,-0.002190,0.041687,0.012663,13.908194,-10.579828,8.056328,,,,,,,
1512180644.846744,0.105320,-0.045698,0.611778,0.000945,-0.001283,-0.001657,0.105016,0.045682,-0.993421,-0.010518,0.031970,-0.001361,14.435110,-10.129038,7.827065,,,,,,,
1512180644.866764,0.105311,-0.045727,0.611737,-0.001160,-0.003412,-0.002756,0.105006,0.045711,-0.993420,-0.001490,0.042165,0.014142,14.509130,-10.353937,7.901329,,,,,,,
1512180644.886753,0.105321,-0.045708,0.611717,0.000962,-0.000201,-0.001646,0.105016,0.045692,-0.993420,-0.008748,0.034416,-0.005969,14.359426,-10.279154,7.827644,,,,,,,
1512180644.906742,0.105304,-0.045748,0.611680,-0.001150,-0.002334,-0.002747,0.104999,0.045732,-0.993420,-0.001224,0.040923,0.013165,14.359472,-10.279154,7.902641,,,,,,,
1512180644.926761,0.105301,-0.045720,0.611631,0.000980,0.001942,-0.002700,0.104997,0.045704,-0.993422,-0.007448,0.033931,-0.009600,14.359426,-10.279154,7.827644,,,,,,,
1512180644.946750,0.105305,-0.045750,0.611572,-0.000080,-0.001257,-0.002721,0.105001,0.045734,-0.993420,-0.000875,0.040936,0.006100,14.134130,-10.354502,7.904518,,,,,,,
1512180644.966739,0.105298,-0.045739,0.611521,-0.000093,-0.000194,-0.002716,0.104994,0.045723,-0.993421,-0.009306,0.030708,0.000349,14.357931,-10.579157,7.527504,,,,,,,
1512180644.986728,0.105292,-0.045790,0.611477,-0.000059,-0.001248,-0.003775,0.104988,0.045774,-0.993420,-0.002357,0.043094,0.007793,14.357779,-10.654154,7.902458,,,,,,,
1512180645.006748,0.105308,-0.045764,0.611423,0.002066,0.003025,-0.003725,0.105003,0.045748,-0.993419,-0.010231,0.032896,-0.003804,14.134466,-10.279490,7.904549,,,,,,,
1512180645.026737,0.105284,-0.045810,0.611365,-0.002195,-0.002317,-0.003795,0.104979,0.045794,-0.993419,-0.001555,0.038190,0.004391,14.133078,-10.579493,7.829414,,,,,,,
1512180645.046726,0.105288,-0.045795,0.611307,-0.000045,0.001962,-0.004806,0.104983,0.045779,-0.993420,-0.009967,0.025296,-0.003071,13.907888,-10.654825,8.131294,,,,,,,
1512180645.066745,0.105292,-0.045811,0.611247,0.002072,-0.002305,-0.003712,0.104987,0.045795,-0.993419,-0.001792,0.024533,0.003627,14.357779,-10.654154,7.902458,,,,,,,
1512180645.086734,0.105291,-0.045753,0.611198,0.003113,0.001964,-0.002606,0.104987,0.045737,-0.993421,-0.006064,0.019479,-0.003512,14.282064,-10.804270,7.828041,,,,,,,
1512180645.106723,0.105291,-0.045718,0.611153,0.004181,-0.000166,-0.002584,0.104987,0.045702,-0.993423,-0.001990,0.027312,0.000961,14.358084,-10.579157,7.827507,,,,,,,
1512180645.126743,0.105285,-0.045674,0.611109,0.000979,-0.000169,-0.002617,0.104981,0.045658,-0.993426,-0.011796,0.015866,0.005175,14.133078,-10.579493,7.829414,,,,,,,
1512180645.146732,0.105262,-0.045664,0.611038,0.002092,-0.002295,-0.005792,0.104958,0.045648,-0.993428,0.002692,0.020789,0.000295,13.983084,-10.579721,7.830696,,,,,,,
1512180645.166721,0.105268,-0.045628,0.611004,0.000955,0.000902,-0.001518,0.104965,0.045612,-0.993429,-0.002792,0.006924,-0.007852,14.133688,-10.429499,7.679497,,,,,,,
1512180645.186710,0.105245,-0.045600,0.610948,0.002040,-0.001231,-0.003628,0.104942,0.045585,-0.993433,-0.006370,0.014245,0.003794,14.281958,-10.804270,7.603050,,,,,,,
1512180645.206730,0.105249,-0.045562,0.610876,0.002027,0.000905,-0.003606,0.104945,0.045546,-0.993434,-0.004054,0.003084,-0.003727,14.132711,-10.654490,7.754387,,,,,,,
1512180645.226719,0.105260,-0.045543,0.610828,0.003068,0.000915,-0.001437,0.104956,0.045527,-0.993434,0.005426,0.002858,-0.003087,14.357748,-10.654154,7.827461,,,,,,,
1512180645.246708,0.105264,-0.045526,0.610780,-0.000147,0.001977,-0.001464,0.104961,0.045510,-0.993434,-0.005108,-0.001046,0.000148,14.432409,-10.729044,7.826790,,,,,,,
1512180645.266727,0.105253,-0.045536,0.610757,0.000901,-0.002295,-0.001446,0.104950,0.045520,-0.993435,0.000549,0.005795,-0.001942,14.357779,-10.654154,7.902458,,,,,,,
1512180645.286716,0.105265,-0.045475,0.610711,0.001991,0.004126,-0.002451,0.104962,0.045459,-0.993437,0.003970,-0.006595,-0.003130,14.282782,-10.654276,7.903099,,,,,,,
1512180645.306705,0.105196,-0.045500,0.610669,-0.004428,-0.001227,-0.002545,0.104893,0.045484,-0.993443,-0.014088,-0.005460,0.018513,13.980185,-11.179728,7.455421,,,,,,,
1512180645.326725,0.105164,-0.045465,0.610626,-0.000179,-0.000151,-0.002461,0.104862,0.045449,-0.993448,-0.001102,-0.009530,0.000696,14.430304,-11.179056,7.676598,,,,,,,
1512180645.346714,0.105117,-0.045499,0.610601,0.001918,-0.003346,-0.000286,0.104815,0.045484,-0.993451,0.003141,0.010470,-0.003589,14.057257,-10.729609,7.529991,,,,,,,
1512180645.366703,0.105085,-0.045458,0.610575,0.000858,-0.000138,-0.001336,0.104784,0.045442,-0.993456,-0.007570,-0.002687,-0.001585,14.058310,-10.504602,7.605095,,,,,,,
1512180645.386692,0.105047,-0.045460,0.610554,0.002955,-0.000136,-0.000221,0.104745,0.045444,-0.993460,-0.005838,0.013913,-0.002008,13.981283,-10.954721,7.605522,,,,,,,
1512180645.406711,0.105033,-0.045429,0.610540,0.001885,-0.000130,-0.000215,0.104731,0.045413,-0.993463,0.002111,0.002499,-0.009695,14.360067,-10.129145,7.752708,,,,,,,
1512180645.426700,0.105036,-0.045425,0.610546,-0.000291,-0.000132,0.001906,0.104734,0.045410,-0.993463,-0.010755,0.010026,0.002038,13.908453,-10.504831,7.906364,,,,,,,
1512180645.446689,0.105025,-0.045378,0.610532,0.001860,-0.002258,-0.000184,0.104724,0.045362,-0.993466,-0.000186,-0.005033,-0.002673,14.133413,-10.504496,7.829445,,,,,,,
1512180645.466709,0.105016,-0.045392,0.610529,-0.002419,-0.001195,-0.000225,0.104715,0.045376,-0.993467,-0.006402,0.008106,0.005765,13.832998,-10.579950,7.681969,,,,,,,
1512180645.486698,0.104991,-0.045361,0.610527,-0.000298,0.000957,0.000902,0.104691,0.045345,-0.993470,-0.004029,-0.002087,-0.004683,13.682516,-10.730173,8.058174,,,,,,,
1512180645.506687,0.104986,-0.045353,0.610518,-0.001345,-0.000106,-0.001232,0.104686,0.045337,-0.993471,-0.000743,0.008877,0.003908,13.608007,-10.580286,7.683876,,,,,,,
1512180645.526706,0.105000,-0.045284,0.610514,0.002885,0.002036,-0.000081,0.104700,0.045269,-0.993473,0.000997,-0.003734,0.000996,13.608984,-10.355280,7.608986,,,,,,,
1512180645.546695,0.105007,-0.045292,0.610512,-0.002468,0.002033,0.000925,0.104706,0.045276,-0.993472,-0.007691,0.006237,0.010867,13.682745,-10.655176,7.833199,,,,,,,
1512180645.566684,0.105009,-0.045283,0.610503,0.002876,-0.000090,-0.001123,0.104709,0.045268,-0.993472,0.003491,0.002386,-0.003583,13.909018,-10.354837,7.681435,,,,,,,
1512180645.586660,0.105011,-0.045287,0.610496,-0.000348,-0.001160,-0.000091,0.104711,0.045271,-0.993472,-0.005727,0.006730,0.009188,13.457251,-10.730509,7.535088,,,,,,,
1512180645.606680,0.105003,-0.045242,0.610480,0.002855,-0.001148,-0.001097,0.104703,0.045226,-0.993475,0.000750,0.000214,0.001257,13.681921,-10.805170,7.533134,,,,,,,
1512180645.626669,0.104984,-0.045266,0.610486,-0.001439,-0.001153,-0.000080,0.104684,0.045250,-0.993476,-0.000344,0.001396,0.009513,13.231543,-10.880854,7.461937,,,,,,,
1512180645.646658,0.104999,-0.045237,0.610487,0.001766,0.002062,-0.001076,0.104699,0.045222,-0.993475,-0.000573,0.000738,-0.007776,13.080145,-11.181086,7.388069,,,,,,,
1512180645.666677,0.104976,-0.045202,0.610499,0.000653,-0.000074,0.001044,0.104676,0.045187,-0.993479,-0.004410,0.000482,0.005076,13.007971,-10.581186,7.613991,,,,,,,
1512180645.686666,0.104959,-0.045185,0.610497,-0.000427,-0.000072,0.001037,0.104659,0.045170,-0.993482,-0.004012,0.000530,-0.002963,13.306585,-10.880732,7.536293,,,,,,,
1512180645.706655,0.104942,-0.045219,0.610511,-0.001499,-0.000066,0.001032,0.104642,0.045203,-0.993482,-0.004621,0.000710,0.005063,13.457556,-10.655512,7.460121,,,,,,,
1512180645.726675,0.104919,-0.045173,0.610522,0.003843,0.001021,0.000056,0.104620,0.045157,-0.993487,0.004893,-0.015540,-0.008436,13.080236,-11.106073,6.863106,,,,,,,
1512180645.746664,0.104893,-0.045125,0.610550,0.004887,0.009570,0.001172,0.104594,0.045110,-0.993491,-0.018946,-0.000920,0.005576,13.232031,-10.730844,7.086998,,,,,,,
1512180645.766653,0.104892,-0.045069,0.610561,0.003842,-0.004305,-0.001016,0.104593,0.045054,-0.993494,0.009451,-0.008586,-0.018087,13.381063,-10.955622,7.160622,,,,,,,
1512180645.786642,0.104886,-0.045074,0.610604,-0.001531,0.003163,0.001066,0.104588,0.045059,-0.993494,-0.005726,-0.008895,0.001887,13.458075,-10.505503,7.160194,,,,,,,
1512180645.806662,0.104888,-0.045036,0.610623,-0.001526,0.001034,-0.000006,0.104589,0.045021,-0.993496,-0.000357,-0.014717,0.001965,13.007025,-10.731180,7.088921,,,,,,,
1512180645.826651,0.104916,-0.045031,0.610660,-0.001531,0.003177,0.000002,0.104617,0.045016,-0.993493,-0.012652,-0.013750,0.007119,13.004553,-11.256189,6.863670,,,,,,,
1512180645.846640,0.104869,-0.044976,0.610688,0.001651,-0.002154,0.000028,0.104571,0.044961,-0.993501,0.002897,-0.023171,-0.002380,13.081839,-10.731073,6.713280,,,,,,,
1512180645.866659,0.104876,-0.044940,0.610733,0.000581,-0.000011,0.000018,0.104578,0.044925,-0.993501,-0.000665,-0.021701,0.007067,13.080084,-11.106073,6.563103,,,,,,,
1512180645.886648,0.104856,-0.044884,0.610771,0.003726,-0.000008,0.002190,0.104559,0.044869,-0.993506,-0.007086,-0.020653,-0.002283,13.380163,-11.105631,6.710548,,,,,,,
1512180645.906637,0.104822,-0.044851,0.610774,-0.000494,-0.002131,-0.000010,0.104525,0.044836,-0.993511,-0.007647,-0.025519,0.005260,13.603277,-11.480295,6.333473,,,,,,,
1512180645.926626,0.104803,-0.044789,0.610807,0.004827,0.000020,0.000069,0.104506,0.044774,-0.993516,0.007417,-0.020528,-0.006683,13.303473,-11.405741,6.036049,,,,,,,
1512180645.946646,0.104787,-0.044731,0.610829,0.002662,0.001086,0.001100,0.104491,0.044716,-0.993520,-0.013960,-0.036141,0.005880,13.903509,-11.404840,6.105949,,,,,,,
1512180645.966635,0.104776,-0.044682,0.610845,0.006908,0.000026,0.001149,0.104480,0.044667,-0.993523,-0.003009,-0.020680,-0.008292,13.602835,-11.480295,5.433479,,,,,,,
1512180645.986624,0.104755,-0.044639,0.610879,0.000509,-0.003178,0.001039,0.104460,0.044624,-0.993527,0.005175,-0.033089,0.000348,13.677267,-11.630182,5.657768,,,,,,,
1512180646.006643,0.104761,-0.044614,0.610920,0.003623,0.002162,0.005357,0.104466,0.044599,-0.993528,-0.010304,-0.026716,-0.008410,13.679480,-11.180185,6.032967,,,,,,,
1512180646.026632,0.104751,-0.044533,0.610950,0.001528,0.000039,0.003182,0.104455,0.044518,-0.993533,-0.006036,-0.041787,0.000399,13.676825,-11.705179,5.432732,,,,,,,
1512180646.046621,0.104742,-0.044490,0.611005,0.003628,0.000044,0.004267,0.104448,0.044475,-0.993535,-0.002122,-0.033443,-0.000010,14.275885,-11.929285,5.577538,,,,,,,
1512180646.066641,0.104760,-0.044393,0.611044,0.002577,-0.002088,0.002100,0.104466,0.044378,-0.993538,0.007488,-0.048956,0.008400,14.201101,-11.854395,5.353203,,,,,,,
1512180646.086630,0.104765,-0.044344,0.611087,0.001460,0.000044,0.004210,0.104470,0.044329,-0.993540,-0.012964,-0.040393,0.006143,14.425619,-11.929056,5.051262,,,,,,,
1512180646.106619,0.104782,-0.044208,0.611107,0.004666,0.002193,0.003186,0.104488,0.044194,-0.993544,-0.006145,-0.043187,0.005766,14.801931,-11.628489,4.973213,,,,,,,
1512180646.126608,0.104777,-0.044164,0.611139,-0.000656,-0.002085,0.000946,0.104483,0.044149,-0.993546,-0.006201,-0.039495,0.009919,15.251516,-11.702814,4.819344,,,,,,,
1512180646.146627,0.104782,-0.044070,0.611156,0.003584,-0.004213,0.000985,0.104489,0.044056,-0.993550,-0.001538,-0.045963,0.007298,15.100775,-11.853037,4.670555,,,,,,,
1512180646.166616,0.104790,-0.044052,0.611175,-0.000660,-0.003144,-0.001220,0.104497,0.044037,-0.993550,-0.005422,-0.046433,0.005543,15.400244,-11.927591,4.292961,,,,,,,
1512180646.186605,0.104806,-0.043956,0.611184,0.005701,0.002207,-0.000058,0.104513,0.043942,-0.993552,-0.008246,-0.038525,-0.002038,15.926596,-11.626810,4.288643,,,,,,,
1512180646.206625,0.104773,-0.043957,0.611181,-0.002810,-0.003130,-0.001275,0.104481,0.043943,-0.993556,-0.007114,-0.048291,0.006251,16.074987,-12.001581,4.437202,,,,,,,
1512180646.226614,0.104713,-0.043934,0.611157,0.003561,-0.002051,-0.001195,0.104421,0.043920,-0.993563,-0.004125,-0.044560,-0.009764,16.450247,-11.926020,4.284050,,,,,,,
1512180646.246603,0.104654,-0.043963,0.611125,-0.002850,-0.000987,-0.001297,0.104362,0.043949,-0.993568,-0.010856,-0.053867,-0.011590,16.525061,-11.925913,3.908409,,,,,,,
1512180646.266623,0.104598,-0.043922,0.611089,0.006734,0.000099,-0.002235,0.104307,0.043907,-0.993575,-0.008817,-0.057473,-0.014237,16.900183,-11.925348,4.130226,,,,,,,
1512180646.286612,0.104521,-0.043889,0.611042,0.001410,-0.000964,-0.003392,0.104230,0.043875,-0.993585,-0.016523,-0.060904,0.000741,17.124090,-12.150003,3.978203,,,,,,,
1512180646.306601,0.104491,-0.043830,0.610963,0.006710,0.001189,-0.002249,0.104200,0.043816,-0.993591,-0.012144,-0.041542,-0.013764,16.895605,-12.900354,3.754768,,,,,,,
1512180646.326590,0.104445,-0.043792,0.610903,-0.000751,0.000121,-0.003434,0.104155,0.043778,-0.993597,-0.002654,-0.040040,-0.009226,17.499273,-12.074442,3.675056,,,,,,,
1512180646.346609,0.104376,-0.043782,0.610823,0.001370,-0.003085,-0.003417,0.104086,0.043768,-0.993605,-0.009726,-0.024908,-0.005648,17.799353,-12.073999,3.822517,,,,,,,
1512180646.366598,0.104342,-0.043832,0.610717,-0.007142,-0.002029,-0.004604,0.104053,0.043818,-0.993606,-0.016559,-0.018916,0.012756,17.725363,-11.849100,3.823250,,,,,,,
1512180646.386587,0.104319,-0.043947,0.610601,-0.007103,0.002248,-0.006720,0.104029,0.043933,-0.993603,-0.016886,-0.007007,-0.012317,18.022177,-12.523661,3.520393,,,,,,,
1512180646.406607,0.104288,-0.044089,0.610417,-0.009182,0.000116,-0.009956,0.103998,0.044074,-0.993600,-0.009348,-0.011588,0.006540,18.397177,-12.523096,3.517204,,,,,,,
1512180646.426596,0.104269,-0.044254,0.610257,-0.004953,0.001186,-0.007758,0.103978,0.044240,-0.993595,-0.008916,-0.007329,-0.003918,18.476751,-11.547983,3.892006,,,,,,,
1512180646.446585,0.104245,-0.044428,0.610033,-0.010236,0.002249,-0.011031,0.103954,0.044414,-0.993590,-0.021816,-0.017803,0.012663,18.551306,-11.622873,3.666344,,,,,,,
1512180646.466604,0.104217,-0.044580,0.609795,-0.004868,0.001195,-0.013088,0.103925,0.044566,-0.993586,-0.017423,-0.022562,-0.001897,18.474020,-12.147989,3.816734,,,,,,,
1512180646.486593,0.104196,-0.044663,0.609552,-0.002749,0.000124,-0.013064,0.103904,0.044648,-0.993585,-0.025504,-0.035584,0.002832,18.776495,-11.622522,4.039436,,,,,,,
1512180646.506582,0.104165,-0.044690,0.609282,0.001562,-0.000926,-0.015134,0.103873,0.044675,-0.993587,-0.010504,-0.035825,-0.004002,18.775854,-11.772532,4.114357,,,,,,,
1512180646.526571,0.104155,-0.044662,0.609002,0.000515,0.001210,-0.016208,0.103863,0.044647,-0.993589,-0.018200,-0.044128,0.006345,18.851599,-11.622416,4.263786,,,,,,,
1512180646.546591,0.104140,-0.044585,0.608701,0.006909,0.001219,-0.016116,0.103849,0.044571,-0.993594,-0.024824,-0.040863,-0.005933,19.001348,-11.697199,4.412483,,,,,,,
1512180646.566580,0.104144,-0.044502,0.608363,0.003746,0.000150,-0.018297,0.103853,0.044487,-0.993597,-0.017198,-0.042504,0.005148,19.002737,-11.397196,4.487617,,,,,,,
1512180646.586548,0.104178,-0.044434,0.608036,0.006936,0.004430,-0.017168,0.103887,0.044419,-0.993597,-0.006902,-0.027970,-0.017558,19.150488,-11.921976,4.711098,,,,,,,
1512180646.606567,0.104196,-0.044408,0.607672,0.000551,0.002282,-0.018336,0.103905,0.044393,-0.993596,-0.018364,-0.029699,-0.002879,19.077536,-11.472086,4.786949,,,,,,,
1512180646.626556,0.104202,-0.044447,0.607252,-0.000487,0.001221,-0.019418,0.103911,0.044432,-0.993594,-0.013457,-0.018263,-0.005476,19.077963,-11.397074,4.936974,,,,,,,
1512180646.646545,0.104220,-0.044508,0.606820,-0.003669,0.001210,-0.021601,0.103928,0.044494,-0.993589,-0.020631,-0.024688,0.000486,18.849615,-12.147425,5.013542,,,,,,,
1512180646.666533,0.104170,-0.044616,0.606350,-0.003612,-0.000917,-0.024805,0.103878,0.044601,-0.993589,-0.013180,-0.012084,-0.005709,18.778173,-11.397532,5.389519,,,,,,,
1512180646.686553,0.104113,-0.044730,0.605846,-0.005712,-0.001986,-0.026972,0.103821,0.044715,-0.993590,-0.011414,-0.019065,0.009902,18.479376,-11.172983,5.767174,,,,,,,
1512180646.706542,0.104040,-0.044873,0.605314,-0.003562,-0.004115,-0.028013,0.103748,0.044858,-0.993591,-0.010974,-0.017239,0.001877,18.103857,-11.323542,6.070290,,,,,,,
1512180646.726532,0.103957,-0.045005,0.604706,-0.004569,-0.000904,-0.031214,0.103665,0.044989,-0.993594,-0.027371,-0.028632,0.012561,18.105352,-11.023539,6.370430,,,,,,,
1512180646.746551,0.103844,-0.045103,0.604083,-0.001355,-0.006237,-0.032251,0.103552,0.045088,-0.993602,-0.011724,-0.023329,0.000880,17.132071,-10.650003,6.453896,,,,,,,
1512180646.766540,0.103786,-0.045151,0.603403,0.000812,0.001245,-0.034327,0.103494,0.045136,-0.993605,-0.027444,-0.033906,0.012557,17.056890,-10.725107,6.754494,,,,,,,
1512180646.786529,0.103655,-0.045185,0.602662,0.005093,-0.000882,-0.035338,0.103364,0.045170,-0.993617,-0.041153,-0.027805,-0.006642,16.758245,-10.425562,6.757179,,,,,,,
1512180646.806549,0.103554,-0.045186,0.601891,0.001977,-0.008354,-0.040740,0.103264,0.045170,-0.993628,-0.025703,-0.036625,0.009924,16.082754,-10.576578,7.137840,,,,,,,
1512180646.826538,0.103506,-0.045153,0.601086,0.008412,-0.000862,-0.042753,0.103216,0.045138,-0.993634,-0.018056,-0.025057,-0.009173,16.232412,-10.651346,7.136528,,,,,,,
1512180646.846527,0.103440,-0.045127,0.600223,0.002001,0.001262,-0.041772,0.103150,0.045112,-0.993642,-0.047440,-0.042915,0.003972,15.482702,-10.577478,7.067955,,,,,,,
1512180646.866516,0.103392,-0.045113,0.599303,0.006351,0.007692,-0.045948,0.103103,0.045098,-0.993648,-0.028137,-0.021111,-0.012975,15.333197,-10.502695,7.369255,,,,,,,
1512180646.886536,0.103346,-0.045143,0.598342,0.003186,0.009826,-0.048120,0.103057,0.045127,-0.993651,-0.027084,-0.028221,-0.013932,15.108236,-10.503031,7.446175,,,,,,,
1512180646.906525,0.103296,-0.045186,0.597324,0.003234,0.008762,-0.051322,0.103007,0.045170,-0.993654,-0.034846,-0.014607,-0.014524,14.883505,-10.428370,7.298119,,,,,,,
1512180646.926514,0.103291,-0.045241,0.596233,0.003309,0.001291,-0.056679,0.103002,0.045226,-0.993652,-0.028433,-0.022246,-0.002747,14.657934,-10.578714,7.524956,,,,,,,
1512180646.946532,0.103284,-0.045343,0.595107,0.001196,0.004494,-0.057765,0.102995,0.045328,-0.993649,-0.027082,-0.013788,-0.011478,14.509329,-10.278925,7.601372,,,,,,,
1512180646.966522,0.103223,-0.045449,0.593902,0.001269,-0.001903,-0.062048,0.102933,0.045434,-0.993650,-0.024945,-0.031731,-0.002703,13.902670,-11.629847,6.480858,,,,,,,
1512180646.986511,0.103192,-0.045538,0.592631,0.002381,0.006651,-0.064133,0.102902,0.045523,-0.993649,-0.033017,-0.019873,0.000836,14.282217,-10.654276,6.778114,,,,,,,
1512180647.006531,0.103085,-0.045595,0.591270,0.002408,0.003448,-0.066278,0.102795,0.045580,-0.993658,-0.072842,-0.034593,-0.001521,14.059210,-10.279612,7.380196,,,,,,,
1512180647.026520,0.102979,-0.045657,0.589879,0.004707,-0.006142,-0.076939,0.102690,0.045641,-0.993666,-0.007567,-0.030733,0.008055,13.757513,-10.655054,7.382576,,,,,,,
1512180647.046509,0.102911,-0.045683,0.588426,0.005792,0.002405,-0.077961,0.102622,0.045667,-0.993672,-0.030463,-0.037335,-0.003765,13.684210,-10.280176,7.383385,,,,,,,
1512180647.066498,0.102840,-0.045713,0.586899,0.007893,0.004542,-0.075790,0.102551,0.045697,-0.993677,-0.042386,-0.031278,-0.000524,13.456244,-10.955515,7.534981,,,,,,,
1512180647.086517,0.102806,-0.045716,0.585330,0.004776,0.005618,-0.080093,0.102518,0.045700,-0.993681,-0.039331,-0.037887,0.009260,13.834234,-10.279947,7.457115,,,,,,,
1512180647.106506,0.102814,-0.045753,0.583739,0.009071,0.005628,-0.082164,0.102525,0.045737,-0.993678,-0.022218,-0.030051,-0.010930,13.910849,-9.904825,7.306648,,,,,,,
1512180647.126495,0.102882,-0.045810,0.582146,0.002636,0.006679,-0.080123,0.102593,0.045794,-0.993669,-0.023980,-0.036745,0.004869,13.684057,-10.280176,7.083382,,,,,,,
1512180647.146515,0.102936,-0.045873,0.580507,0.005822,0.008820,-0.079002,0.102646,0.045856,-0.993660,-0.035447,-0.026508,-0.014305,13.910070,-10.054834,7.081581,,,,,,,
1512180647.166504,0.102995,-0.045963,0.578841,0.000559,0.007751,-0.083347,0.102704,0.045946,-0.993650,-0.043088,-0.031786,0.003095,13.909430,-10.204828,7.156502,,,,,,,
1512180647.186493,0.103054,-0.046097,0.577195,0.001639,0.004549,-0.084409,0.102762,0.046080,-0.993638,-0.008036,-0.027983,0.002671,13.532171,-10.730402,7.384453,,,,,,,
1512180647.206511,0.103154,-0.046232,0.575510,0.001653,0.010963,-0.084384,0.102861,0.046215,-0.993621,-0.024721,-0.026913,0.002624,13.684546,-10.205164,7.383415,,,,,,,
1512180647.226501,0.103214,-0.046367,0.573784,0.002766,0.010969,-0.087567,0.102920,0.046351,-0.993609,-0.030182,-0.018473,-0.010602,13.685110,-10.055170,7.158485,,,,,,,
1512180647.246490,0.103283,-0.046484,0.572019,0.002802,0.005634,-0.089716,0.102988,0.046467,-0.993597,-0.013877,-0.030568,0.003011,13.834097,-10.279947,7.157112,,,,,,,
1512180647.266479,0.103306,-0.046563,0.570218,0.006009,0.005637,-0.090738,0.103011,0.046547,-0.993591,-0.015288,-0.021370,-0.002106,13.609503,-10.205286,7.309059,,,,,,,
1512180647.286499,0.103312,-0.046668,0.568363,0.003927,0.004571,-0.093971,0.103016,0.046651,-0.993585,-0.026600,-0.023198,0.004526,13.684210,-10.280176,7.383385,,,,,,,
1512180647.306488,0.103320,-0.046718,0.566489,0.008219,0.002449,-0.094979,0.103023,0.046701,-0.993582,-0.014080,-0.021753,-0.002100,13.605978,-10.955286,7.008705,,,,,,,
1512180647.326477,0.103339,-0.046762,0.564579,0.007166,0.005651,-0.096051,0.103042,0.046745,-0.993578,-0.033187,-0.015236,0.002718,13.533087,-10.505396,7.159554,,,,,,,
1512180647.346497,0.103349,-0.046832,0.562651,0.007180,0.003516,-0.097124,0.103052,0.046815,-0.993574,-0.010477,-0.017000,-0.000582,13.459097,-10.280512,7.160301,,,,,,,
1512180647.366486,0.103354,-0.046873,0.560691,0.006135,0.005653,-0.098198,0.103056,0.046856,-0.993571,-0.037108,-0.020977,0.002879,13.532660,-10.580393,7.009514,,,,,,,
1512180647.386475,0.103331,-0.046918,0.558684,0.008320,0.001392,-0.101378,0.103034,0.046901,-0.993572,-0.019446,-0.013179,-0.003407,13.609426,-10.205286,7.159050,,,,,,,
1512180647.406494,0.103348,-0.046973,0.556695,0.005098,0.004585,-0.100350,0.103050,0.046955,-0.993567,-0.022606,-0.021321,0.011878,13.534201,-10.205393,6.709694,,,,,,,
1512180647.426483,0.103339,-0.047066,0.554654,0.008319,0.005663,-0.101364,0.103041,0.047048,-0.993564,-0.029158,-0.018453,-0.005521,13.910299,-9.979837,6.856606,,,,,,,
1512180647.446472,0.103292,-0.047154,0.552581,0.005144,0.001392,-0.102489,0.102994,0.047136,-0.993564,-0.031903,-0.022218,0.001499,13.910666,-9.904825,6.931648,,,,,,,
1512180647.466460,0.103216,-0.047246,0.550480,0.007344,0.000334,-0.106726,0.102918,0.047229,-0.993568,-0.015332,-0.018359,-0.009438,13.833609,-10.354944,6.857079,,,,,,,
1512180647.486480,0.103112,-0.047331,0.548323,0.005191,0.001395,-0.105688,0.102815,0.047313,-0.993575,-0.039506,-0.025570,0.000655,13.683905,-10.280176,6.783379,,,,,,,
1512180647.506469,0.102957,-0.047441,0.546132,0.008449,-0.001800,-0.109918,0.102659,0.047423,-0.993585,-0.019270,-0.010756,-0.005819,13.756887,-10.730066,6.782539,,,,,,,
1512180647.526459,0.102850,-0.047541,0.543910,0.006362,0.001409,-0.112068,0.102553,0.047523,-0.993592,-0.017897,-0.028663,-0.008255,13.910559,-9.904825,6.706642,,,,,,,
1512180647.546478,0.102757,-0.047642,0.541624,0.010643,0.004621,-0.113061,0.102460,0.047624,-0.993596,-0.035336,-0.008272,-0.010935,13.835516,-9.904947,6.632286,,,,,,,
1512180647.566467,0.102642,-0.047736,0.539283,0.004311,0.001413,-0.117430,0.102346,0.047718,-0.993604,-0.027227,-0.026722,0.009381,13.760824,-9.830057,6.557961,,,,,,,
1512180647.586426,0.102537,-0.047900,0.536964,0.006436,0.000345,-0.117404,0.102240,0.047881,-0.993607,-0.012030,-0.012923,-0.005691,14.060888,-9.829599,6.705406,,,,,,,
1512180647.606415,0.102460,-0.048027,0.534594,0.004302,0.007822,-0.116340,0.102163,0.048009,-0.993608,-0.034811,-0.027699,-0.008512,13.985785,-9.829721,6.481041,,,,,,,
1512180647.626435,0.102388,-0.048188,0.532175,0.006487,0.005696,-0.119513,0.102091,0.048169,-0.993608,-0.036356,-0.014707,0.000734,13.760748,-9.830057,6.407951,,,,,,,
1512180647.646423,0.102375,-0.048351,0.529760,0.003317,0.006759,-0.121690,0.102077,0.048332,-0.993602,-0.033458,-0.030006,0.004405,14.135824,-9.829493,6.554771,,,,,,,
1512180647.666412,0.102371,-0.048546,0.527310,0.005489,0.006769,-0.123789,0.102072,0.048527,-0.993593,-0.030631,-0.014317,-0.005767,14.286413,-9.679270,6.403557,,,,,,,
1512180647.686431,0.102403,-0.048723,0.524844,0.001211,0.007830,-0.122781,0.102103,0.048704,-0.993581,-0.039344,-0.021116,0.003819,14.135336,-9.904490,6.254723,,,,,,,
1512180647.706420,0.102445,-0.048933,0.522337,0.003412,0.011045,-0.127003,0.102143,0.048914,-0.993566,-0.036790,-0.014948,-0.006617,13.911047,-9.754831,6.331718,,,,,,,
1512180647.726409,0.102461,-0.049095,0.519804,0.003432,0.005710,-0.128086,0.102159,0.049075,-0.993557,-0.015703,-0.028537,0.001476,14.059912,-9.979609,6.105339,,,,,,,
1512180647.746429,0.102465,-0.049321,0.517235,0.003417,0.006769,-0.128086,0.102162,0.049301,-0.993545,-0.038273,-0.022216,0.010132,13.909323,-10.129831,6.256538,,,,,,,
1512180647.766418,0.102494,-0.049469,0.514621,0.004536,0.009988,-0.130187,0.102189,0.049449,-0.993535,-0.038148,-0.022579,0.000142,13.911413,-9.679834,6.406746,,,,,,,
1512180647.786407,0.102567,-0.049669,0.511979,0.002468,0.012125,-0.134476,0.102261,0.049649,-0.993518,-0.027463,-0.017880,-0.002378,14.361425,-9.679148,6.402916,,,,,,,
1512180647.806396,0.102660,-0.049777,0.509330,0.005619,0.008916,-0.132312,0.102352,0.049757,-0.993503,-0.022961,-0.033124,0.001315,14.437094,-9.529047,6.402351,,,,,,,
1512180647.826416,0.102750,-0.049966,0.506618,0.001423,0.011060,-0.135560,0.102441,0.049945,-0.993484,-0.040796,-0.018970,0.013458,14.137548,-9.454493,6.629936,,,,,,,
1512180647.846405,0.102810,-0.050088,0.503879,0.007848,0.008935,-0.137607,0.102500,0.050067,-0.993472,-0.022910,-0.022174,-0.012830,14.212805,-9.379374,6.479347,,,,,,,
1512180647.866395,0.102806,-0.050259,0.501148,0.008940,0.005733,-0.139736,0.102495,0.050237,-0.993464,-0.007983,-0.009878,-0.015996,14.588476,-9.228815,6.476219,,,,,,,
1512180647.886414,0.102783,-0.050341,0.498369,0.009954,0.006797,-0.136520,0.102472,0.050319,-0.993462,-0.029307,-0.029522,-0.006370,14.362616,-9.454157,6.778023,,,,,,,
1512180647.906402,0.102702,-0.050495,0.495562,0.006791,0.004660,-0.138705,0.102391,0.050474,-0.993463,-0.038686,-0.017271,0.005914,14.515356,-8.853922,6.852028,,,,,,,
1512180647.926391,0.102691,-0.050571,0.492749,0.010024,0.007873,-0.140779,0.102380,0.050550,-0.993460,-0.014718,-0.022657,-0.014169,14.438177,-9.304041,6.552452,,,,,,,
1512180647.946411,0.102651,-0.050680,0.489939,0.005785,0.002533,-0.141923,0.102340,0.050658,-0.993459,-0.018050,-0.015517,0.014287,14.664602,-9.003702,6.700691,,,,,,,
1512180647.966400,0.102653,-0.050722,0.487127,0.011105,0.004679,-0.140770,0.102341,0.050701,-0.993456,-0.024948,-0.024074,0.003436,14.440664,-8.779032,6.777702,,,,,,,
1512180647.986389,0.102676,-0.050776,0.484307,0.008967,0.008944,-0.140789,0.102364,0.050755,-0.993451,-0.037834,-0.017094,0.015912,14.441595,-8.554041,6.627800,,,,,,,
1512180648.006378,0.102700,-0.050808,0.481457,0.013249,0.008953,-0.141793,0.102387,0.050786,-0.993447,-0.028107,-0.020742,0.000222,14.889944,-8.928370,6.698814,,,,,,,
1512180648.026397,0.102771,-0.050871,0.478622,0.010043,0.011079,-0.141834,0.102458,0.050850,-0.993437,-0.037349,-0.014488,0.009077,14.589651,-9.003809,6.776314,,,,,,,
1512180648.046386,0.102771,-0.050872,0.475770,0.015387,0.007892,-0.141763,0.102458,0.050850,-0.993437,-0.022349,-0.013191,-0.014788,14.663595,-9.228708,6.700584,,,,,,,
1512180648.066375,0.102639,-0.050890,0.472881,0.015420,-0.000654,-0.144994,0.102326,0.050868,-0.993449,-0.021576,-0.018108,-0.008443,14.510489,-9.903925,6.551552,,,,,,,
1512180648.086396,0.102484,-0.050834,0.469943,0.018635,0.000420,-0.146010,0.102173,0.050812,-0.993468,-0.029434,-0.029328,0.005568,14.816153,-8.703470,7.074547,,,,,,,
1512180648.106385,0.102383,-0.050808,0.466954,0.013366,0.003626,-0.149272,0.102072,0.050786,-0.993480,-0.039771,-0.015142,0.002269,14.742834,-8.328577,7.075356,,,,,,,
1512180648.126374,0.102356,-0.050743,0.463946,0.020886,0.008986,-0.152342,0.102046,0.050721,-0.993486,-0.012950,-0.008912,-0.012892,14.816412,-8.628473,6.924583,,,,,,,
1512180648.146392,0.102338,-0.050711,0.460936,0.014419,0.006831,-0.148179,0.102028,0.050689,-0.993489,-0.037652,-0.003830,0.009389,14.741064,-8.703592,6.925194,,,,,,,
1512180648.166381,0.102315,-0.050651,0.457945,0.019715,0.008971,-0.145963,0.102006,0.050629,-0.993495,-0.028566,-0.005677,-0.009710,14.590658,-8.778818,6.776421,,,,,,,
1512180648.186370,0.102388,-0.050625,0.454941,0.016557,0.016448,-0.148115,0.102079,0.050603,-0.993488,-0.048154,-0.009771,-0.023678,14.815695,-8.778467,6.849510,,,,,,,
1512180648.206359,0.102605,-0.050602,0.452006,0.016546,0.020720,-0.147033,0.102294,0.050581,-0.993467,-0.019210,-0.009244,-0.017870,14.968206,-8.253244,7.148476,,,,,,,
1512180648.226379,0.102854,-0.050626,0.449093,0.013278,0.020706,-0.142817,0.102541,0.050605,-0.993441,-0.040224,-0.005683,0.000780,14.818548,-8.178476,7.149788,,,,,,,
1512180648.246368,0.103198,-0.050674,0.446187,0.013317,0.028187,-0.144923,0.102882,0.050653,-0.993403,-0.045418,-0.008172,-0.000555,14.968924,-8.103251,7.223549,,,,,,,
1512180648.266357,0.103653,-0.050689,0.443320,0.013315,0.031397,-0.143842,0.103335,0.050667,-0.993355,-0.044054,-0.013329,0.007699,14.894186,-8.028360,7.074226,,,,,,,
1512180648.286376,0.104141,-0.050696,0.440449,0.016517,0.030329,-0.144869,0.103819,0.050674,-0.993304,-0.013503,-0.005936,-0.013043,14.892538,-8.403360,7.149055,,,,,,,
1512180648.306365,0.104601,-0.050749,0.437565,0.009038,0.031383,-0.143907,0.104276,0.050727,-0.993254,-0.043332,-0.001197,0.010557,15.042425,-8.403131,6.922768,,,,,,,
1512180648.326355,0.104980,-0.050805,0.434600,0.013351,0.027123,-0.147058,0.104652,0.050783,-0.993211,-0.026146,0.002714,-0.007216,15.344107,-8.027674,6.920403,,,,,,,
1512180648.346375,0.105357,-0.050871,0.431578,0.009171,0.026057,-0.152454,0.105026,0.050849,-0.993169,-0.020371,-0.005194,0.005727,15.119223,-8.028009,7.147316,,,,,,,
1512180648.366364,0.105734,-0.050983,0.428489,0.012443,0.027141,-0.156666,0.105399,0.050961,-0.993123,-0.003394,0.002567,-0.013270,15.494665,-7.952448,7.369148,,,,,,,
1512180648.386353,0.106097,-0.051138,0.425367,0.004949,0.027126,-0.154642,0.105760,0.051115,-0.993077,-0.015260,-0.000822,0.005986,15.568167,-8.252344,7.068382,,,,,,,
1512180648.406342,0.106423,-0.051317,0.422204,0.009259,0.022864,-0.157793,0.106083,0.051295,-0.993033,-0.007526,-0.004115,-0.010507,14.889791,-9.003366,7.073769,,,,,,,
1512180648.426362,0.106687,-0.051526,0.419055,0.004975,0.020719,-0.156797,0.106343,0.051503,-0.992995,-0.005177,-0.010930,-0.006120,15.569372,-8.027338,7.443489,,,,,,,
1512180648.446351,0.106898,-0.051771,0.415945,0.005971,0.021780,-0.152515,0.106551,0.051747,-0.992960,-0.002136,-0.002370,-0.011206,15.420416,-7.802561,7.519859,,,,,,,
1512180648.466339,0.107094,-0.052003,0.412862,0.004913,0.022850,-0.152524,0.106745,0.051979,-0.992927,-0.014170,-0.013375,-0.001946,15.419744,-7.952570,7.519798,,,,,,,
1512180648.486358,0.107300,-0.052251,0.409829,0.008071,0.018577,-0.150362,0.106948,0.052227,-0.992892,-0.021499,0.006382,0.000613,15.572531,-7.352335,7.668800,,,,,,,
1512180648.506347,0.107489,-0.052443,0.406913,0.006925,0.013223,-0.146134,0.107135,0.052419,-0.992862,0.006299,-0.005224,-0.010922,15.571585,-7.577341,7.818687,,,,,,,
1512180648.526336,0.107638,-0.052667,0.404048,0.005777,0.018553,-0.140802,0.107281,0.052642,-0.992834,-0.027508,0.008912,-0.010737,15.871923,-7.501886,7.816170,,,,,,,
1512180648.546325,0.107732,-0.052774,0.401183,0.007883,0.011075,-0.139732,0.107374,0.052750,-0.992818,-0.029875,-0.004914,0.010625,15.723242,-7.202112,7.742592,,,,,,,
1512180648.566345,0.107851,-0.052932,0.398398,0.010027,0.008942,-0.140775,0.107491,0.052907,-0.992797,0.009376,0.003276,0.002960,15.871542,-7.576883,7.741142,,,,,,,
1512180648.586341,0.107934,-0.053003,0.395615,0.008939,0.013214,-0.138641,0.107573,0.052979,-0.992785,-0.013488,0.008820,-0.005934,15.797110,-7.426996,7.516853,,,,,,,
1512180648.606330,0.107923,-0.053101,0.392807,0.011049,0.008942,-0.137560,0.107562,0.053076,-0.992781,-0.029360,0.008707,-0.003511,16.020834,-7.726664,7.664803,,,,,,,
1512180648.626349,0.107933,-0.053091,0.389974,0.013241,0.005745,-0.141805,0.107572,0.053066,-0.992780,0.000857,0.007770,-0.003756,16.248205,-7.201319,7.663124,,,,,,,
1512180648.646338,0.107944,-0.053109,0.387143,0.014281,0.008951,-0.139645,0.107582,0.053084,-0.992778,-0.025688,0.011842,0.010188,16.173834,-7.051447,7.588844,,,,,,,
1512180648.666327,0.107939,-0.053075,0.384210,0.020775,0.005767,-0.145959,0.107578,0.053050,-0.992780,-0.014972,0.012654,-0.005465,16.324133,-6.976221,7.512596,,,,,,,
1512180648.686347,0.107953,-0.053008,0.381290,0.016543,0.007905,-0.147076,0.107592,0.052983,-0.992782,-0.011858,0.008815,-0.002014,16.024618,-6.901651,7.815178,,,,,,,
1512180648.706336,0.107965,-0.052889,0.378360,0.025028,0.012181,-0.144809,0.107605,0.052864,-0.992787,-0.029053,0.003319,-0.009837,16.248846,-7.051325,7.588203,,,,,,,
1512180648.726325,0.107920,-0.052804,0.375455,0.020728,0.003628,-0.142767,0.107561,0.052780,-0.992797,-0.024385,0.001664,0.006560,16.098166,-7.201548,7.589409,,,,,,,
1512180648.746314,0.107913,-0.052650,0.372564,0.022824,0.010033,-0.140584,0.107554,0.052626,-0.992805,-0.034983,-0.006224,-0.001152,16.474661,-6.900980,7.886345,,,,,,,
1512180648.766333,0.107853,-0.052552,0.369728,0.020669,0.005754,-0.139565,0.107495,0.052528,-0.992817,-0.034543,-0.006599,-0.010158,16.550482,-6.675867,7.510826,,,,,,,
1512180648.786322,0.107891,-0.052422,0.366973,0.021682,0.008952,-0.136342,0.107534,0.052398,-0.992820,-0.003103,-0.001098,0.002784,16.699102,-6.975657,7.434410,,,,,,,
1512180648.806311,0.107940,-0.052372,0.364232,0.017386,0.013214,-0.134257,0.107583,0.052348,-0.992817,-0.040414,-0.017726,0.017750,16.702658,-6.225641,7.809746,,,,,,,
1512180648.826331,0.107978,-0.052301,0.361501,0.016292,0.014279,-0.132135,0.107621,0.052277,-0.992817,-0.051133,-0.005448,0.014194,16.774405,-6.900537,7.358803,,,,,,,
1512180648.846320,0.108163,-0.052249,0.358771,0.017455,0.015357,-0.138514,0.107804,0.052226,-0.992799,-0.020738,-0.009501,0.007341,16.627325,-6.300760,7.810356,,,,,,,
1512180648.866309,0.108380,-0.052253,0.356056,0.017453,0.020702,-0.137426,0.108021,0.052229,-0.992776,-0.023655,-0.007506,-0.007819,16.852209,-6.300425,7.583443,,,,,,,
1512180648.886328,0.108557,-0.052256,0.353295,0.013165,0.016419,-0.136438,0.108196,0.052232,-0.992756,-0.040081,-0.010774,0.019169,16.704199,-5.850641,7.509926,,,,,,,
1512180648.906318,0.108636,-0.052276,0.350517,0.017457,0.008952,-0.138534,0.108274,0.052252,-0.992747,-0.029005,0.003198,-0.009130,16.553228,-6.075861,7.586098,,,,,,,
1512180648.926307,0.108626,-0.052291,0.347643,0.011174,0.003612,-0.146108,0.108264,0.052268,-0.992747,-0.015949,-0.005896,0.014201,16.701574,-6.450647,7.659645,,,,,,,
1512180648.946296,0.108553,-0.052299,0.344751,0.019689,0.006829,-0.144906,0.108191,0.052276,-0.992755,-0.030570,-0.002669,-0.012571,16.553488,-6.000864,7.436134,,,,,,,
1512180648.966315,0.108481,-0.052294,0.341768,0.014418,0.005763,-0.148183,0.108120,0.052270,-0.992763,-0.044247,0.004340,0.008907,16.479162,-5.850977,7.436836,,,,,,,
1512180648.986304,0.108350,-0.052326,0.338744,0.018744,0.000435,-0.152404,0.107990,0.052302,-0.992775,-0.008259,0.019567,-0.024834,16.252508,-6.226313,7.513573,,,,,,,
1512180649.006293,0.108232,-0.052349,0.335704,0.016577,0.004698,-0.150289,0.107872,0.052325,-0.992787,-0.031090,0.010236,-0.022030,16.253119,-6.076319,7.363640,,,,,,,
1512180649.026313,0.108067,-0.052400,0.332591,0.015545,0.003633,-0.152440,0.107709,0.052376,-0.992802,-0.047895,0.021125,-0.013012,15.954718,-5.701761,7.216377,,,,,,,
1512180649.046302,0.107895,-0.052481,0.329447,0.010285,-0.001707,-0.156799,0.107538,0.052457,-0.992816,-0.035822,0.006656,-0.009427,15.952063,-6.301767,7.291100,,,,,,,
1512180649.066291,0.107749,-0.052546,0.326282,0.015705,0.000449,-0.162042,0.107392,0.052521,-0.992828,-0.018266,0.015167,-0.016434,16.255178,-5.626307,7.438866,,,,,,,
1512180649.086310,0.107583,-0.052609,0.323085,0.012445,-0.000628,-0.157827,0.107227,0.052585,-0.992843,-0.042179,0.004559,-0.003663,16.405478,-5.551096,7.362617,,,,,,,
1512180649.106299,0.107310,-0.052663,0.319843,0.015654,-0.001691,-0.158852,0.106955,0.052639,-0.992869,-0.060035,0.000080,0.001674,16.106070,-5.401545,7.215233,,,,,,,
1512180649.126288,0.106981,-0.052712,0.316552,0.011470,-0.008099,-0.164266,0.106629,0.052688,-0.992902,-0.046616,0.005112,0.022382,16.254950,-5.626307,6.988853,,,,,,,
1512180649.146277,0.106683,-0.052853,0.313270,0.014705,-0.003817,-0.166336,0.106332,0.052829,-0.992926,-0.020349,0.002164,-0.017618,16.027655,-6.151651,7.140526,,,,,,,
1512180649.166297,0.106415,-0.052896,0.309899,0.014676,0.001521,-0.164186,0.106065,0.052872,-0.992953,-0.087328,0.006378,0.012041,16.029531,-5.701654,6.840736,,,,,,,
1512180649.186286,0.106152,-0.052987,0.306468,0.017981,-0.002739,-0.171618,0.105804,0.052962,-0.992976,-0.046051,0.017320,0.007120,16.480474,-5.475977,6.687019,,,,,,,
1512180649.206275,0.105975,-0.053071,0.303042,0.016995,0.002612,-0.175877,0.105628,0.053046,-0.992990,-0.030463,0.007776,-0.011634,16.330816,-5.401209,6.688332,,,,,,,
1512180649.226294,0.105849,-0.053097,0.299541,0.020161,0.010089,-0.173673,0.105502,0.053072,-0.993002,-0.062564,0.029203,-0.009165,16.629461,-5.700754,6.685631,,,,,,,
1512180649.246283,0.105746,-0.053170,0.295996,0.018080,0.006888,-0.176912,0.105400,0.053145,-0.993009,-0.055259,0.015932,-0.001757,16.477057,-6.225977,6.611671,,,,,,,
1512180649.266272,0.105754,-0.053163,0.292418,0.019171,0.013295,-0.179010,0.105408,0.053138,-0.993008,-0.066894,0.017648,-0.006580,16.705999,-5.325632,6.385170,,,,,,,
