timestamp(unix),attitude_roll(radians),attitude_pitch(radians),attitude_yaw(radians),rotation_rate_x(radians/s),rotation_rate_y(radians/s),rotation_rate_z(radians/s),gravity_x(G),gravity_y(G),gravity_z(G),user_acc_x(G),user_acc_y(G),user_acc_z(G),magnetic_field_x(microteslas),magnetic_field_y(microteslas),magnetic_field_z(microteslas),latitude(degree),longitude(degree),altitude(meter),speed(m/s),course(degree),timestamp(unix),User Mark
1512176723.345829,0.259540,0.863166,0.970700,-0.042751,-0.036208,0.010481,0.166822,-0.759904,-0.628264,-0.014204,0.014787,-0.021181,4.347321,-18.264961,-20.623009,,,,,,,
1512176723.365848,0.258979,0.863259,0.971402,0.000671,0.009755,0.030460,0.166451,-0.759965,-0.628289,-0.008065,0.006776,-0.016212,4.046692,-18.415413,-20.545540,,,,,,,
1512176723.385837,0.258501,0.863137,0.972327,-0.029064,0.006521,0.023623,0.166175,-0.759886,-0.628458,0.001778,-0.000399,-0.003958,4.198044,-18.115181,-20.546669,,,,,,,
1512176723.405857,0.257301,0.862325,0.973181,-0.053436,-0.047976,0.011351,0.165577,-0.759358,-0.629253,0.013912,-0.006756,-0.007374,4.273041,-18.115074,-20.547310,,,,,,,
1512176723.425846,0.255763,0.861349,0.973684,-0.044714,-0.052210,-0.000263,0.164797,-0.758722,-0.630224,0.010389,-0.001334,0.003515,3.969177,-18.940529,-20.845146,,,,,,,
1512176723.445835,0.254598,0.860854,0.973708,-0.010465,-0.062825,-0.009400,0.164157,-0.758400,-0.630779,0.014904,0.008888,-0.010945,3.895889,-18.565636,-20.769325,,,,,,,
1512176723.465854,0.253847,0.861033,0.973476,0.019349,-0.020056,-0.004552,0.163650,-0.758516,-0.630771,-0.008270,0.013567,0.007678,4.118423,-19.090294,-20.996483,,,,,,,
1512176723.485844,0.254259,0.861265,0.973197,-0.001984,0.018357,-0.002598,0.163866,-0.758667,-0.630533,-0.008668,0.010269,0.019358,3.672287,-18.265968,-20.692284,,,,,,,
1512176723.505863,0.253969,0.860448,0.973524,-0.058584,-0.031937,0.001740,0.163838,-0.758134,-0.631181,0.009547,0.012025,-0.005767,4.122360,-18.265297,-20.546104,,,,,,,
1512176723.525852,0.252202,0.859552,0.974220,-0.035420,-0.059706,0.017970,0.162892,-0.757550,-0.632126,-0.001393,0.005826,-0.008911,4.044891,-18.790413,-20.770714,,,,,,,
1512176723.545841,0.251386,0.859515,0.974686,0.010563,-0.003014,0.011369,0.162383,-0.757526,-0.632286,-0.009261,0.005771,-0.002556,3.597916,-18.116081,-20.766579,,,,,,,
1512176723.565861,0.251173,0.859699,0.974844,-0.001056,-0.013697,0.004769,0.162214,-0.757646,-0.632186,0.002688,0.000306,-0.007340,3.897324,-18.265633,-20.619194,,,,,,,
1512176723.585850,0.250792,0.859404,0.975003,-0.022277,-0.006240,-0.000843,0.162028,-0.757454,-0.632464,-0.005366,0.005439,0.004748,3.823715,-17.965736,-20.543419,,,,,,,
1512176723.605869,0.250558,0.858986,0.975242,-0.019219,-0.009455,0.007720,0.161958,-0.757181,-0.632809,0.009962,0.003747,-0.003681,3.973114,-18.115517,-20.394768,,,,,,,
1512176723.625858,0.249413,0.858760,0.975960,-0.013106,-0.041527,0.022619,0.161277,-0.757033,-0.633160,0.008447,0.010176,-0.003361,4.274048,-17.890068,-20.547203,,,,,,,
1512176723.645847,0.247921,0.858778,0.976526,0.001948,-0.063916,0.014232,0.160328,-0.757045,-0.633386,0.001858,0.009212,-0.004218,3.822281,-18.265755,-20.693550,,,,,,,
1512176723.665867,0.246848,0.858852,0.976640,0.004367,-0.030767,-0.001608,0.159635,-0.757093,-0.633504,-0.007367,0.006056,0.006688,3.820938,-18.565758,-20.693687,,,,,,,
1512176723.685856,0.246651,0.858877,0.976450,-0.002001,-0.012618,-0.002705,0.159505,-0.757109,-0.633517,-0.002324,0.003646,0.004351,3.672546,-18.190971,-20.842247,,,,,,,
1512176723.705875,0.246433,0.858646,0.976456,-0.014741,-0.008354,-0.005004,0.159410,-0.756959,-0.633721,-0.000474,0.003007,0.001412,3.596390,-18.491081,-20.466743,,,,,,,
1512176723.725864,0.246286,0.858216,0.976545,-0.025516,-0.006253,0.001241,0.159396,-0.756677,-0.634060,0.009244,0.003702,0.004834,4.198441,-18.040184,-20.396645,,,,,,,
1512176723.745853,0.245520,0.857669,0.976999,-0.032048,-0.026573,0.008538,0.159011,-0.756319,-0.634584,-0.001083,0.011645,0.003724,3.749130,-17.890862,-20.392738,,,,,,,
1512176723.765873,0.244832,0.857084,0.977268,-0.027636,-0.021206,0.000093,0.158682,-0.755937,-0.635122,0.002238,0.009324,0.000417,3.973755,-17.965523,-20.469688,,,,,,,
1512176723.785862,0.244219,0.856780,0.977443,-0.012744,-0.022252,0.002439,0.158347,-0.755738,-0.635442,-0.003989,0.010102,-0.000819,3.671982,-18.340965,-20.617317,,,,,,,
1512176723.805881,0.244121,0.856582,0.977612,-0.008546,0.020466,0.007976,0.158321,-0.755608,-0.635603,-0.009396,0.010430,0.004118,3.595978,-18.566093,-20.616783,,,,,,,
1512176723.825870,0.245102,0.856832,0.978110,0.025393,0.079243,0.021466,0.158899,-0.755772,-0.635263,-0.004389,0.017277,-0.027060,3.898041,-18.115639,-20.544121,,,,,,,
1512176723.845859,0.245843,0.858171,0.978879,0.078183,0.060039,0.052015,0.159124,-0.756648,-0.634163,0.000712,0.019664,-0.041709,3.897736,-18.190636,-20.469154,,,,,,,
1512176723.865879,0.245993,0.861099,0.979557,0.178468,0.006796,0.044754,0.158678,-0.758559,-0.631988,-0.021471,0.037704,-0.063218,3.598114,-18.116081,-20.391579,,,,,,,
1512176723.885868,0.247155,0.865491,0.978855,0.240668,0.049660,0.024483,0.158596,-0.761414,-0.628567,-0.020305,0.025330,-0.024997,3.671341,-18.490974,-20.542381,,,,,,,
1512176723.905887,0.250338,0.870705,0.976461,0.296147,0.086188,-0.041751,0.159610,-0.764783,-0.624204,-0.050342,0.054288,-0.029284,4.121414,-18.490303,-20.396202,,,,,,,
1512176723.925876,0.256731,0.876726,0.969438,0.407818,-0.048937,-0.226097,0.162425,-0.768649,-0.618706,-0.075404,0.124285,-0.128822,3.971542,-18.490517,-20.169930,,,,,,,
1512176723.945865,0.269709,0.884658,0.954966,0.540937,0.162990,-0.336432,0.168811,-0.773698,-0.610650,-0.011463,0.010652,0.002908,4.270569,-18.715080,-20.097588,,,,,,,
1512176723.965885,0.281388,0.893498,0.943185,0.493437,0.130553,-0.171991,0.174025,-0.779269,-0.602043,0.052477,-0.024900,0.064262,4.643646,-19.164513,-19.875984,,,,,,,
1512176723.985874,0.289039,0.900340,0.936231,0.320589,0.084212,-0.101100,0.177102,-0.783538,-0.595569,0.013861,-0.015366,0.085239,4.642532,-19.464516,-19.426125,,,,,,,
1512176724.005894,0.294892,0.903117,0.930027,0.119372,0.018909,-0.185263,0.179952,-0.785261,-0.592438,-0.013677,0.012479,0.069825,4.867264,-19.464180,-19.953026,,,,,,,
1512176724.025883,0.301343,0.902613,0.922457,0.011659,0.034889,-0.246467,0.183887,-0.784948,-0.591643,-0.004047,-0.003656,0.059721,5.242493,-19.463615,-19.506218,,,,,,,
1512176724.045872,0.307921,0.900877,0.915715,-0.034888,0.075317,-0.202229,0.188188,-0.783872,-0.591718,0.013671,-0.015078,0.007764,5.318344,-19.313499,-19.131798,,,,,,,
1512176724.065891,0.312721,0.899471,0.910922,-0.006983,0.035736,-0.150791,0.191365,-0.782998,-0.591856,0.010295,0.005715,-0.059297,5.393723,-19.238396,-19.057396,,,,,,,
1512176724.085880,0.317366,0.899482,0.905538,0.089294,0.024172,-0.171825,0.194109,-0.783005,-0.590953,-0.009646,0.021103,-0.068242,5.467941,-19.388283,-19.283104,,,,,,,
1512176724.105900,0.324719,0.901901,0.898398,0.243742,0.135482,-0.157469,0.197844,-0.784507,-0.587713,-0.003096,-0.000893,-0.042125,5.616623,-19.688057,-19.209511,,,,,,,
1512176724.125889,0.333861,0.907371,0.891322,0.375069,0.187912,-0.103149,0.201799,-0.787888,-0.581816,0.009596,0.011246,-0.037035,6.062393,-20.587379,-19.588753,,,,,,,
1512176724.145878,0.343665,0.914246,0.883541,0.409435,0.180518,-0.118668,0.205664,-0.792103,-0.574696,0.013132,0.001697,-0.002162,6.290802,-19.912041,-18.840355,,,,,,,
1512176724.165851,0.352751,0.920221,0.876162,0.318387,0.136536,-0.094554,0.209239,-0.795735,-0.568352,0.031774,-0.026012,0.038323,6.590469,-19.986595,-18.842934,,,,,,,
1512176724.185840,0.357726,0.923868,0.871434,0.168400,0.019794,-0.055558,0.211046,-0.797939,-0.564582,0.034239,-0.013340,0.041206,6.288071,-20.512047,-18.915642,,,,,,,
1512176724.205860,0.359570,0.925602,0.868654,0.088279,-0.026274,-0.047283,0.211599,-0.798983,-0.562896,0.012644,0.001589,0.044082,6.288452,-20.437050,-18.840599,,,,,,,
1512176724.225849,0.361231,0.926316,0.866519,0.043486,0.022790,-0.043496,0.212332,-0.799412,-0.562010,0.007959,-0.002392,0.047270,6.588928,-20.361595,-18.543114,,,,,,,
1512176724.245838,0.363292,0.926663,0.865414,0.015278,0.069682,-0.011761,0.213392,-0.799621,-0.561312,0.011737,-0.013322,0.017641,6.737839,-20.586372,-18.694496,,,,,,,
1512176724.265857,0.364948,0.926481,0.865007,-0.019831,0.064294,-0.016553,0.214373,-0.799511,-0.561094,0.005338,-0.004856,0.004682,6.439560,-20.211815,-18.616768,,,,,,,
1512176724.285846,0.366715,0.925888,0.864180,-0.016122,0.045135,-0.048548,0.215534,-0.799155,-0.561156,-0.006000,0.019675,-0.000245,7.038895,-20.360924,-18.621941,,,,,,,
1512176724.305866,0.369597,0.925555,0.861780,0.022685,0.066608,-0.073497,0.217246,-0.798955,-0.560781,-0.000388,0.015828,-0.001002,6.964310,-20.286034,-18.471260,,,,,,,
1512176724.325855,0.373287,0.926232,0.859493,0.075425,0.111480,-0.037397,0.219117,-0.799362,-0.559471,-0.005173,0.008956,-0.018440,7.039230,-20.285927,-18.621910,,,,,,,
1512176724.345844,0.378075,0.928015,0.857309,0.121149,0.182030,-0.026895,0.221267,-0.800431,-0.557091,-0.018630,0.019273,-0.015633,6.961685,-20.811043,-18.996513,,,,,,,
1512176724.365863,0.383649,0.930174,0.855638,0.099232,0.212904,0.011275,0.223721,-0.801724,-0.554245,0.013675,-0.017337,0.021973,6.964005,-20.361031,-18.396309,,,,,,,
1512176724.385852,0.385368,0.930647,0.856294,-0.049342,0.035320,0.025558,0.224531,-0.802006,-0.553508,0.041552,-0.030193,0.010707,7.190094,-20.135689,-18.248116,,,,,,,
1512176724.405872,0.381699,0.928034,0.858323,-0.183409,-0.169926,0.000516,0.223279,-0.800443,-0.556271,0.042865,-0.027255,-0.022815,7.190063,-20.135689,-18.323112,,,,,,,
1512176724.425861,0.376485,0.925093,0.860324,-0.106745,-0.158068,0.007000,0.221239,-0.798677,-0.559614,0.017912,-0.018950,-0.055681,6.738892,-20.361366,-18.619392,,,,,,,
1512176724.445850,0.374585,0.925703,0.860762,0.092309,-0.034972,0.030565,0.219997,-0.799044,-0.559580,0.008305,-0.008192,-0.016424,6.589905,-20.136589,-18.618019,,,,,,,
1512176724.465870,0.374588,0.927774,0.860046,0.074546,-0.036022,0.008984,0.219393,-0.800287,-0.558038,-0.012332,0.006769,0.046991,6.511414,-20.886711,-18.842720,,,,,,,
1512176724.485859,0.373215,0.927309,0.860122,-0.084072,-0.102464,-0.008473,0.218763,-0.800009,-0.558685,0.003833,0.002096,0.052017,6.889908,-20.136147,-18.620567,,,,,,,
1512176724.505878,0.368477,0.923888,0.862304,-0.235770,-0.164680,0.008305,0.217098,-0.797951,-0.562265,0.023137,-0.013603,0.050256,6.738892,-20.361366,-18.619392,,,,,,,
1512176724.525867,0.361019,0.918389,0.866422,-0.333057,-0.239628,0.021560,0.214445,-0.794625,-0.567966,0.017244,-0.004890,0.024661,6.664795,-20.136482,-18.843651,,,,,,,
1512176724.545856,0.352448,0.911885,0.870768,-0.347662,-0.258839,0.001025,0.211349,-0.790659,-0.574621,-0.009398,0.021464,-0.001261,6.140045,-20.062263,-18.989159,,,,,,,
1512176724.565876,0.345866,0.906377,0.873558,-0.249205,-0.189217,-0.018627,0.209035,-0.787275,-0.580088,-0.019002,0.032072,-0.029806,6.291779,-19.687050,-18.915260,,,,,,,
1512176724.585865,0.342172,0.903239,0.874710,-0.110586,-0.108892,-0.016338,0.207719,-0.785336,-0.583181,-0.016526,0.034802,-0.038630,6.064941,-20.062386,-19.213509,,,,,,,
1512176724.605884,0.341527,0.902792,0.874651,0.027894,0.010932,-0.004322,0.207460,-0.785059,-0.583645,-0.008714,0.016474,-0.037341,5.990616,-19.912498,-19.212807,,,,,,,
1512176724.625873,0.342741,0.904173,0.874022,0.080929,0.025933,0.012489,0.207804,-0.785914,-0.582371,0.011450,-0.003927,-0.023464,6.067642,-19.462379,-19.213234,,,,,,,
1512176724.645862,0.342283,0.905090,0.874065,0.014724,-0.052151,0.015523,0.207295,-0.786481,-0.581787,0.011836,-0.012210,-0.000443,6.216599,-19.687157,-19.289619,,,,,,,
1512176724.665882,0.339848,0.904642,0.874656,-0.040610,-0.114176,0.005976,0.205995,-0.786204,-0.582623,0.007719,-0.012258,0.003964,6.067078,-19.612373,-18.988304,,,,,,,
1512176724.685871,0.337120,0.904003,0.875268,-0.025684,-0.105601,0.007292,0.204571,-0.785809,-0.583656,0.005024,-0.004352,0.002998,6.216064,-19.837151,-18.989693,,,,,,,
1512176724.705890,0.335077,0.903950,0.875565,0.009511,-0.080985,0.006818,0.203392,-0.785776,-0.584112,-0.006478,0.006632,-0.012568,6.066254,-19.762383,-19.288383,,,,,,,
1512176724.725879,0.334291,0.904483,0.875292,0.034220,-0.030723,-0.002243,0.202796,-0.786106,-0.583876,-0.014411,0.012516,0.002913,6.067230,-19.537376,-19.363258,,,,,,,
1512176724.745868,0.334031,0.905007,0.874968,0.019196,-0.028622,0.003943,0.202509,-0.786429,-0.583540,-0.000147,0.008719,-0.003054,5.841553,-19.687721,-19.361427,,,,,,,
1512176724.765888,0.333325,0.905105,0.875076,-0.005318,-0.032930,0.003573,0.202071,-0.786490,-0.583609,0.000916,0.008521,0.004325,5.841583,-19.687721,-19.286430,,,,,,,
1512176724.785877,0.332703,0.904954,0.875117,-0.007338,-0.028646,-0.002837,0.201747,-0.786397,-0.583848,0.002248,0.005498,0.002869,5.917679,-19.462608,-19.136971,,,,,,,
1512176724.805896,0.332112,0.904849,0.874946,-0.004047,-0.044651,-0.009241,0.201429,-0.786332,-0.584045,0.003558,0.003739,0.002105,6.067032,-19.612373,-19.063316,,,,,,,
1512176724.825885,0.331192,0.904316,0.874613,-0.030457,-0.063887,-0.024615,0.201028,-0.786003,-0.584626,-0.005898,0.008018,0.008622,5.763367,-20.362831,-19.661095,,,,,,,
1512176724.845874,0.330608,0.903710,0.874127,-0.015624,-0.029700,-0.017887,0.200841,-0.785627,-0.585194,-0.000356,0.003981,0.010014,6.440689,-19.911827,-19.066643,,,,,,,
1512176724.865894,0.330977,0.903630,0.873774,0.006685,0.015184,-0.011011,0.201077,-0.785578,-0.585179,-0.001081,0.005442,-0.005595,5.989944,-20.062492,-19.212883,,,,,,,
1512176724.885883,0.331405,0.903555,0.873192,-0.009135,-0.020066,-0.023089,0.201347,-0.785531,-0.585149,0.001793,0.008081,-0.003871,5.841583,-19.687721,-19.286430,,,,,,,
1512176724.905902,0.330739,0.902811,0.872805,-0.037973,-0.054296,-0.021494,0.201147,-0.785071,-0.585835,0.003870,0.003943,0.001225,6.066254,-19.762383,-19.288383,,,,,,,
1512176724.925892,0.330308,0.902212,0.872505,-0.015639,-0.016880,-0.015707,0.201047,-0.784700,-0.586367,-0.001859,0.004060,0.000445,5.617004,-19.613060,-19.134483,,,,,,,
1512176724.945881,0.330717,0.901980,0.872023,-0.001682,0.001311,-0.020772,0.201346,-0.784556,-0.586457,-0.002372,0.007334,-0.001907,5.917648,-19.462608,-19.211967,,,,,,,
1512176724.965900,0.331240,0.901870,0.871308,0.002605,-0.002956,-0.022859,0.201681,-0.784488,-0.586433,0.000376,0.008487,0.003730,5.991592,-19.687492,-19.287712,,,,,,,
1512176724.985889,0.331377,0.901664,0.870707,-0.007068,-0.022204,-0.018801,0.201814,-0.784360,-0.586558,0.001235,0.009336,0.003383,5.842636,-19.462715,-19.211327,,,,,,,
1512176725.005909,0.331929,0.901212,0.869907,-0.016323,0.005593,-0.038027,0.202253,-0.784080,-0.586782,0.002536,0.007591,0.001195,5.915619,-19.912605,-19.212166,,,,,,,
1512176725.025898,0.332318,0.900709,0.869046,-0.015405,-0.028602,-0.030670,0.202610,-0.783768,-0.587075,0.005413,0.008026,-0.003089,5.991623,-19.687492,-19.212700,,,,,,,
1512176725.045887,0.332411,0.900229,0.868360,-0.016528,-0.011521,-0.026363,0.202787,-0.783469,-0.587412,-0.009107,0.005240,0.010417,6.143234,-19.312263,-19.363792,,,,,,,
1512176725.065906,0.332857,0.899847,0.867854,-0.010247,0.003427,-0.018758,0.203147,-0.783232,-0.587605,-0.003455,0.001615,0.001194,6.141586,-19.687263,-19.288979,,,,,,,
1512176725.085895,0.333158,0.899432,0.867298,-0.021835,-0.011532,-0.028575,0.203430,-0.782974,-0.587851,-0.002182,0.005523,-0.005091,5.991959,-19.612495,-19.212669,,,,,,,
1512176725.105915,0.333656,0.898835,0.866494,-0.011067,-0.005094,-0.034793,0.203876,-0.782602,-0.588191,0.004529,0.002985,-0.010244,6.066849,-19.612373,-19.438301,,,,,,,
1512176725.125904,0.334932,0.898796,0.865201,0.021063,0.023816,-0.041687,0.204636,-0.782578,-0.587959,0.006134,0.005387,-0.006539,6.143387,-19.312263,-19.063805,,,,,,,
1512176725.145893,0.336412,0.899162,0.863846,0.031459,0.013116,-0.026650,0.205411,-0.782805,-0.587385,0.010623,0.004378,-0.000703,6.067566,-19.462379,-19.363228,,,,,,,
1512176725.165889,0.337122,0.899256,0.862907,0.000543,-0.009358,-0.027174,0.205804,-0.782864,-0.587170,0.004508,0.007580,0.007030,5.992935,-19.387489,-19.287575,,,,,,,
1512176725.185878,0.337239,0.898649,0.862345,-0.030412,-0.016889,-0.025518,0.206030,-0.782486,-0.587594,-0.001532,0.006974,0.005166,6.291977,-19.612038,-19.215218,,,,,,,
1512176725.205898,0.337424,0.897994,0.861833,-0.017586,-0.002984,-0.027419,0.206308,-0.782079,-0.588039,-0.004099,0.010243,-0.004155,6.217346,-19.537148,-19.139549,,,,,,,
1512176725.225887,0.338496,0.897789,0.860960,0.009116,0.033383,-0.027968,0.206992,-0.781950,-0.587969,-0.003135,0.012068,-0.001280,6.218018,-19.387154,-19.139473,,,,,,,
1512176725.245876,0.339984,0.897951,0.859997,0.019698,0.034456,-0.023549,0.207824,-0.782051,-0.587541,0.005875,0.007790,-0.006911,6.368347,-19.311928,-19.140724,,,,,,,
1512176725.265895,0.340804,0.898067,0.859453,0.005545,0.009834,-0.006782,0.208276,-0.782124,-0.587285,0.008536,-0.001659,-0.002986,6.066513,-19.687386,-19.438332,,,,,,,
1512176725.285884,0.340774,0.898107,0.859436,0.002246,-0.003002,-0.001545,0.208248,-0.782149,-0.587261,0.001057,0.003493,-0.007023,6.066589,-19.687386,-19.288338,,,,,,,
1512176725.305904,0.340991,0.898142,0.859104,0.008797,-0.002975,-0.011045,0.208366,-0.782171,-0.587190,0.003090,0.004735,-0.004134,6.067596,-19.462379,-19.288246,,,,,,,
1512176725.325893,0.341416,0.898338,0.858669,0.018429,0.014138,-0.011910,0.208564,-0.782293,-0.586957,-0.003348,0.006292,0.005033,5.840881,-19.837715,-19.361488,,,,,,,
1512176725.345882,0.342489,0.898594,0.857780,0.020769,0.016301,-0.024662,0.209126,-0.782452,-0.586544,-0.000051,0.002530,0.007839,6.142715,-19.462257,-19.063881,,,,,,,
1512176725.365901,0.343414,0.898617,0.856871,0.003742,0.005597,-0.027078,0.209663,-0.782467,-0.586334,0.000374,0.005230,0.008376,6.217041,-19.612160,-19.064583,,,,,,,
1512176725.385890,0.343999,0.898200,0.856068,-0.021771,-0.004045,-0.031745,0.210116,-0.782207,-0.586518,0.004667,0.007442,0.000367,6.293625,-19.237038,-19.290047,,,,,,,
1512176725.405910,0.344414,0.897516,0.855424,-0.020748,-0.001916,-0.029593,0.210540,-0.781780,-0.586935,0.003815,0.013363,-0.002863,5.841553,-19.687721,-19.361427,,,,,,,
1512176725.425899,0.345054,0.897345,0.854564,0.012244,0.000272,-0.024838,0.210961,-0.781673,-0.586926,0.005210,0.009335,0.005917,6.217987,-19.387154,-19.214470,,,,,,,
1512176725.445888,0.345927,0.897572,0.853666,0.021793,0.014159,-0.022524,0.211413,-0.781815,-0.586574,0.003751,0.009950,0.007976,6.218399,-19.312157,-19.064445,,,,,,,
1512176725.465908,0.346929,0.897598,0.852709,0.005910,0.008808,-0.029168,0.211994,-0.781832,-0.586343,0.006970,0.007067,-0.001456,6.217712,-19.462151,-19.064522,,,,,,,
1512176725.485897,0.347335,0.897370,0.851815,-0.004750,-0.027520,-0.030513,0.212292,-0.781689,-0.586425,0.007465,0.008160,-0.006227,6.366852,-19.611931,-19.440849,,,,,,,
1512176725.505916,0.347496,0.897138,0.850901,0.002662,-0.024310,-0.027196,0.212448,-0.781545,-0.586561,0.004303,0.002385,-0.000292,6.367722,-19.461922,-19.065788,,,,,,,
1512176725.525905,0.347688,0.897246,0.850291,0.016256,-0.011507,-0.010966,0.212532,-0.781612,-0.586441,-0.003014,0.000515,-0.004914,6.292236,-19.537041,-19.365181,,,,,,,
1512176725.545894,0.347955,0.897344,0.849658,0.010025,-0.009359,-0.020642,0.212663,-0.781673,-0.586312,-0.003068,0.002300,-0.010886,6.367935,-19.386925,-19.290749,,,,,,,
1512176725.565914,0.348040,0.897605,0.849027,0.028940,-0.032863,-0.005526,0.212643,-0.781836,-0.586102,0.011326,0.003241,-0.025974,6.143005,-19.387260,-19.138847,,,,,,,
1512176725.585903,0.347249,0.898335,0.848383,0.047163,-0.084091,-0.013968,0.211985,-0.782291,-0.585733,0.004323,0.005420,-0.035468,6.217682,-19.462151,-19.139519,,,,,,,
1512176725.605922,0.345854,0.899160,0.847114,0.054711,-0.149225,-0.022615,0.210949,-0.782804,-0.585421,0.000401,-0.007998,-0.030042,6.142456,-19.537270,-18.913918,,,,,,,
1512176725.625911,0.343900,0.899974,0.845516,0.050744,-0.144918,-0.039712,0.209590,-0.783311,-0.585232,-0.011027,0.005616,-0.007755,6.291748,-19.687050,-18.990257,,,,,,,
1512176725.645900,0.342087,0.900759,0.844489,0.049130,-0.120422,-0.005537,0.208322,-0.783798,-0.585032,-0.009210,0.001923,0.003977,5.841995,-19.612709,-19.136391,,,,,,,
1512176725.665920,0.340503,0.901782,0.844168,0.052042,-0.094819,0.012716,0.207127,-0.784433,-0.584605,0.002696,-0.001059,-0.010900,5.842636,-19.462715,-19.211327,,,,,,,
1512176725.685909,0.337815,0.902626,0.844447,0.025052,-0.145098,0.031341,0.205335,-0.784957,-0.584534,0.014834,-0.002977,-0.002289,6.216370,-19.762154,-19.064659,,,,,,,
1512176725.705928,0.333283,0.902924,0.845889,-0.012711,-0.185801,0.056236,0.202608,-0.785141,-0.585237,0.011153,0.002793,0.002947,6.066208,-19.762383,-19.363365,,,,,,,
1512176725.725917,0.327895,0.903038,0.848189,-0.018305,-0.169818,0.073268,0.199423,-0.785212,-0.586236,0.003657,0.012583,0.016458,6.067490,-19.462379,-19.513237,,,,,,,
1512176725.745906,0.322978,0.903058,0.850399,-0.023450,-0.150580,0.062599,0.196533,-0.785224,-0.587194,0.007111,0.010169,0.012793,5.766479,-19.687828,-19.510780,,,,,,,
1512176725.765926,0.317831,0.903224,0.853111,-0.012292,-0.164514,0.096827,0.193467,-0.785327,-0.588074,0.020461,-0.000653,-0.005172,5.916885,-19.612602,-19.362022,,,,,,,
1512176725.785915,0.311607,0.903906,0.856245,0.017534,-0.206127,0.096048,0.189639,-0.785749,-0.588757,0.001035,0.004911,-0.013614,6.066467,-19.687386,-19.513329,,,,,,,
1512176725.805934,0.305623,0.905148,0.859007,0.045176,-0.179392,0.101872,0.185818,-0.786517,-0.588950,-0.011258,0.011477,0.003135,5.615433,-19.913063,-19.584618,,,,,,,
1512176725.825923,0.301126,0.907152,0.861747,0.088740,-0.096032,0.114519,0.182700,-0.787753,-0.588273,-0.008124,0.009295,0.001481,5.390396,-19.913399,-19.657707,,,,,,,
1512176725.845912,0.297691,0.909619,0.864294,0.090915,-0.066116,0.113589,0.180108,-0.789270,-0.587037,0.005897,0.002267,0.002839,5.240387,-19.913612,-19.656425,,,,,,,
1512176725.865932,0.293659,0.912015,0.867281,0.089610,-0.091777,0.127342,0.177192,-0.790739,-0.585947,0.009088,-0.000887,-0.000189,5.464447,-20.138283,-19.508446,,,,,,,
1512176725.885921,0.288905,0.914481,0.870524,0.083209,-0.118491,0.126089,0.173848,-0.792246,-0.584912,-0.000996,0.005198,0.015606,5.090576,-19.913841,-19.280159,,,,,,,
1512176725.905941,0.284794,0.916268,0.872828,0.052095,-0.087463,0.074574,0.171044,-0.793335,-0.584261,-0.019646,0.012818,0.030703,4.715912,-19.839409,-19.276939,,,,,,,
1512176725.925930,0.282063,0.917245,0.874701,0.014945,-0.057591,0.066679,0.169231,-0.793930,-0.583982,0.001240,0.011245,0.026578,4.939865,-20.064064,-19.353951,,,,,,,
1512176725.945919,0.279581,0.917524,0.876571,-0.006103,-0.044776,0.050426,0.167720,-0.794099,-0.584187,-0.005642,0.013627,0.017400,4.940506,-19.914070,-19.428886,,,,,,,
1512176725.965938,0.277804,0.917574,0.877924,-0.010146,-0.030870,0.037623,0.166671,-0.794129,-0.584446,-0.003311,0.009767,0.013783,4.715134,-19.989403,-19.502007,,,,,,,
1512176725.985927,0.276550,0.917540,0.879046,-0.009990,-0.013761,0.029157,0.165946,-0.794109,-0.584680,-0.002967,0.013180,0.007440,5.014832,-20.063957,-19.429588,,,,,,,
1512176726.005947,0.275748,0.917470,0.879871,-0.013075,-0.007343,0.022739,0.165492,-0.794066,-0.584867,0.004338,0.009230,0.006269,4.864410,-20.139183,-19.578346,,,,,,,
1512176726.025936,0.274741,0.917208,0.880875,-0.027060,-0.011653,0.029983,0.164959,-0.793907,-0.585234,0.001407,0.008583,0.009749,4.490829,-19.839745,-19.425026,,,,,,,
1512176726.045925,0.274178,0.916701,0.881179,-0.027347,-0.005151,-0.016905,0.164739,-0.793598,-0.585714,-0.009862,0.018986,0.011770,4.939453,-20.139076,-19.503975,,,,,,,
1512176726.065944,0.274505,0.916261,0.881310,-0.012823,0.015114,0.007893,0.165025,-0.793331,-0.585996,0.001219,0.006313,0.003202,4.714905,-20.064415,-19.277046,,,,,,,
1512176726.085933,0.274553,0.916161,0.881977,-0.014174,0.023625,0.026028,0.165074,-0.793270,-0.586064,0.008891,0.000439,-0.008067,4.564560,-20.139641,-19.275810,,,,,,,
1512176726.105953,0.273678,0.915978,0.883082,-0.020639,-0.003094,0.029040,0.164601,-0.793159,-0.586348,-0.000965,0.000541,-0.000886,4.711746,-20.739418,-19.502342,,,,,,,
1512176726.125942,0.272686,0.915501,0.884233,-0.040859,-0.003123,0.026614,0.164121,-0.792868,-0.586875,0.000216,0.007086,0.000389,4.790924,-19.839287,-19.277580,,,,,,,
1512176726.145931,0.271551,0.914576,0.885427,-0.056817,-0.018095,0.024200,0.163652,-0.792304,-0.587768,0.004470,0.005072,-0.006455,4.489334,-20.139748,-19.725151,,,,,,,
1512176726.165933,0.269976,0.913809,0.886744,-0.040989,-0.029843,0.032914,0.162887,-0.791836,-0.588611,0.002014,0.009228,-0.002729,4.490463,-19.914742,-19.500053,,,,,,,
1512176726.185922,0.268422,0.913385,0.888097,-0.026075,-0.026614,0.034210,0.162062,-0.791577,-0.589187,0.000688,0.007763,-0.004380,4.491165,-19.764748,-19.424980,,,,,,,
1512176726.205942,0.266954,0.913283,0.889227,-0.009962,-0.023370,0.026992,0.161218,-0.791514,-0.589502,-0.002862,0.001094,-0.003409,4.640457,-19.914513,-19.501335,,,,,,,
1512176726.225931,0.266280,0.913254,0.889480,0.001289,-0.019013,-0.009078,0.160827,-0.791496,-0.589633,-0.009307,0.005226,-0.003141,4.492111,-19.539742,-19.574883,,,,,,,
1512176726.245920,0.266757,0.913333,0.888517,0.010151,0.007742,-0.028045,0.161091,-0.791545,-0.589495,0.002818,-0.002782,-0.000410,4.266205,-19.765083,-19.348076,,,,,,,
1512176726.265939,0.266880,0.913481,0.888539,0.004032,0.007639,0.019838,0.161133,-0.791635,-0.589363,0.009964,-0.005880,0.007835,4.339783,-20.064964,-19.498848,,,,,,,
1512176726.285928,0.265904,0.913358,0.889665,-0.028064,-0.009507,0.026780,0.160584,-0.791560,-0.589614,0.000015,0.003062,0.009154,4.415054,-19.989861,-19.649452,,,,,,,
1512176726.305948,0.264876,0.912609,0.890458,-0.044832,-0.025521,0.008357,0.160132,-0.791102,-0.590351,0.001367,0.002391,-0.000805,4.114380,-20.140312,-19.646965,,,,,,,
1512176726.325937,0.264092,0.912026,0.890925,-0.017050,-0.015860,0.004528,0.159790,-0.790746,-0.590921,0.001312,0.006444,-0.006811,4.265915,-19.840080,-19.273109,,,,,,,
1512176726.345926,0.264003,0.912115,0.891126,0.011695,0.011949,0.008239,0.159719,-0.790800,-0.590867,-0.003835,0.009169,-0.000365,4.266464,-19.690086,-19.498039,,,,,,,
1512176726.365945,0.264177,0.912427,0.891327,0.010597,0.019420,0.010381,0.159758,-0.790991,-0.590602,-0.004927,0.004217,0.004206,3.890457,-19.915642,-19.494957,,,,,,,
1512176726.385935,0.264238,0.912377,0.891655,-0.014945,0.014048,0.007862,0.159804,-0.790960,-0.590630,-0.001829,0.005407,0.005990,4.491211,-19.764748,-19.349983,,,,,,,
1512176726.405954,0.264058,0.911735,0.892237,-0.045907,0.007581,0.009519,0.159830,-0.790568,-0.591149,0.003180,0.003336,-0.003639,4.339218,-20.214973,-19.273933,,,,,,,
1512176726.425943,0.263449,0.910879,0.892946,-0.043732,-0.004153,0.007382,0.159646,-0.790043,-0.591899,0.001639,0.005497,-0.001698,4.340118,-19.989967,-19.498817,,,,,,,
1512176726.445932,0.262839,0.910372,0.893619,-0.020378,-0.003064,0.013053,0.159389,-0.789732,-0.592384,0.001012,0.003981,-0.006829,4.342178,-19.539970,-19.423607,,,,,,,
1512176726.465952,0.262405,0.910351,0.894132,0.002978,0.000162,0.018731,0.159136,-0.789719,-0.592469,-0.001223,0.004929,-0.003372,4.415771,-19.839851,-19.574379,,,,,,,
1512176726.485941,0.262033,0.910659,0.894744,0.011441,0.003374,0.023130,0.158853,-0.789908,-0.592292,0.001242,0.004142,-0.002785,4.417068,-19.539848,-19.649239,,,,,,,
1512176726.505960,0.261574,0.910827,0.895353,-0.002364,0.000155,0.019721,0.158546,-0.790011,-0.592238,-0.003944,0.004702,0.005110,4.266174,-19.765083,-19.423073,,,,,,,
1512176726.525949,0.260916,0.910719,0.896082,-0.016239,-0.007344,0.020561,0.158179,-0.789945,-0.592424,-0.004538,0.010007,0.004076,4.416245,-19.764854,-19.274361,,,,,,,
1512176726.545938,0.260394,0.910297,0.896738,-0.024586,0.005480,0.009822,0.157956,-0.789686,-0.592828,-0.003003,0.007810,-0.000861,4.266846,-19.615074,-19.423012,,,,,,,
1512176726.565958,0.260141,0.910103,0.897246,-0.003348,0.006574,0.015467,0.157845,-0.789567,-0.593016,0.004692,0.005510,-0.002748,4.417145,-19.539848,-19.499245,,,,,,,
1512176726.585947,0.260048,0.910227,0.897611,0.004248,0.011938,0.007064,0.157764,-0.789643,-0.592937,0.002789,0.007783,-0.001149,4.040833,-19.840416,-19.421196,,,,,,,
1512176726.605966,0.259926,0.910027,0.897757,-0.019121,-0.009447,0.001323,0.157733,-0.789520,-0.593109,0.007535,0.003525,-0.005784,4.341812,-19.614967,-19.498634,,,,,,,
1512176726.625955,0.259269,0.909556,0.898103,-0.025545,-0.020142,0.002258,0.157438,-0.789231,-0.593571,0.005373,0.005418,-0.004375,4.339859,-20.064964,-19.348839,,,,,,,
1512176726.645944,0.258782,0.909472,0.898443,0.006270,-0.003029,0.012369,0.157166,-0.789180,-0.593712,0.000457,0.006816,0.000313,4.340454,-19.914970,-19.498772,,,,,,,
1512176726.665964,0.258890,0.909807,0.898564,0.014970,0.020509,0.004053,0.157163,-0.789385,-0.593440,-0.003308,0.005785,0.007044,4.113434,-20.365318,-19.497078,,,,,,,
1512176726.685953,0.259416,0.909880,0.898428,-0.000920,0.010883,-0.002608,0.157460,-0.789430,-0.593301,0.001369,0.000963,0.000635,4.191177,-19.765190,-19.422432,,,,,,,
1512176726.705972,0.259371,0.909721,0.898216,-0.003917,-0.013667,-0.016598,0.157465,-0.789333,-0.593429,-0.005198,0.011608,-0.000778,4.266617,-19.690086,-19.198036,,,,,,,
1512176726.725961,0.259500,0.909738,0.898126,0.007369,0.006593,0.011355,0.157538,-0.789343,-0.593396,0.004968,0.003088,-0.000659,4.267563,-19.465080,-19.347939,,,,,,,
1512176726.745950,0.259183,0.910008,0.898619,0.007270,0.002312,0.017737,0.157296,-0.789509,-0.593240,-0.001305,0.004963,-0.005057,4.116852,-19.615303,-19.421730,,,,,,,
1512176726.765970,0.258795,0.909935,0.899022,-0.015007,-0.012665,0.009898,0.157080,-0.789464,-0.593357,-0.000296,0.003713,-0.008587,4.341171,-19.764977,-19.423714,,,,,,,
1512176726.785959,0.258058,0.909680,0.899446,-0.010728,-0.020132,0.008869,0.156694,-0.789307,-0.593668,-0.000109,0.002335,-0.011450,4.190872,-19.840187,-19.347466,,,,,,,
1512176726.805978,0.257691,0.909931,0.899680,0.023342,0.000210,0.012632,0.156426,-0.789462,-0.593533,-0.001961,0.001483,-0.000416,4.491730,-19.614738,-19.649910,,,,,,,
1512176726.825967,0.257891,0.910590,0.899824,0.028750,0.023722,0.008526,0.156412,-0.789866,-0.592999,-0.003000,0.003336,0.004391,4.343491,-19.239967,-19.498466,,,,,,,
1512176726.845956,0.258227,0.910843,0.899734,0.003299,0.007677,-0.000427,0.156560,-0.790021,-0.592753,-0.000005,0.004468,0.005411,4.716476,-19.689415,-19.501869,,,,,,,
1512176726.865976,0.258296,0.910710,0.899689,-0.007269,-0.001937,-0.005942,0.156628,-0.789939,-0.592843,0.000217,0.008064,0.002115,4.490463,-19.914742,-19.500053,,,,,,,
1512176726.885965,0.258494,0.910768,0.899551,0.013943,0.008761,0.000797,0.156734,-0.789975,-0.592768,0.006978,0.005917,-0.000539,4.191391,-19.690193,-19.647408,,,,,,,
1512176726.905985,0.258544,0.911297,0.899720,0.025444,0.006618,0.014817,0.156656,-0.790299,-0.592356,0.001486,0.006730,-0.003225,4.116470,-19.690315,-19.496758,,,,,,,
1512176726.925974,0.258448,0.911687,0.899922,0.010655,0.002337,0.006058,0.156521,-0.790538,-0.592074,-0.002102,0.005732,0.000811,4.265503,-19.915077,-19.423149,,,,,,,
1512176726.945963,0.258489,0.911813,0.900031,0.003184,0.004463,0.007025,0.156519,-0.790615,-0.591971,0.000875,0.004833,-0.002176,4.340759,-19.839973,-19.573738,,,,,,,
1512176726.965982,0.258298,0.911998,0.900342,0.008350,0.002314,0.016686,0.156369,-0.790729,-0.591859,0.002460,0.008121,-0.000304,4.490387,-19.914742,-19.650047,,,,,,,
1512176726.985971,0.257778,0.912215,0.901000,0.002889,-0.001985,0.024053,0.156018,-0.790861,-0.591774,-0.003323,0.007017,0.001702,4.191437,-19.690193,-19.572395,,,,,,,
1512176727.005991,0.257347,0.912239,0.901583,-0.007584,0.005500,0.013267,0.155757,-0.790876,-0.591823,-0.006023,0.003858,0.004131,4.040466,-19.915413,-19.496223,,,,,,,
1512176727.025980,0.256927,0.912005,0.902253,-0.022592,0.000129,0.018363,0.155556,-0.790733,-0.592067,0.002907,0.002540,-0.008397,4.266022,-19.765083,-19.723076,,,,,,,
1512176727.045969,0.256138,0.911725,0.903005,-0.014065,-0.014814,0.017367,0.155145,-0.790561,-0.592404,0.003882,0.006275,-0.012668,4.191742,-19.615196,-19.647362,,,,,,,
1512176727.065988,0.255514,0.911858,0.903497,0.012587,-0.008364,0.017776,0.154749,-0.790643,-0.592399,0.004660,0.002435,-0.006340,4.417145,-19.539848,-19.499245,,,,,,,
1512176727.085977,0.255153,0.912532,0.903853,0.038191,-0.001913,0.017104,0.154400,-0.791055,-0.591940,0.001056,0.003335,-0.002726,4.040802,-19.840416,-19.496193,,,,,,,
1512176727.105997,0.255345,0.913310,0.903907,0.034035,0.013043,0.010697,0.154358,-0.791531,-0.591314,0.002761,0.005261,-0.001368,4.038437,-20.365425,-19.496437,,,,,,,
1512176727.125986,0.255343,0.913951,0.903949,0.030867,-0.001909,0.008468,0.154229,-0.791922,-0.590823,-0.001107,0.006369,0.005374,4.265381,-19.915077,-19.648140,,,,,,,
1512176727.145975,0.255330,0.914462,0.904006,0.017039,0.004484,0.007225,0.154119,-0.792235,-0.590433,-0.001638,0.006895,0.014231,4.417480,-19.464851,-19.499214,,,,,,,
1512176727.165980,0.255422,0.914396,0.904004,-0.017910,0.002320,-0.007148,0.154187,-0.792194,-0.590470,-0.003796,0.007847,0.008149,4.116577,-19.690315,-19.271767,,,,,,,
1512176727.185969,0.255535,0.913716,0.903880,-0.031731,-0.000900,-0.009491,0.154389,-0.791779,-0.590974,0.003234,0.005753,-0.002441,4.041092,-19.765419,-19.571159,,,,,,,
1512176727.205989,0.255483,0.913373,0.903829,-0.001996,-0.003005,-0.002672,0.154428,-0.791569,-0.591245,0.002448,0.012379,-0.001681,4.266434,-19.690086,-19.573036,,,,,,,
1512176727.225978,0.255794,0.913677,0.903781,0.021288,0.020506,0.008407,0.154550,-0.791755,-0.590963,0.004690,0.006446,0.003180,3.966583,-19.690529,-19.270500,,,,,,,
1512176727.245967,0.255803,0.914082,0.904029,0.009496,0.000187,0.011363,0.154474,-0.792003,-0.590652,0.000936,0.004756,-0.001328,4.190430,-19.915199,-19.572502,,,,,,,
1512176727.265986,0.255425,0.913708,0.904248,-0.035064,-0.018011,-0.002137,0.154326,-0.791774,-0.590997,-0.001891,0.003536,0.002374,4.116165,-19.765312,-19.421806,,,,,,,
1512176727.285975,0.254985,0.912931,0.904425,-0.032869,-0.008393,-0.006339,0.154222,-0.791299,-0.591660,-0.003343,0.004312,-0.006973,4.190384,-19.915199,-19.647499,,,,,,,
1512176727.305995,0.255258,0.912503,0.904278,-0.011488,0.015150,-0.008077,0.154468,-0.791038,-0.591945,0.001965,0.005271,-0.003193,3.964111,-20.215538,-19.495735,,,,,,,
1512176727.325984,0.255588,0.912501,0.904178,0.006525,0.008758,-0.001440,0.154664,-0.791036,-0.591896,0.002028,0.005758,-0.003960,4.267075,-19.540077,-19.647972,,,,,,,
1512176727.345973,0.255868,0.912535,0.903990,-0.002990,0.002342,-0.006932,0.154823,-0.791057,-0.591826,0.000313,0.000881,0.002272,4.191177,-19.765190,-19.422432,,,,,,,
1512176727.365993,0.255851,0.912298,0.903850,-0.014648,-0.007280,-0.011398,0.154860,-0.790912,-0.592011,-0.003676,0.003894,0.005081,4.191360,-19.690193,-19.722404,,,,,,,
1512176727.385982,0.256364,0.911772,0.903373,-0.022976,0.014089,-0.023174,0.155270,-0.790590,-0.592333,-0.003582,0.006746,0.004442,4.343094,-19.314964,-19.648506,,,,,,,
1512176727.406001,0.256896,0.911300,0.902997,-0.017791,0.009814,-0.013515,0.155680,-0.790301,-0.592611,0.003012,0.002093,-0.006388,4.116394,-19.690315,-19.646767,,,,,,,
1512176727.425990,0.257324,0.910919,0.902670,-0.011430,0.004474,-0.012378,0.156010,-0.790067,-0.592836,0.004177,0.006269,-0.009047,4.567032,-19.539635,-19.725517,,,,,,,
1512176727.445979,0.257538,0.910989,0.902316,0.018332,-0.004037,-0.007713,0.156122,-0.790111,-0.592749,0.008734,0.004130,-0.010782,4.341171,-19.764977,-19.423714,,,,,,,
1512176727.465999,0.257900,0.911483,0.901927,0.027916,0.012004,-0.005383,0.156237,-0.790413,-0.592315,0.001859,0.005852,0.000137,4.267181,-19.540077,-19.422966,,,,,,,
1512176727.485988,0.258370,0.911914,0.901608,0.019349,0.007713,-0.003390,0.156429,-0.790677,-0.591912,-0.001522,0.006848,0.000405,4.492813,-19.389748,-19.499809,,,,,,,
1512176727.506007,0.258716,0.911953,0.901246,-0.002872,0.002354,-0.014394,0.156626,-0.790701,-0.591828,-0.004999,0.009039,0.007584,4.266464,-19.690086,-19.498039,,,,,,,
1512176727.525996,0.259199,0.911587,0.900785,-0.016670,0.007681,-0.017774,0.156986,-0.790477,-0.592032,-0.000660,0.003947,0.004202,4.191467,-19.690193,-19.497398,,,,,,,
1512176727.545985,0.259898,0.911170,0.900122,-0.013284,0.011978,-0.029438,0.157484,-0.790221,-0.592241,-0.001707,0.011016,0.007829,4.492111,-19.539742,-19.574883,,,,,,,
1512176727.566005,0.260892,0.910673,0.899323,-0.018673,0.015170,-0.025239,0.158174,-0.789917,-0.592463,0.003295,0.004623,0.002284,4.417419,-19.464851,-19.649208,,,,,,,
1512176727.585994,0.261335,0.910208,0.898886,-0.017731,0.001275,-0.017809,0.158531,-0.789631,-0.592748,0.002815,0.005574,-0.005229,4.490768,-19.839745,-19.575020,,,,,,,
1512176727.606013,0.261603,0.909974,0.898475,-0.000760,-0.005120,-0.013323,0.158738,-0.789488,-0.592884,0.002898,0.003248,-0.007519,4.341812,-19.614967,-19.498634,,,,,,,
1512176727.626002,0.261956,0.910000,0.897985,0.006757,0.000238,-0.016393,0.158942,-0.789504,-0.592808,-0.001426,0.003508,-0.009365,4.266541,-19.690086,-19.348030,,,,,,,
1512176727.645991,0.262338,0.909879,0.897361,-0.004908,-0.010455,-0.020865,0.159193,-0.789429,-0.592839,0.000246,-0.000228,-0.007365,4.266815,-19.615074,-19.498009,,,,,,,
1512176727.666011,0.262673,0.909773,0.896700,0.004715,0.000246,-0.021753,0.159413,-0.789365,-0.592867,-0.006398,0.007977,-0.002074,4.490387,-19.914742,-19.650047,,,,,,,
1512176727.686000,0.263747,0.910002,0.895799,0.027113,0.025915,-0.021340,0.160003,-0.789505,-0.592521,-0.000747,0.006897,0.003531,4.491501,-19.689751,-19.424950,,,,,,,
1512176727.706019,0.265062,0.910446,0.894904,0.027167,0.028058,-0.024530,0.160690,-0.789777,-0.591972,-0.000427,0.012052,0.001060,4.565125,-19.989632,-19.500725,,,,,,,
1512176727.726008,0.266365,0.910504,0.893838,-0.002529,0.021626,-0.033508,0.161449,-0.789813,-0.591717,0.003590,0.008410,0.007199,4.565720,-19.839638,-19.650658,,,,,,,
1512176727.745997,0.267189,0.910036,0.892915,-0.020654,-0.000835,-0.034917,0.162035,-0.789526,-0.591941,0.005049,0.004720,0.001365,4.640396,-19.914513,-19.651329,,,,,,,
1512176727.766017,0.267803,0.909454,0.892018,-0.020690,-0.004043,-0.032796,0.162519,-0.789168,-0.592284,0.000399,0.005584,0.003341,4.641068,-19.764519,-19.651253,,,,,,,
1512176727.786006,0.268686,0.908900,0.890863,-0.017417,0.009855,-0.036966,0.163158,-0.788828,-0.592562,-0.000469,0.003535,0.002886,4.340683,-19.839973,-19.723747,,,,,,,
1512176727.806025,0.269537,0.908471,0.890049,-0.011177,0.010914,-0.027277,0.163753,-0.788565,-0.592749,0.001668,0.006216,-0.000772,4.492523,-19.464745,-19.424843,,,,,,,
1512176727.826015,0.270356,0.908142,0.889425,-0.007025,0.019447,-0.020794,0.164308,-0.788362,-0.592864,-0.003694,0.003328,-0.004884,4.641144,-19.764519,-19.501259,,,,,,,
1512176727.846004,0.271150,0.908008,0.888940,-0.000737,0.021586,-0.013229,0.164806,-0.788279,-0.592836,0.002171,0.001796,-0.006026,4.566467,-19.689629,-19.500587,,,,,,,
1512176727.866023,0.271545,0.908058,0.888835,0.007550,0.010888,0.000712,0.165030,-0.788310,-0.592732,0.004312,0.002590,-0.017543,4.342484,-19.464958,-19.498573,,,,,,,
1512176727.886012,0.271750,0.908252,0.888681,0.013972,0.002355,-0.001357,0.165110,-0.788430,-0.592551,0.000920,-0.001228,-0.008279,4.716171,-19.764412,-19.426903,,,,,,,
1512176727.906032,0.272129,0.908581,0.888386,0.021537,0.005582,-0.007633,0.165265,-0.788632,-0.592239,-0.000501,0.000928,-0.005448,4.715958,-19.839409,-19.201942,,,,,,,
1512176727.926021,0.272692,0.908911,0.887663,0.022832,-0.001863,-0.021498,0.165528,-0.788835,-0.591895,-0.003495,0.004289,-0.003152,4.565430,-19.914635,-19.575691,,,,,,,
1512176727.946010,0.273429,0.909325,0.886756,0.033438,0.005621,-0.018121,0.165876,-0.789089,-0.591458,-0.002195,0.005505,0.000821,4.490463,-19.914742,-19.500053,,,,,,,
1512176727.966029,0.274509,0.910103,0.885865,0.049389,0.030207,-0.014607,0.166348,-0.789567,-0.590688,0.000629,0.009629,0.006932,4.189407,-20.140190,-19.572609,,,,,,,
1512176727.986018,0.275754,0.910783,0.885091,0.029146,0.024841,-0.014916,0.166938,-0.789984,-0.589963,0.002786,0.010794,0.001875,4.713409,-20.364418,-19.577171,,,,,,,
1512176728.006038,0.276507,0.910831,0.884302,-0.002628,-0.002956,-0.029334,0.167372,-0.790013,-0.589801,0.003511,0.009099,0.005618,4.639496,-20.139519,-19.426430,,,,,,,
1512176728.026027,0.276799,0.910487,0.883664,-0.011324,-0.011536,-0.019896,0.167618,-0.789803,-0.590013,0.004516,0.005242,0.003893,4.640396,-19.914513,-19.651329,,,,,,,
1512176728.046016,0.277279,0.910337,0.882921,0.005975,0.003475,-0.033450,0.167934,-0.789711,-0.590047,-0.003062,0.014671,0.000905,4.641068,-19.764519,-19.651253,,,,,,,
1512176728.066035,0.278360,0.910442,0.882116,0.014193,0.020538,-0.014084,0.168548,-0.789775,-0.589786,0.002411,0.005214,0.001224,4.566177,-19.764641,-19.425621,,,,,,,
1512176728.086024,0.279113,0.910517,0.881461,0.003670,0.005587,-0.022816,0.168977,-0.789821,-0.589602,-0.001649,0.002330,-0.000242,4.789490,-20.139290,-19.427711,,,,,,,
1512176728.106044,0.279616,0.910137,0.880786,-0.020777,-0.002985,-0.027463,0.169356,-0.789588,-0.589805,-0.001814,0.000388,0.001426,4.715805,-19.839409,-19.501930,,,,,,,
1512176728.126033,0.280142,0.909405,0.880107,-0.030296,-0.001922,-0.031861,0.169826,-0.789138,-0.590271,-0.001415,0.002166,-0.006866,4.491135,-19.764748,-19.499977,,,,,,,
1512176728.146022,0.280601,0.908888,0.879444,-0.009146,-0.004048,-0.021969,0.170210,-0.788821,-0.590585,0.001131,0.000628,-0.006507,4.941177,-19.764076,-19.428810,,,,,,,
1512176728.166019,0.281155,0.909038,0.878950,0.021595,0.017337,-0.010791,0.170504,-0.788913,-0.590377,0.000288,0.009250,-0.003785,4.715469,-19.914406,-19.501961,,,,,,,
1512176728.186008,0.281955,0.909509,0.878476,0.028953,0.016269,-0.004291,0.170872,-0.789202,-0.589883,0.000606,0.006610,-0.001349,4.790466,-19.914299,-19.502602,,,,,,,
1512176728.206028,0.282268,0.909884,0.878197,0.015088,-0.000842,-0.004550,0.170975,-0.789433,-0.589545,-0.002060,0.012669,0.006797,4.790726,-19.839287,-19.652565,,,,,,,
1512176728.226017,0.282374,0.909890,0.878068,-0.005277,-0.001957,0.001545,0.171036,-0.789436,-0.589523,0.004211,0.008766,0.006637,5.091507,-19.688850,-19.430046,,,,,,,
1512176728.246006,0.281956,0.909624,0.878410,-0.021386,-0.005199,0.008764,0.170848,-0.789273,-0.589796,0.002492,0.010327,0.004926,4.941849,-19.614067,-19.428749,,,,,,,
1512176728.266026,0.281583,0.909309,0.878899,-0.015035,0.000148,0.012074,0.170698,-0.789079,-0.590099,0.006655,0.007707,-0.002751,4.715546,-19.914406,-19.351967,,,,,,,
1512176728.286015,0.280906,0.909212,0.879579,-0.008792,-0.006272,0.020669,0.170319,-0.789020,-0.590288,0.002594,0.009097,0.001024,4.640762,-19.839516,-19.576286,,,,,,,
1512176728.306035,0.280529,0.909161,0.880180,-0.009751,0.008695,0.015378,0.170107,-0.788989,-0.590390,0.000776,0.007342,0.006451,4.941818,-19.614067,-19.503746,,,,,,,
1512176728.326024,0.280269,0.908895,0.880641,-0.021322,0.001220,0.005591,0.170012,-0.788825,-0.590636,-0.002486,0.004752,0.003478,4.940872,-19.839073,-19.353844,,,,,,,
1512176728.346013,0.280059,0.908314,0.880942,-0.034067,0.001203,0.002205,0.170015,-0.788468,-0.591112,0.000487,0.001480,0.000582,4.792603,-19.464287,-19.277397,,,,,,,
1512176728.366032,0.279583,0.907698,0.881411,-0.033106,-0.008418,0.008584,0.169867,-0.788089,-0.591660,-0.000113,0.001132,-0.013733,5.091812,-19.613838,-19.505013,,,,,,,
1512176728.386021,0.279053,0.907273,0.881954,-0.019287,0.000140,0.010944,0.169646,-0.787827,-0.592072,-0.000456,0.002320,-0.007965,4.792831,-19.389290,-19.502357,,,,,,,
1512176728.406040,0.278657,0.907348,0.882522,0.008261,0.001235,0.022011,0.169395,-0.787873,-0.592082,0.002510,0.004823,-0.010350,4.791138,-19.764290,-19.502541,,,,,,,
1512176728.426029,0.278412,0.907730,0.882913,0.014789,0.004461,0.013586,0.169168,-0.788108,-0.591834,-0.001336,0.003547,0.000785,4.788208,-20.364296,-19.952812,,,,,,,
1512176728.446018,0.278079,0.907904,0.883211,0.002066,-0.010500,0.009087,0.168933,-0.788216,-0.591758,-0.000659,0.003655,0.003150,4.642151,-19.539513,-19.501152,,,,,,,
1512176728.466038,0.277787,0.907823,0.883408,-0.009544,-0.001958,0.002553,0.168777,-0.788166,-0.591869,-0.001526,0.007495,0.006664,4.417526,-19.464851,-19.424217,,,,,,,
1512176728.486027,0.277326,0.907464,0.883800,-0.023590,-0.009483,0.012981,0.168582,-0.787945,-0.592219,0.003431,0.006817,-0.001440,4.792862,-19.389290,-19.427361,,,,,,,
1512176728.506047,0.276433,0.907201,0.884631,-0.014192,-0.010560,0.024840,0.168110,-0.787783,-0.592568,0.002972,0.005450,-0.004279,4.492111,-19.539742,-19.574883,,,,,,,
1512176728.526036,0.275580,0.907345,0.885496,0.007086,-0.005188,0.028368,0.167573,-0.787871,-0.592602,-0.000154,0.006255,-0.003818,4.716858,-19.614403,-19.426826,,,,,,,
1512176728.546025,0.275215,0.907597,0.886106,0.004093,0.009785,0.016650,0.167303,-0.788027,-0.592472,0.001230,0.007372,0.003147,4.565903,-19.764641,-19.950615,,,,,,,
1512176728.566045,0.274655,0.907531,0.886756,-0.014142,-0.014826,0.021628,0.166985,-0.787986,-0.592616,0.006187,0.005378,0.002620,4.490875,-19.839745,-19.350014,,,,,,,
1512176728.586034,0.273714,0.907349,0.887469,-0.011920,-0.014811,0.016331,0.166466,-0.787874,-0.592911,-0.002877,0.009645,0.007889,4.567749,-19.389626,-19.650444,,,,,,,
1512176728.606052,0.273196,0.907359,0.888008,0.000861,0.000160,0.017634,0.166157,-0.787880,-0.592990,-0.001789,0.005760,0.004809,4.566391,-19.689629,-19.650581,,,,,,,
1512176728.626041,0.273015,0.907341,0.888488,-0.015002,0.011904,0.011051,0.166054,-0.787869,-0.593034,-0.002189,0.010617,0.005830,4.715775,-19.839409,-19.576927,,,,,,,
1512176728.646030,0.272668,0.906751,0.889054,-0.042701,-0.004163,0.008459,0.165973,-0.787506,-0.593539,0.002164,0.005157,-0.002134,4.416809,-19.614861,-19.499275,,,,,,,
1512176728.666050,0.271993,0.906063,0.889724,-0.032077,-0.007353,0.010734,0.165718,-0.787081,-0.594173,0.003182,0.006197,-0.002950,4.640762,-19.839516,-19.576286,,,,,,,
1512176728.686039,0.271142,0.905822,0.890666,-0.010061,-0.005228,0.033448,0.165263,-0.786932,-0.594496,0.003759,0.001929,-0.010423,4.566132,-19.764641,-19.500618,,,,,,,
1512176728.706059,0.270174,0.905828,0.891790,-0.013186,-0.002019,0.029150,0.164686,-0.786936,-0.594651,-0.005277,0.006785,-0.003829,4.417419,-19.464851,-19.649208,,,,,,,
1512176728.726048,0.269406,0.905492,0.892785,-0.034428,-0.002041,0.024579,0.164300,-0.786729,-0.595032,0.000450,0.002427,-0.001678,4.417526,-19.464851,-19.424217,,,,,,,
1512176728.746037,0.268367,0.904873,0.893887,-0.037696,-0.013807,0.027686,0.163810,-0.786347,-0.595672,0.004708,0.002808,-0.008515,4.266815,-19.615074,-19.498009,,,,,,,
1512176728.766057,0.267243,0.904705,0.894882,-0.000420,-0.020165,0.029269,0.163175,-0.786243,-0.595983,0.003634,0.005389,-0.008722,4.490829,-19.839745,-19.425026,,,,,,,
1512176728.786046,0.266342,0.905252,0.895634,0.029463,-0.005164,0.027621,0.162526,-0.786581,-0.595715,-0.000950,0.004476,-0.001529,4.341812,-19.614967,-19.498634,,,,,,,
1512176728.806066,0.266070,0.905773,0.896115,0.013622,0.006585,0.019974,0.162255,-0.786902,-0.595364,0.000693,0.000632,0.004482,4.266846,-19.615074,-19.423012,,,,,,,
1512176728.826055,0.265631,0.905786,0.896556,-0.010727,-0.008386,0.008908,0.161991,-0.786911,-0.595425,-0.001499,0.009185,0.005001,4.265839,-19.840080,-19.423103,,,,,,,
1512176728.846044,0.265179,0.905458,0.896941,-0.020375,-0.009476,0.011962,0.161790,-0.786708,-0.595747,0.003082,0.005809,0.006117,4.267075,-19.540077,-19.647972,,,,,,,
1512176728.866062,0.264413,0.905272,0.897612,-0.010865,-0.010544,0.016357,0.161372,-0.786593,-0.596012,-0.002329,0.012286,0.004597,4.190796,-19.840187,-19.497475,,,,,,,
1512176728.886051,0.264246,0.905215,0.897992,-0.004319,0.012986,0.009074,0.161284,-0.786558,-0.596082,0.001619,0.010038,0.008131,4.191284,-19.690193,-19.872398,,,,,,,
1512176728.906071,0.264106,0.905040,0.898304,-0.018073,0.000163,0.002436,0.161237,-0.786450,-0.596237,0.001743,0.007748,0.003418,3.892075,-19.540642,-19.644783,,,,,,,
1512176728.926060,0.263745,0.904474,0.898480,-0.031893,-0.019081,-0.001031,0.161137,-0.786100,-0.596726,0.005260,0.004728,0.003464,4.566101,-19.764641,-19.575615,,,,,,,
1512176728.946049,0.262995,0.903968,0.898949,-0.025674,-0.014821,0.009734,0.160793,-0.785788,-0.597230,-0.002635,0.003195,0.000916,4.492447,-19.464745,-19.574837,,,,,,,
1512176728.966069,0.262541,0.903633,0.899396,-0.018204,0.000144,0.009894,0.160590,-0.785580,-0.597557,-0.006232,0.003979,-0.005149,4.342407,-19.464958,-19.648567,,,,,,,
1512176728.986058,0.262156,0.903308,0.899914,-0.018249,-0.000926,0.013090,0.160426,-0.785379,-0.597866,-0.002574,0.004770,-0.010151,4.192856,-19.390190,-19.422264,,,,,,,
1512176729.006078,0.261673,0.903085,0.900442,-0.011898,-0.001994,0.015308,0.160183,-0.785241,-0.598113,0.004643,0.002175,-0.003938,4.416809,-19.614861,-19.499275,,,,,,,
1512176729.026067,0.260940,0.903082,0.901181,-0.001363,-0.010535,0.022895,0.159745,-0.785239,-0.598232,0.002761,0.007071,-0.011403,4.192520,-19.465187,-19.422295,,,,,,,
1512176729.046056,0.260468,0.903221,0.901646,0.005190,0.000172,0.013431,0.159435,-0.785325,-0.598202,0.001683,0.002976,-0.000263,4.192780,-19.390190,-19.572258,,,,,,,
1512176729.066074,0.259975,0.903404,0.902098,0.005116,-0.015855,0.017641,0.159102,-0.785438,-0.598142,0.001313,0.002861,-0.002521,4.266068,-19.765083,-19.648079,,,,,,,
1512176729.086063,0.259380,0.903509,0.902459,0.002047,-0.012646,0.009075,0.158726,-0.785503,-0.598156,-0.002018,0.006328,0.000607,4.264709,-20.065086,-19.648216,,,,,,,
1512176729.106083,0.259137,0.903602,0.902665,0.004228,-0.000885,0.007017,0.158561,-0.785561,-0.598124,0.000618,0.007607,-0.001089,4.265350,-19.915077,-19.723137,,,,,,,
1512176729.126072,0.258977,0.903734,0.902882,0.004194,0.002314,0.009159,0.158439,-0.785643,-0.598049,0.001824,0.008162,0.007381,4.040466,-19.915413,-19.496223,,,,,,,
1512176729.146061,0.258736,0.903608,0.903249,-0.022426,0.000137,0.006632,0.158320,-0.785565,-0.598183,-0.000773,0.008801,0.009178,4.490799,-19.839745,-19.500023,,,,,,,
1512176729.166060,0.258480,0.902729,0.903435,-0.054102,-0.008417,-0.011979,0.158343,-0.785020,-0.598891,-0.001498,0.006319,0.008162,4.341400,-19.689964,-19.648674,,,,,,,
1512176729.186049,0.258195,0.901670,0.903591,-0.047823,-0.010554,-0.004430,0.158385,-0.784364,-0.599740,0.007676,0.000581,-0.003761,4.266022,-19.765083,-19.723076,,,,,,,
1512176729.206069,0.257888,0.900920,0.903709,-0.027546,-0.009456,-0.006267,0.158351,-0.783898,-0.600357,-0.000514,0.005242,-0.006684,4.491364,-19.689751,-19.724953,,,,,,,
1512176729.226058,0.257738,0.900753,0.903854,0.001028,0.000176,0.006973,0.158294,-0.783795,-0.600507,0.001038,0.003674,-0.009433,4.342529,-19.464958,-19.423576,,,,,,,
1512176729.246047,0.257555,0.900910,0.904058,0.004246,-0.000883,0.005951,0.158153,-0.783892,-0.600417,-0.004207,0.006945,-0.007890,4.417679,-19.389854,-19.799171,,,,,,,
1512176729.266066,0.257465,0.900909,0.904156,-0.002133,-0.000892,0.004792,0.158099,-0.783892,-0.600432,-0.003543,0.001055,0.000411,4.492477,-19.464745,-19.499840,,,,,,,
1512176729.286056,0.257400,0.900768,0.904183,-0.011546,0.000185,-0.006000,0.158088,-0.783804,-0.600549,-0.004524,0.003897,0.001245,4.265686,-19.840080,-19.723106,,,,,,,
1512176729.306075,0.257519,0.900284,0.904109,-0.029622,0.003370,-0.008382,0.158257,-0.783503,-0.600897,0.001366,0.007014,0.004370,4.717484,-19.464409,-19.501762,,,,,,,
1512176729.326064,0.257332,0.899468,0.904102,-0.040239,-0.015867,-0.011800,0.158307,-0.782996,-0.601545,0.000644,0.008704,0.000379,4.192673,-19.390190,-19.797264,,,,,,,
1512176729.346053,0.256831,0.898767,0.904329,-0.034089,-0.012683,0.003224,0.158144,-0.782560,-0.602155,0.003477,0.005827,0.002240,4.192032,-19.540184,-19.722328,,,,,,,
1512176729.366073,0.256225,0.898428,0.904753,-0.009670,-0.009457,0.008917,0.157847,-0.782349,-0.602507,0.000951,0.011978,-0.004015,4.418427,-19.239861,-19.649101,,,,,,,
1512176729.386062,0.256234,0.898462,0.904979,0.002116,0.018342,0.007055,0.157845,-0.782370,-0.602480,0.002769,0.004660,0.004991,4.042374,-19.465416,-19.721016,,,,,,,
1512176729.406081,0.256262,0.898416,0.905304,-0.013985,0.007623,0.013180,0.157872,-0.782341,-0.602510,0.008602,-0.001701,0.004381,4.266739,-19.615074,-19.648003,,,,,,,
1512176729.426070,0.255222,0.897736,0.906279,-0.055751,-0.026643,0.023117,0.157379,-0.781918,-0.603189,0.005936,-0.000904,0.003793,3.816925,-19.540749,-19.944145,,,,,,,
1512176729.446059,0.253918,0.896583,0.907198,-0.063954,-0.024485,0.002747,0.156819,-0.781198,-0.604266,-0.005375,0.008631,0.000308,3.892715,-19.390648,-19.719704,,,,,,,
1512176729.466079,0.253347,0.895479,0.907614,-0.050124,-0.010582,0.005128,0.156690,-0.780509,-0.605190,0.003711,0.000403,-0.010090,4.043457,-19.240410,-19.570915,,,,,,,
1512176729.486068,0.252605,0.894798,0.908200,-0.030964,-0.010552,0.007540,0.156374,-0.780083,-0.605820,-0.004991,0.008278,-0.010315,4.267487,-19.465080,-19.497932,,,,,,,
1512176729.506087,0.252370,0.894467,0.908377,-0.009593,-0.001970,0.004681,0.156296,-0.779876,-0.606107,-0.001572,0.007567,-0.005588,4.116058,-19.765312,-19.646797,,,,,,,
1512176729.526076,0.251867,0.894601,0.908861,0.008226,-0.010522,0.023034,0.155965,-0.779959,-0.606085,-0.003682,0.009848,-0.004679,4.193420,-19.240196,-19.647194,,,,,,,
1512176729.546096,0.251329,0.894704,0.909495,-0.007716,0.004412,0.020722,0.155618,-0.780024,-0.606090,-0.003259,0.006464,0.005794,4.041061,-19.765419,-19.646156,,,,,,,
1512176729.566085,0.250597,0.894312,0.910453,-0.037643,-0.006326,0.024514,0.155251,-0.779778,-0.606501,0.001350,0.005502,0.000177,4.268051,-19.315086,-19.722862,,,,,,,
1512176729.586074,0.249509,0.893552,0.911367,-0.041758,-0.019132,0.014815,0.154737,-0.779303,-0.607243,-0.000089,0.007711,0.001148,4.341995,-19.539970,-19.798607,,,,,,,
1512176729.606093,0.248704,0.893127,0.912060,-0.012989,-0.012679,0.016322,0.154330,-0.779036,-0.607688,0.001905,0.003569,-0.006188,4.269470,-19.015083,-19.572716,,,,,,,
1512176729.626082,0.248187,0.893199,0.912583,0.000929,0.001234,0.013373,0.154002,-0.779081,-0.607713,-0.001750,0.006514,-0.001341,4.042343,-19.465416,-19.796028,,,,,,,
1512176729.646102,0.247830,0.893153,0.913027,-0.010781,-0.006257,0.012112,0.153793,-0.779052,-0.607803,0.000000,0.002121,-0.006119,4.268387,-19.240074,-19.722832,,,,,,,
1512176729.666091,0.247597,0.893072,0.913194,-0.005247,0.000180,-0.000581,0.153667,-0.779001,-0.607901,-0.002468,0.004725,0.003698,4.041931,-19.540413,-19.946053,,,,,,,
1512176729.686080,0.247585,0.893183,0.913271,0.011676,0.001262,0.008199,0.153639,-0.779071,-0.607818,0.001513,0.005283,0.000747,4.042404,-19.465416,-19.646019,,,,,,,
1512176729.706099,0.247380,0.893485,0.913428,0.015926,-0.003003,0.009314,0.153457,-0.779261,-0.607622,-0.000075,0.006449,0.003938,4.493454,-19.239738,-19.574745,,,,,,,
1512176729.726088,0.247314,0.893788,0.913654,0.009455,0.005518,0.013511,0.153359,-0.779451,-0.607403,-0.000755,0.005891,0.007351,3.892075,-19.540642,-19.644783,,,,,,,
1512176729.746108,0.246895,0.893661,0.914098,-0.020325,-0.012674,0.008753,0.153128,-0.779371,-0.607563,0.004022,0.005109,-0.003368,4.191666,-19.615196,-19.797371,,,,,,,
1512176729.766097,0.245660,0.893286,0.914826,-0.019571,-0.040485,0.025722,0.152449,-0.779136,-0.608036,0.008241,0.002463,-0.010892,3.892380,-19.465645,-19.719749,,,,,,,
1512176729.786086,0.244194,0.893582,0.915876,0.023896,-0.023357,0.041337,0.151502,-0.779321,-0.608034,0.000628,0.005075,-0.008833,3.816727,-19.615761,-19.644173,,,,,,,
1512176729.806106,0.243361,0.894616,0.916862,0.045217,0.002311,0.042802,0.150801,-0.779969,-0.607378,-0.002485,0.005204,0.000932,3.893082,-19.315636,-19.644676,,,,,,,
1512176729.826095,0.242454,0.895191,0.917697,0.004959,-0.024423,0.026134,0.150142,-0.780329,-0.607079,-0.003475,0.005808,-0.003288,3.893005,-19.315636,-19.794685,,,,,,,
1512176729.846114,0.241402,0.895049,0.918302,-0.013003,-0.028703,0.016265,0.149530,-0.780240,-0.607344,0.002448,-0.000629,0.000700,4.042450,-19.465416,-19.571022,,,,,,,
1512176729.866103,0.240193,0.895233,0.919105,0.018691,-0.027621,0.033785,0.148761,-0.780355,-0.607385,0.000119,0.010488,-0.004157,3.891357,-19.690651,-19.719841,,,,,,,
1512176729.886092,0.239520,0.896156,0.919738,0.048637,-0.002998,0.028973,0.148182,-0.780931,-0.606785,-0.003300,0.012255,0.001027,3.591431,-19.691093,-19.567299,,,,,,,
1512176729.906112,0.239050,0.897044,0.920289,0.027392,-0.000885,0.024409,0.147732,-0.781486,-0.606181,-0.008526,0.003272,0.005427,3.967255,-19.465523,-19.945381,,,,,,,
1512176729.926101,0.238641,0.897190,0.920662,-0.008599,-0.006249,0.008945,0.147457,-0.781577,-0.606130,0.000980,0.003135,0.007711,3.816696,-19.615761,-19.719170,,,,,,,
1512176729.946120,0.237979,0.896855,0.921056,-0.017141,-0.022287,0.008764,0.147118,-0.781368,-0.606482,0.005638,0.005886,-0.003061,4.042831,-19.390419,-19.495979,,,,,,,
1512176729.966109,0.237532,0.897043,0.921241,0.024406,-0.008346,0.010478,0.146812,-0.781485,-0.606405,0.005715,0.006492,-0.004115,3.817413,-19.465752,-19.644112,,,,,,,
1512176729.986098,0.237319,0.897887,0.921406,0.042465,-0.007254,0.015010,0.146528,-0.782011,-0.605795,-0.003080,0.007735,-0.001459,3.892517,-19.465645,-19.419746,,,,,,,
1512176730.006118,0.237138,0.898343,0.921425,0.005419,-0.008342,-0.000452,0.146334,-0.782296,-0.605475,-0.006198,0.003106,0.007666,3.891403,-19.690651,-19.644844,,,,,,,
1512176730.026107,0.237243,0.897936,0.921124,-0.028366,-0.001946,-0.020109,0.146473,-0.782043,-0.605768,-0.008792,0.007003,0.009379,3.667480,-19.465981,-19.492836,,,,,,,
1512176730.046126,0.238121,0.897115,0.920275,-0.029146,0.020512,-0.037102,0.147156,-0.781530,-0.606264,0.000854,0.004553,0.003221,3.666962,-19.540977,-19.867867,,,,,,,
1512176730.066115,0.239231,0.896774,0.919440,0.002648,0.021611,-0.024908,0.147892,-0.781318,-0.606359,0.006054,0.007041,-0.001704,3.742447,-19.465858,-19.568474,,,,,,,
1512176730.086104,0.240416,0.896935,0.918581,0.016518,0.030175,-0.025745,0.148580,-0.781418,-0.606061,0.003352,0.009339,0.002103,3.964005,-20.215538,-19.720726,,,,,,,
1512176730.106124,0.241271,0.896979,0.917808,-0.002779,-0.004046,-0.020814,0.149091,-0.781445,-0.605900,0.011035,0.006467,-0.008159,4.039902,-19.990425,-19.946266,,,,,,,
1512176730.126113,0.241368,0.896684,0.917413,-0.012535,-0.006218,-0.011369,0.149204,-0.781261,-0.606110,0.003216,0.005520,0.001923,3.816467,-19.690758,-19.494209,,,,,,,
1512176730.146132,0.241426,0.896714,0.917299,0.011850,0.000214,-0.002463,0.149234,-0.781280,-0.606078,-0.003818,0.008712,-0.002610,3.743652,-19.165871,-19.868340,,,,,,,
1512176730.166113,0.241768,0.897004,0.917020,0.016177,0.009843,-0.005564,0.149387,-0.781461,-0.605807,-0.007923,0.003263,0.000704,3.968277,-19.240532,-19.945274,,,,,,,
1512176730.186102,0.242060,0.897141,0.916693,0.005585,-0.004055,-0.011099,0.149538,-0.781547,-0.605659,-0.006319,0.005317,-0.002327,3.818115,-19.315758,-19.569038,,,,,,,
1512176730.206122,0.242537,0.896910,0.915983,-0.010097,-0.000836,-0.029437,0.149870,-0.781402,-0.605763,-0.009627,0.009308,0.000417,4.041733,-19.615410,-19.646095,,,,,,,
1512176730.226111,0.243146,0.896606,0.915275,-0.003867,0.003429,-0.018669,0.150296,-0.781212,-0.605903,0.000171,0.003518,0.002158,3.892929,-19.315636,-19.944679,,,,,,,
1512176730.246131,0.243814,0.896604,0.914753,0.003580,0.020524,-0.017438,0.150701,-0.781212,-0.605803,-0.004889,0.006920,0.002974,4.267639,-19.390083,-19.872902,,,,,,,
1512176730.266120,0.244992,0.896374,0.914004,-0.011133,0.032272,-0.030406,0.151459,-0.781067,-0.605800,-0.000976,0.000443,0.001567,3.818802,-19.165749,-19.568962,,,,,,,
1512176730.286109,0.246079,0.895889,0.912984,-0.014238,0.003443,-0.036946,0.152209,-0.780765,-0.606002,0.005444,0.003085,-0.005662,3.966736,-19.615532,-19.645454,,,,,,,
1512176730.306128,0.246911,0.895732,0.912058,0.007953,0.013064,-0.024865,0.152743,-0.780667,-0.605994,-0.001559,0.006375,0.002753,3.815979,-19.765755,-19.794243,,,,,,,
1512176730.326117,0.247999,0.895919,0.911200,0.014346,0.023758,-0.023667,0.153367,-0.780783,-0.605686,-0.007783,0.008933,0.001881,3.891693,-19.615639,-19.719810,,,,,,,
1512176730.346137,0.249007,0.895777,0.910447,-0.011215,0.017315,-0.025125,0.154004,-0.780695,-0.605638,-0.005033,0.007868,0.003832,3.817413,-19.465752,-19.644112,,,,,,,
1512176730.366126,0.249709,0.895022,0.909813,-0.040982,0.005529,-0.030928,0.154575,-0.780223,-0.606101,-0.001606,0.012538,-0.002450,3.892380,-19.465645,-19.719749,,,,,,,
1512176730.386115,0.250040,0.894188,0.909461,-0.029566,0.002310,-0.011582,0.154937,-0.779701,-0.606681,0.006181,0.003013,-0.008096,3.966354,-19.690529,-19.720482,,,,,,,
