timestamp(unix),attitude_roll(radians),attitude_pitch(radians),attitude_yaw(radians),rotation_rate_x(radians/s),rotation_rate_y(radians/s),rotation_rate_z(radians/s),gravity_x(G),gravity_y(G),gravity_z(G),user_acc_x(G),user_acc_y(G),user_acc_z(G),magnetic_field_x(microteslas),magnetic_field_y(microteslas),magnetic_field_z(microteslas),latitude(degree),longitude(degree),altitude(meter),speed(m/s),course(degree),timestamp(unix),User Mark
1512177343.080361,0.321167,0.861436,-2.824041,-0.140536,-0.218107,-0.040894,0.205614,-0.758778,-0.618043,-0.013246,0.018208,0.014772,-28.195053,-14.863777,-36.019707,,,,,,,
1512177343.100350,0.317523,0.858874,-2.823858,-0.106618,-0.123023,-0.025150,0.203967,-0.757108,-0.620633,-0.029833,0.019696,0.013913,-28.195953,-15.013771,-36.469780,,,,,,,
1512177343.120369,0.316494,0.857829,-2.823544,-0.023907,0.008429,0.008489,0.203574,-0.756424,-0.621594,-0.016318,0.014908,0.001447,-28.346481,-15.163994,-36.168571,,,,,,,
1512177343.140358,0.316893,0.858131,-2.823125,0.013211,0.038371,0.021925,0.203751,-0.756622,-0.621296,0.000625,0.005370,-0.001766,-28.720551,-14.939568,-36.315269,,,,,,,
1512177343.160348,0.316453,0.857878,-2.822722,-0.043035,-0.039662,0.001645,0.203537,-0.756457,-0.621567,0.007599,-0.004560,0.003220,-28.720505,-14.939568,-36.240273,,,,,,,
1512177343.180367,0.314855,0.856353,-2.822586,-0.085220,-0.083462,-0.027901,0.202900,-0.755458,-0.622988,0.001659,0.004924,0.003588,-28.947495,-15.389900,-36.163582,,,,,,,
1512177343.200356,0.313621,0.854870,-2.823082,-0.047703,-0.062016,-0.039008,0.202477,-0.754485,-0.624303,-0.004754,0.010055,0.005040,-28.872681,-15.464790,-35.864250,,,,,,,
1512177343.220376,0.313695,0.854362,-2.823954,0.003324,-0.010684,-0.027428,0.202641,-0.754152,-0.624653,-0.005070,0.010225,-0.000210,-28.718475,-14.489555,-36.240074,,,,,,,
1512177343.240365,0.313955,0.854575,-2.824724,0.016960,-0.020303,-0.014472,0.202754,-0.754292,-0.624447,-0.001613,0.006932,0.005718,-28.344421,-14.713997,-36.093361,,,,,,,
1512177343.260384,0.313805,0.854191,-2.825449,-0.033799,-0.036357,-0.040851,0.202750,-0.754040,-0.624753,-0.014090,0.014233,0.009015,-28.946442,-15.164894,-36.088463,,,,,,,
1512177343.280373,0.313530,0.852790,-2.826879,-0.058842,-0.083324,-0.075489,0.202904,-0.753119,-0.625813,-0.004997,0.006765,-0.004405,-29.022827,-15.465019,-36.162971,,,,,,,
1512177343.300362,0.313181,0.851252,-2.828604,-0.047122,-0.075834,-0.075296,0.203041,-0.752106,-0.626985,-0.006295,0.007966,-0.008117,-29.098953,-15.690132,-36.387444,,,,,,,
1512177343.320382,0.313537,0.850226,-2.830833,-0.013831,-0.039440,-0.088547,0.203503,-0.751430,-0.627646,-0.020764,0.009929,0.000113,-28.418365,-14.489113,-36.017616,,,,,,,
1512177343.340371,0.315183,0.850064,-2.833600,0.047053,-0.017966,-0.093983,0.204573,-0.751323,-0.627426,-0.002242,0.004771,-0.021973,-28.418930,-14.639107,-35.792686,,,,,,,
1512177343.360390,0.317142,0.850919,-2.836720,0.079745,-0.026499,-0.072215,0.205602,-0.751887,-0.626413,0.011836,-0.005392,-0.021292,-28.719269,-14.714561,-35.790184,,,,,,,
1512177343.380379,0.318380,0.851862,-2.839589,0.074524,-0.055337,-0.080923,0.206155,-0.752508,-0.625484,0.000846,0.003973,-0.010441,-28.644867,-14.864449,-35.640877,,,,,,,
1512177343.400368,0.319621,0.852610,-2.843303,0.073996,-0.080910,-0.115135,0.206754,-0.753000,-0.624694,-0.004926,-0.000708,0.009139,-28.348312,-15.614006,-35.793785,,,,,,,
1512177343.420388,0.320849,0.853104,-2.847021,0.053387,-0.064956,-0.091920,0.207404,-0.753325,-0.624086,0.000436,-0.018007,0.029543,-28.725723,-16.139565,-35.865837,,,,,,,
1512177343.440377,0.321718,0.853219,-2.849403,0.023141,-0.037280,-0.066677,0.207919,-0.753401,-0.623824,-0.009799,0.003828,0.011382,-28.945175,-14.939903,-35.563362,,,,,,,
1512177343.460396,0.323271,0.853276,-2.852327,0.045037,-0.023297,-0.101494,0.208874,-0.753438,-0.623460,-0.022625,0.022909,0.004761,-28.796265,-15.164665,-35.714745,,,,,,,
1512177343.480385,0.326377,0.853855,-2.856358,0.087974,0.024870,-0.116694,0.210669,-0.753819,-0.622394,-0.021780,0.018635,0.006900,-28.348312,-15.614006,-35.793785,,,,,,,
1512177343.500374,0.330767,0.855407,-2.860928,0.134943,0.056991,-0.119101,0.213019,-0.754838,-0.620356,-0.033423,0.034822,-0.009634,-28.574265,-15.839348,-35.641975,,,,,,,
1512177343.520394,0.336768,0.857854,-2.866485,0.206668,0.125496,-0.133814,0.216127,-0.756440,-0.617322,-0.031221,0.024019,-0.024051,-28.500305,-16.064232,-35.717705,,,,,,,
1512177343.540383,0.345361,0.862116,-2.872904,0.305611,0.234572,-0.116008,0.220330,-0.759221,-0.612403,-0.028863,0.020894,-0.012063,-28.124893,-15.988670,-35.570854,,,,,,,
1512177343.560402,0.355708,0.867908,-2.879533,0.356388,0.279458,-0.090600,0.225119,-0.762979,-0.605957,0.008371,-0.007560,-0.007904,-28.126312,-16.288673,-35.721001,,,,,,,
1512177343.580391,0.364561,0.873786,-2.884544,0.314701,0.237599,-0.020988,0.228872,-0.766764,-0.599741,0.043284,-0.045278,0.009332,-27.828995,-16.888222,-35.648827,,,,,,,
1512177343.600411,0.370495,0.878445,-2.887446,0.213118,0.160507,-0.005670,0.231131,-0.769747,-0.595035,0.018716,-0.032865,0.028644,-27.454666,-17.037666,-35.652092,,,,,,,
1512177343.620400,0.374789,0.880776,-2.890066,0.107236,0.093138,-0.053280,0.233027,-0.771233,-0.592366,0.001593,-0.012825,0.016987,-27.229858,-17.112328,-35.354027,,,,,,,
1512177343.640389,0.378671,0.881928,-2.893314,0.098087,0.069681,-0.081211,0.234995,-0.771966,-0.590631,0.005422,-0.001792,0.001962,-27.230270,-17.187325,-35.504066,,,,,,,
1512177343.660409,0.382934,0.883757,-2.896551,0.135705,0.110232,-0.033620,0.236983,-0.773127,-0.588313,0.018266,-0.018209,0.003260,-27.156250,-17.412209,-35.429817,,,,,,,
1512177343.680398,0.387254,0.886462,-2.898439,0.146786,0.162510,0.008299,0.238732,-0.774840,-0.585345,-0.002984,0.003020,-0.000226,-27.006012,-17.336983,-35.656044,,,,,,,
1512177343.700381,0.392081,0.889313,-2.900665,0.154736,0.146563,-0.021488,0.240710,-0.776639,-0.582142,0.004255,0.006315,-0.016430,-26.857300,-17.636772,-35.507454,,,,,,,
1512177343.720370,0.395993,0.891920,-2.903247,0.150442,0.072850,-0.023942,0.242204,-0.778279,-0.579326,0.005828,0.001957,0.034373,-27.008713,-17.936989,-35.656319,,,,,,,
1512177343.740359,0.397924,0.892797,-2.904850,-0.031812,0.018104,-0.028904,0.243057,-0.778829,-0.578228,0.030854,-0.031764,0.079906,-26.558228,-17.861320,-35.360115,,,,,,,
1512177343.760379,0.395145,0.889866,-2.904503,-0.181828,-0.189295,-0.056315,0.242327,-0.776987,-0.581005,0.056486,-0.034872,0.017071,-26.557251,-17.636314,-35.435020,,,,,,,
1512177343.780368,0.391007,0.887361,-2.904172,-0.057868,-0.141141,-0.008516,0.240662,-0.775408,-0.583800,0.015228,-0.003614,-0.043595,-27.007294,-17.636986,-35.506187,,,,,,,
1512177343.800387,0.390230,0.888975,-2.903711,0.127393,0.050180,0.080121,0.239731,-0.776426,-0.582829,-0.001954,-0.013399,-0.022960,-27.082672,-17.712105,-35.580574,,,,,,,
1512177343.820376,0.391282,0.892728,-2.902731,0.142048,0.092894,0.098605,0.239232,-0.778786,-0.579879,-0.011326,0.001488,0.028029,-27.082932,-17.787102,-35.430626,,,,,,,
1512177343.840365,0.390920,0.893975,-2.901993,-0.026181,-0.064222,0.013533,0.238652,-0.779567,-0.579067,-0.009617,0.002254,0.033810,-27.235443,-18.312340,-35.729576,,,,,,,
1512177343.860385,0.386523,0.890619,-2.902087,-0.211920,-0.305670,-0.112594,0.237088,-0.777461,-0.582531,0.018848,-0.000951,-0.000538,-27.008224,-17.861992,-35.356285,,,,,,,
1512177343.880374,0.378799,0.884767,-2.901794,-0.301186,-0.393484,-0.069419,0.234260,-0.773767,-0.588562,0.025704,-0.039267,-0.001312,-27.231812,-17.562325,-35.204247,,,,,,,
1512177343.900393,0.368841,0.879167,-2.899140,-0.279899,-0.396789,-0.003027,0.229946,-0.770208,-0.594898,0.003239,-0.012202,-0.046017,-27.755798,-17.338112,-35.199684,,,,,,,
1512177343.920382,0.359621,0.875092,-2.897047,-0.178428,-0.364566,-0.013171,0.225555,-0.767603,-0.599926,-0.038573,-0.000922,-0.048771,-28.129776,-17.113670,-35.196388,,,,,,,
1512177343.940402,0.352673,0.872762,-2.896599,-0.078988,-0.314177,-0.028611,0.221998,-0.766107,-0.603156,-0.026594,-0.001410,-0.054178,-28.504318,-17.039238,-34.968163,,,,,,,
1512177343.960391,0.350639,0.873833,-2.897869,0.160251,-0.061814,0.021574,0.220488,-0.766795,-0.602835,0.007768,-0.016942,-0.002848,-28.730103,-17.189583,-35.191322,,,,,,,
1512177343.980380,0.351179,0.878892,-2.898670,0.260664,-0.009434,0.075444,0.219476,-0.770032,-0.599065,0.045141,0.001218,-0.010157,-28.357590,-17.789009,-34.744789,,,,,,,
1512177344.000399,0.348455,0.883059,-2.898963,0.142575,-0.247768,0.049452,0.216746,-0.772684,-0.596640,0.039784,0.015039,0.005575,-28.354919,-17.189018,-34.819511,,,,,,,
1512177344.020388,0.340428,0.883760,-2.898245,-0.035176,-0.417829,0.024967,0.211770,-0.773129,-0.597850,-0.014458,0.009259,0.038234,-28.731201,-17.489586,-34.666466,,,,,,,
1512177344.040408,0.330392,0.882095,-2.897048,-0.112797,-0.449968,0.010937,0.206176,-0.772072,-0.601161,-0.057097,0.015450,0.054912,-29.254776,-17.190361,-34.511864,,,,,,,
1512177344.060397,0.322184,0.880480,-2.895220,-0.070725,-0.263054,0.054840,0.201629,-0.771045,-0.604015,-0.067093,0.028293,0.067302,-29.406570,-17.565590,-34.735756,,,,,,,
1512177344.080386,0.317653,0.880856,-2.892716,0.028899,-0.072851,0.099587,0.198800,-0.771284,-0.604647,-0.043344,0.035505,0.023699,-29.705673,-17.416039,-34.283150,,,,,,,
1512177344.100406,0.313883,0.881761,-2.890478,-0.012198,-0.130539,0.066806,0.196303,-0.771860,-0.604728,-0.024215,0.040048,0.003592,-29.556351,-17.565819,-34.284492,,,,,,,
1512177344.120395,0.308919,0.880346,-2.889289,-0.120710,-0.233085,-0.016142,0.193631,-0.770959,-0.606735,-0.025479,0.034738,0.007965,-29.703918,-17.041039,-34.132973,,,,,,,
1512177344.140414,0.304516,0.877272,-2.889530,-0.138983,-0.207371,-0.070688,0.191667,-0.768998,-0.609840,-0.018815,0.028885,0.007240,-29.928802,-17.041374,-33.906059,,,,,,,
1512177344.160403,0.302270,0.875156,-2.891431,-0.057466,-0.164459,-0.098138,0.190781,-0.767644,-0.611820,-0.001526,0.019505,0.004597,-30.079590,-17.191597,-34.129845,,,,,,,
1512177344.180423,0.301422,0.873789,-2.893997,-0.034063,-0.115301,-0.093367,0.190573,-0.766767,-0.612983,-0.010596,0.006376,0.023140,-30.005188,-17.341484,-33.980553,,,,,,,
1512177344.200412,0.301690,0.872512,-2.896616,-0.036071,-0.075767,-0.098587,0.191029,-0.765946,-0.613867,-0.010822,0.005311,0.024756,-30.307632,-17.866936,-34.128258,,,,,,,
1512177344.220401,0.301876,0.871199,-2.899285,-0.043406,-0.099261,-0.107303,0.191441,-0.765102,-0.614791,-0.016667,0.008846,0.030470,-30.157471,-17.866722,-33.829521,,,,,,,
1512177344.240420,0.302369,0.868883,-2.902578,-0.106637,-0.092865,-0.151907,0.192272,-0.763608,-0.616386,-0.024455,0.014356,0.056312,-29.929321,-17.191368,-33.606117,,,,,,,
1512177344.260409,0.303927,0.864796,-2.906459,-0.178407,-0.051230,-0.193311,0.194164,-0.760963,-0.619058,-0.000606,0.020790,0.048700,-29.929214,-17.191368,-33.381126,,,,,,,
1512177344.280429,0.307306,0.860681,-2.911187,-0.122555,0.032224,-0.213529,0.197200,-0.758286,-0.621378,0.006978,0.017411,0.041682,-29.927521,-16.816368,-33.380959,,,,,,,
1512177344.300418,0.313654,0.858425,-2.916694,-0.017289,0.150903,-0.192407,0.201668,-0.756814,-0.621740,0.021538,0.003747,0.042089,-31.348297,-15.993507,-32.318459,,,,,,,
1512177344.320407,0.320096,0.857475,-2.921268,-0.016030,0.133711,-0.140211,0.205895,-0.756193,-0.621109,0.021705,-0.022249,0.041977,-31.421906,-15.693611,-32.242699,,,,,,,
1512177344.340426,0.324002,0.854596,-2.923888,-0.174100,0.085371,-0.124546,0.209012,-0.754305,-0.622362,0.012362,-0.031721,0.052126,-30.747757,-15.842598,-32.623497,,,,,,,
1512177344.360415,0.327277,0.849464,-2.925082,-0.248846,0.150398,-0.113674,0.212291,-0.750926,-0.625332,0.033040,-0.035039,0.034527,-30.674225,-16.142494,-32.849266,,,,,,,
1512177344.380435,0.331597,0.844631,-2.925036,-0.217853,0.253931,-0.048902,0.216169,-0.747726,-0.627833,0.054583,-0.022492,0.000925,-30.373962,-16.067039,-33.001793,,,,,,,
1512177344.400424,0.335921,0.840847,-2.923668,-0.188657,0.253899,-0.009034,0.219813,-0.745208,-0.629559,0.067525,0.004653,-0.046970,-30.147980,-15.841698,-33.078590,,,,,,,
1512177344.420413,0.338537,0.837759,-2.922443,-0.151345,0.109760,-0.016459,0.222222,-0.743146,-0.631149,0.080344,0.009549,-0.084595,-30.220993,-15.391808,-33.152748,,,,,,,
1512177344.440432,0.338254,0.835292,-2.921428,-0.119678,-0.007716,-0.002548,0.222652,-0.741493,-0.632939,0.030843,0.005851,-0.062389,-29.921066,-15.391365,-33.305305,,,,,,,
1512177344.460421,0.337702,0.833912,-2.920392,-0.052868,0.038272,0.020967,0.222641,-0.740566,-0.634027,-0.012283,0.009197,-0.029837,-30.144730,-15.091698,-33.303246,,,,,,,
1512177344.480441,0.339089,0.834247,-2.919479,0.036177,0.136609,0.055644,0.223438,-0.740791,-0.633484,-0.017383,0.001091,-0.019974,-29.997238,-15.616478,-33.604759,,,,,,,
1512177344.500430,0.340987,0.835612,-2.917977,0.050600,0.140846,0.086786,0.224301,-0.741707,-0.632105,-0.003507,-0.004554,-0.028936,-29.846405,-15.466240,-33.305977,,,,,,,
1512177344.520449,0.340931,0.836716,-2.915736,0.014157,0.046776,0.094460,0.223991,-0.742447,-0.631345,-0.013786,-0.010910,-0.022311,-29.996445,-15.466469,-33.379707,,,,,,,
1512177344.540438,0.339158,0.837163,-2.913095,-0.014633,-0.001338,0.091740,0.222762,-0.742747,-0.631428,-0.027098,-0.007726,-0.011989,-29.920105,-15.166359,-33.380196,,,,,,,
1512177344.560427,0.337063,0.837577,-2.910502,-0.002855,-0.000245,0.088717,0.221337,-0.743024,-0.631603,-0.037407,-0.013812,-0.008839,-29.845169,-15.166237,-33.530830,,,,,,,
1512177344.580447,0.335587,0.838337,-2.908325,0.019762,0.017979,0.076318,0.220218,-0.743532,-0.631397,-0.036960,-0.015242,-0.012707,-29.694611,-15.016014,-33.757042,,,,,,,
1512177344.600436,0.335511,0.839258,-2.907172,0.041712,0.062942,0.039476,0.219945,-0.744147,-0.630767,-0.008855,-0.005563,-0.016786,-29.694534,-15.016014,-33.607033,,,,,,,
1512177344.620456,0.337454,0.840889,-2.907143,0.105976,0.123960,0.024631,0.220767,-0.745237,-0.629192,0.041654,0.011701,-0.028005,-29.545212,-15.165794,-33.608376,,,,,,,
1512177344.640445,0.340601,0.844474,-2.907853,0.221847,0.132639,0.044461,0.221853,-0.747622,-0.625971,0.064829,0.022616,-0.024984,-29.245361,-15.165352,-33.910927,,,,,,,
1512177344.660434,0.344009,0.850118,-2.909291,0.315589,0.112481,0.047881,0.222558,-0.751358,-0.621230,0.041526,0.021103,0.013274,-29.396332,-15.390572,-33.834755,,,,,,,
1512177344.680453,0.347881,0.856842,-2.911688,0.344545,0.111480,0.037638,0.223234,-0.755779,-0.615599,-0.024229,-0.000325,0.072325,-29.546783,-15.465797,-34.058510,,,,,,,
1512177344.700423,0.352391,0.862647,-2.913602,0.255965,0.181829,0.047261,0.224490,-0.759567,-0.610458,-0.074130,-0.012299,0.108292,-29.549042,-15.990807,-33.833763,,,,,,,
1512177344.720443,0.356431,0.865724,-2.913779,0.085240,0.176209,0.056495,0.226138,-0.761565,-0.607353,-0.088763,-0.026841,0.078407,-29.248322,-15.840355,-33.761238,,,,,,,
1512177344.740432,0.357879,0.864866,-2.912034,-0.146782,0.115017,0.030532,0.227246,-0.761008,-0.607637,-0.096265,-0.023141,0.035250,-29.323471,-15.840462,-34.060600,,,,,,,
1512177344.760421,0.356295,0.860132,-2.908849,-0.316092,-0.006983,0.012730,0.227538,-0.757928,-0.611366,-0.059584,-0.014517,-0.036171,-31.041122,-14.343040,-32.845253,,,,,,,
1512177344.780440,0.351344,0.853721,-2.904207,-0.370916,-0.101111,0.036129,0.226175,-0.753731,-0.617035,-0.045069,0.019738,-0.078217,-30.441986,-14.492134,-33.225426,,,,,,,
1512177344.800429,0.345060,0.847866,-2.899736,-0.299410,-0.169355,0.027330,0.223783,-0.749870,-0.622586,-0.038434,0.058159,-0.097385,-30.442062,-14.492134,-33.375420,,,,,,,
1512177344.820449,0.339168,0.843916,-2.897250,-0.170813,-0.208593,-0.014649,0.221094,-0.747251,-0.626682,-0.051783,0.088697,-0.082287,-29.693298,-14.716026,-33.831886,,,,,,,
1512177344.840438,0.336025,0.841671,-2.898615,-0.049474,-0.196429,-0.132249,0.219676,-0.745757,-0.628957,-0.086039,0.085647,-0.058177,-29.168671,-14.790230,-33.911400,,,,,,,
1512177344.860457,0.337719,0.840294,-2.904626,0.034817,-0.090294,-0.260718,0.221081,-0.744839,-0.629551,-0.065334,0.071561,-0.052135,-29.394455,-15.015572,-33.459587,,,,,,,
1512177344.880446,0.344576,0.840395,-2.914898,0.191989,-0.015105,-0.349861,0.225368,-0.744906,-0.627950,0.024709,0.052951,-0.068339,-29.245178,-15.165337,-33.535927,,,,,,,
1512177344.900435,0.354154,0.843224,-2.927614,0.346594,0.015044,-0.349646,0.230640,-0.746791,-0.623784,0.091733,0.027782,-0.065074,-29.024139,-16.065010,-33.388268,,,,,,,
1512177344.920455,0.364767,0.848966,-2.942170,0.508564,-0.017831,-0.347416,0.235713,-0.750598,-0.617284,0.107213,-0.022687,-0.026759,-28.726089,-16.514565,-33.241020,,,,,,,
1512177344.940444,0.375307,0.857681,-2.957074,0.631842,-0.025289,-0.259303,0.239799,-0.756327,-0.608657,0.088433,-0.080373,0.034926,-28.803940,-17.189690,-32.865700,,,,,,,
1512177344.960463,0.384125,0.867859,-2.969021,0.586893,0.012814,-0.118038,0.242260,-0.762947,-0.599350,0.033223,-0.112832,0.112900,-28.806274,-17.714684,-32.790947,,,,,,,
1512177344.980452,0.390221,0.875018,-2.975437,0.289968,0.080527,-0.015496,0.243825,-0.767555,-0.592795,-0.001439,-0.112755,0.149649,-28.433029,-18.089134,-32.944298,,,,,,,
1512177345.000441,0.391896,0.875784,-2.975802,-0.103912,0.053162,0.013882,0.244593,-0.768046,-0.591842,0.021353,-0.062337,0.104812,-28.584045,-18.314354,-32.943123,,,,,,,
1512177345.020461,0.390092,0.871067,-2.973023,-0.299590,0.004851,-0.017907,0.244899,-0.765017,-0.595627,0.063618,-0.000990,0.048233,-28.656006,-17.639458,-32.942177,,,,,,,
1512177345.040450,0.389705,0.866747,-2.971433,-0.154299,0.076676,-0.032607,0.245922,-0.762227,-0.598773,0.091297,0.024862,0.022403,-28.357101,-17.864006,-33.094826,,,,,,,
1512177345.060470,0.393165,0.867323,-2.971796,0.117779,0.213705,0.024047,0.247824,-0.762600,-0.597513,0.084253,0.002773,0.023706,-28.582092,-17.864357,-33.092918,,,,,,,
1512177345.080459,0.399617,0.872175,-2.972859,0.258623,0.311007,0.086126,0.250232,-0.765730,-0.592485,0.043286,-0.032976,0.038957,-28.357101,-17.864006,-33.094826,,,,,,,
1512177345.100448,0.405178,0.877356,-2.972455,0.191672,0.267012,0.136175,0.251955,-0.769051,-0.587431,0.007338,-0.044349,0.041136,-28.132355,-17.863670,-33.621742,,,,,,,
1512177345.120467,0.406632,0.880069,-2.969366,0.015374,0.139594,0.154500,0.251983,-0.770783,-0.585146,-0.040588,-0.023147,0.046160,-28.281235,-17.638893,-33.395363,,,,,,,
1512177345.140456,0.404119,0.879424,-2.964109,-0.160543,0.049598,0.150570,0.250707,-0.770372,-0.586234,-0.095845,-0.011397,0.045645,-28.282318,-17.863899,-33.545464,,,,,,,
1512177345.160476,0.398982,0.876245,-2.956282,-0.293314,0.054666,0.185976,0.248642,-0.768341,-0.589768,-0.130036,0.013732,0.012101,-28.354401,-17.189003,-33.769508,,,,,,,
1512177345.180465,0.393580,0.871506,-2.947498,-0.347121,0.066398,0.152188,0.246846,-0.765299,-0.594458,-0.115911,0.054530,-0.042123,-28.353348,-16.964012,-33.694405,,,,,,,
1512177345.200484,0.388789,0.866109,-2.940336,-0.327782,0.008902,0.076582,0.245558,-0.761814,-0.599448,-0.083754,0.089298,-0.096262,-28.202362,-16.738777,-33.770576,,,,,,,
1512177345.220473,0.384958,0.861661,-2.936979,-0.197274,-0.087920,-0.021012,0.244529,-0.758925,-0.603519,-0.063148,0.089903,-0.112592,-28.801697,-16.589684,-33.765404,,,,,,,
1512177345.240462,0.383326,0.859664,-2.937560,-0.030139,-0.095036,-0.070848,0.244110,-0.757623,-0.605321,-0.056809,0.053918,-0.097834,-28.274673,-16.138893,-33.769661,,,,,,,
1512177345.260482,0.383041,0.859541,-2.940326,0.050428,-0.125819,-0.110302,0.243973,-0.757543,-0.605477,-0.045547,0.000143,-0.090019,-28.501358,-16.514229,-33.767921,,,,,,,
1512177345.280471,0.381992,0.858752,-2.944980,0.001439,-0.269955,-0.185071,0.243560,-0.757028,-0.606287,-0.020888,-0.045783,-0.078665,-28.426239,-16.514122,-33.543571,,,,,,,
1512177345.300490,0.379292,0.856502,-2.950445,-0.031117,-0.381026,-0.220042,0.242552,-0.755556,-0.608523,0.028795,-0.071104,-0.086408,-28.427185,-16.739113,-33.393669,,,,,,,
1512177345.320479,0.374048,0.853675,-2.956983,-0.062544,-0.585015,-0.263851,0.240138,-0.753701,-0.611772,0.058858,-0.055579,-0.090987,-28.502365,-16.814232,-33.093071,,,,,,,
1512177345.340468,0.364914,0.849965,-2.963836,-0.103903,-0.782650,-0.286458,0.235536,-0.751257,-0.616549,0.032759,-0.048334,-0.071577,-28.803574,-17.114677,-32.790657,,,,,,,
1512177345.360488,0.352222,0.845059,-2.971116,-0.180126,-0.981370,-0.328765,0.228961,-0.748010,-0.622940,0.002332,-0.016043,-0.038437,-29.328842,-17.190468,-32.636238,,,,,,,
1512177345.380477,0.336632,0.837228,-2.979127,-0.344021,-1.119244,-0.416904,0.221150,-0.742790,-0.631943,-0.042805,0.024757,-0.011947,-30.004547,-17.416481,-32.030602,,,,,,,
1512177345.400496,0.321051,0.826190,-2.988570,-0.449055,-1.126691,-0.512264,0.213851,-0.735355,-0.643053,-0.070098,0.060794,-0.020323,-30.531006,-17.792274,-31.576317,,,,,,,
1512177345.420485,0.307538,0.813829,-3.001645,-0.443136,-1.165873,-0.678617,0.207878,-0.726922,-0.654498,-0.051903,0.082238,-0.043942,-30.829178,-17.417717,-31.273598,,,,,,,
1512177345.440474,0.295786,0.801322,-3.019946,-0.397710,-1.320347,-0.855464,0.202807,-0.718277,-0.665541,-0.059802,0.104538,-0.110033,-30.456543,-17.942162,-31.277031,,,,,,,
1512177345.460494,0.280467,0.781219,-3.044485,-0.937285,-1.539258,-1.309657,0.196546,-0.704145,-0.682309,-0.018812,0.103605,0.089002,-31.134018,-18.543175,-30.821556,,,,,,,
1512177345.480483,0.274372,0.757643,-3.077879,-0.590706,-1.597075,-1.512716,0.196828,-0.687211,-0.699283,-0.153234,-0.095245,-0.165798,-31.735550,-18.994087,-29.841682,,,,,,,
1512177345.500502,0.263391,0.743066,-3.115287,-0.263565,-1.799535,-1.515081,0.191725,-0.676549,-0.711000,-0.000029,0.069539,-0.012892,-31.662125,-19.443977,-28.942528,,,,,,,
1512177345.520491,0.255806,0.730278,3.130137,-0.270826,-1.610466,-1.517725,0.188500,-0.667077,-0.720745,-0.045907,0.028130,-0.026615,-32.342651,-20.719994,-28.487373,,,,,,,
1512177345.540511,0.249036,0.717111,3.091631,-0.259132,-1.584691,-1.579298,0.185766,-0.657210,-0.730454,-0.041418,0.003981,0.028397,-32.268463,-21.019875,-27.438164,,,,,,,
1512177345.560500,0.244494,0.705393,3.052346,-0.189718,-1.529027,-1.583427,0.184298,-0.648333,-0.738712,-0.042223,0.032855,-0.118465,-31.974213,-22.369438,-26.766335,,,,,,,
1512177345.580489,0.243731,0.693204,3.013387,-0.220725,-1.047117,-1.683474,0.185627,-0.639005,-0.746467,0.017177,0.008100,0.108939,-31.752914,-23.269112,-26.093666,,,,,,,
1512177345.600509,0.244008,0.678726,2.967069,-0.390934,-1.747499,-1.998603,0.188050,-0.627802,-0.755315,-0.122117,-0.029089,0.032765,-31.157532,-24.318214,-25.874260,,,,,,,
1512177345.620498,0.240752,0.654107,2.922200,-0.970610,-1.250617,-1.989279,0.189218,-0.608451,-0.770702,-0.063745,-0.001550,0.231350,-30.788193,-25.667656,-25.053062,,,,,,,
1512177345.640517,0.243373,0.622204,2.879723,-1.219812,-1.151511,-2.065038,0.195817,-0.582828,-0.788648,-0.160981,-0.073849,0.248289,-29.591492,-26.415871,-24.913612,,,,,,,
1512177345.660506,0.247099,0.586652,2.840951,-1.407547,-0.706669,-1.907368,0.203696,-0.553576,-0.807502,0.012552,-0.059415,0.230857,-28.843018,-26.714745,-25.295128,,,,,,,
1512177345.680495,0.239827,0.549894,2.810237,-1.490188,-1.741799,-1.406854,0.202517,-0.522597,-0.828177,0.572996,-0.275316,-0.426705,-27.645248,-27.162956,-25.680534,,,,,,,
1512177345.700497,0.204950,0.520445,2.806129,-1.256117,-1.503851,-0.009294,0.176572,-0.497267,-0.849439,0.432269,-0.423128,0.086164,-27.269165,-26.937386,-25.533607,,,,,,,
1512177345.720486,0.177100,0.505854,2.813610,-0.533122,-1.134484,0.125062,0.154111,-0.484555,-0.861078,-0.061673,-0.030002,0.120645,-27.642700,-26.637947,-25.305290,,,,,,,
1512177345.740505,0.164065,0.502135,2.808229,0.109079,-0.581164,-0.456438,0.143168,-0.481298,-0.864785,-0.336085,0.044912,0.100228,-28.392838,-26.714073,-24.923958,,,,,,,
1512177345.760494,0.167959,0.511247,2.793266,0.806459,0.017242,-0.567916,0.145795,-0.489265,-0.859862,-0.182874,-0.188164,0.116896,-28.392654,-26.639076,-25.223915,,,,,,,
1512177345.780483,0.177649,0.532535,2.782594,1.308890,0.301141,-0.056470,0.152245,-0.507719,-0.847963,0.212181,-0.366106,0.300081,-27.645996,-27.387947,-25.155632,,,,,,,
1512177345.800503,0.173776,0.561647,2.783697,1.391134,-0.576898,0.537594,0.146341,-0.532581,-0.833631,0.134069,-0.345959,0.106855,-27.725494,-28.513069,-24.030525,,,,,,,
1512177345.820493,0.148537,0.585468,2.803409,0.808720,-0.741583,1.262032,0.123344,-0.552589,-0.824275,0.046059,0.001182,0.200221,-28.247864,-27.988853,-23.500816,,,,,,,
1512177345.840511,0.118314,0.596928,2.832681,0.134060,-0.678381,1.191714,0.097625,-0.562104,-0.821284,-0.054016,0.223771,-0.032674,-29.299622,-28.440422,-22.967094,,,,,,,
1512177345.860500,0.093353,0.594671,2.855582,-0.334954,-0.438947,0.747600,0.077215,-0.560236,-0.824725,-0.027944,0.094431,0.004535,-29.368546,-27.090538,-22.965843,,,,,,,
1512177345.880520,0.080825,0.590298,2.865798,-0.153096,-0.339307,0.197297,0.067075,-0.556609,-0.828062,0.003894,-0.043779,-0.034121,-29.442200,-26.790642,-22.965065,,,,,,,
1512177345.900509,0.074006,0.591800,2.862915,0.224665,-0.495870,-0.286030,0.061364,-0.557856,-0.827665,0.012839,-0.055334,-0.085878,-29.218170,-27.015312,-22.892082,,,,,,,
1512177345.920498,0.070460,0.599051,2.848595,0.472939,-0.564037,-0.734679,0.058143,-0.563859,-0.823821,0.010598,-0.050078,-0.082749,-28.396133,-27.689079,-22.749413,,,,,,,
1512177345.940517,0.076508,0.606718,2.819916,0.462695,-0.516674,-1.469179,0.062792,-0.570174,-0.819120,-0.188769,0.068099,-0.000003,-27.950790,-28.738411,-22.603722,,,,,,,
1512177345.960506,0.099264,0.612253,2.774325,0.400822,0.086656,-1.954098,0.081100,-0.574713,-0.814326,-0.122238,-0.023249,0.014430,-26.530930,-29.861275,-22.766350,,,,,,,
1512177345.980526,0.128029,0.612539,2.730306,0.086554,0.162339,-1.575672,0.104466,-0.574947,-0.811493,-0.012563,-0.224675,-0.009002,-24.585388,-30.758354,-23.608330,,,,,,,
1512177346.000515,0.143560,0.607159,2.705568,-0.245604,0.014966,-0.769726,0.117497,-0.570536,-0.812823,0.030681,-0.142659,0.086383,-23.463837,-31.431679,-24.443214,,,,,,,
1512177346.020504,0.151013,0.597919,2.690349,-0.406695,-0.131753,-0.705410,0.124340,-0.562924,-0.817101,0.022038,-0.010028,0.121774,-22.415527,-31.730110,-25.127266,,,,,,,
1512177346.040524,0.157246,0.588440,2.670908,-0.270004,-0.244220,-0.983126,0.130260,-0.555064,-0.821544,0.003575,0.030848,0.147030,-21.815186,-31.579201,-25.807289,,,,,,,
1512177346.060513,0.162270,0.583160,2.646672,0.012772,-0.535347,-1.014157,0.134857,-0.550665,-0.823760,0.119751,0.019720,0.237136,-20.767883,-32.102638,-26.491463,,,,,,,
1512177346.080533,0.163987,0.583977,2.625202,0.254692,-0.533365,-0.751595,0.136198,-0.551346,-0.823083,0.224657,0.131424,0.091180,-19.642426,-32.025948,-26.275978,,,,,,,
1512177346.100521,0.157424,0.588099,2.611684,0.324515,-0.715537,-0.404748,0.130436,-0.554780,-0.821708,0.301494,0.318589,0.120674,-19.420197,-32.625618,-26.428169,,,,,,,
1512177346.120510,0.147364,0.594946,2.607160,0.364436,-0.523118,0.092214,0.121603,-0.560464,-0.819202,0.177897,0.251016,0.093799,-18.968552,-32.324928,-25.831856,,,,,,,
1512177346.140530,0.132692,0.602577,2.616468,0.319325,-0.486729,0.568221,0.109001,-0.566768,-0.816635,0.361260,0.201670,0.148407,-19.493774,-32.400719,-25.602440,,,,,,,
1512177346.160519,0.116544,0.609037,2.633217,0.124994,-0.166079,0.860751,0.095373,-0.572078,-0.814635,0.228067,0.209819,0.135817,-19.941116,-31.876396,-24.998375,,,,,,,
1512177346.180538,0.099649,0.612464,2.658458,0.066902,-0.095180,1.154388,0.081401,-0.574885,-0.814174,0.256368,0.215998,0.154094,-20.086578,-30.901604,-24.696648,,,,,,,
1512177346.200527,0.079142,0.616511,2.689645,0.104381,-0.167048,1.334845,0.064505,-0.578192,-0.813346,0.215402,0.160559,0.114753,-20.909973,-30.602852,-24.164497,,,,,,,
1512177346.220547,0.055279,0.620459,2.721312,0.102064,-0.336771,1.273457,0.044952,-0.581408,-0.812368,0.219666,0.131488,0.047003,-21.130951,-29.853172,-22.887245,,,,,,,
1512177346.240536,0.028861,0.622956,2.752935,0.057521,-0.432000,1.319387,0.023437,-0.583439,-0.811818,0.166200,0.084385,-0.035914,-21.952545,-29.179405,-22.129921,,,,,,,
1512177346.260525,0.001193,0.625539,2.785938,0.174343,-0.367791,1.349019,0.000967,-0.585534,-0.810646,0.095103,0.062814,-0.070763,-22.623642,-28.430412,-21.073845,,,,,,,
1512177346.280545,-0.024293,0.633457,2.821051,0.583624,-0.177306,1.493135,-0.019578,-0.591935,-0.805747,0.059800,0.079041,-0.026116,-23.220306,-27.756310,-20.468437,,,,,,,
1512177346.300534,-0.053267,0.649894,2.864190,1.052672,-0.164413,1.817660,-0.042388,-0.605102,-0.795018,0.078719,0.016388,0.028508,-24.041382,-27.082542,-18.661125,,,,,,,
1512177346.320554,-0.089253,0.670281,2.914741,1.166213,-0.291664,1.972373,-0.069850,-0.621206,-0.780527,0.109706,-0.009303,0.040568,-25.087296,-26.334114,-17.226860,,,,,,,
1512177346.340543,-0.130318,0.686488,2.969807,0.934273,-0.337074,2.072265,-0.100513,-0.633825,-0.766917,0.141208,-0.075190,0.086040,-26.283127,-25.585899,-15.641319,,,,,,,
1512177346.360531,-0.171424,0.694236,3.022938,0.533653,-0.366116,1.863809,-0.131102,-0.639799,-0.757277,0.131072,-0.042651,0.077498,-27.703522,-24.688042,-14.503792,,,,,,,
1512177346.380550,-0.204998,0.694037,3.064147,0.155794,-0.303779,1.378826,-0.156474,-0.639645,-0.752574,0.068446,0.022015,0.086101,-28.145752,-23.113701,-13.149254,,,,,,,
1512177346.400539,-0.228104,0.688980,3.096447,-0.040596,-0.031490,1.276717,-0.174549,-0.635750,-0.751899,0.035359,-0.021659,0.069465,-28.815796,-22.139702,-12.018059,,,,,,,
1512177346.420559,-0.248346,0.681319,3.131336,-0.044154,0.143247,1.501146,-0.190924,-0.629818,-0.752912,0.042258,-0.021244,0.068143,-29.036072,-21.165031,-11.340706,,,,,,,
1512177346.440548,-0.270678,0.672473,-3.112193,-0.019984,0.106670,1.649550,-0.209171,-0.622923,-0.753799,0.069690,-0.025377,0.042633,-29.630554,-20.040932,-10.435081,,,,,,,
1512177346.460537,-0.295337,0.663410,-3.072375,0.013745,-0.035252,1.601573,-0.229327,-0.615807,-0.753784,0.051897,-0.061668,-0.009171,-30.073700,-18.616600,-9.530617,,,,,,,
1512177346.480556,-0.319303,0.654590,-3.036224,0.011032,-0.124666,1.438114,-0.249020,-0.608834,-0.753199,0.016323,-0.043541,-0.014745,-30.218826,-17.641808,-8.553886,,,,,,,
1512177346.500546,-0.342201,0.646031,-3.002673,0.048001,-0.122382,1.394952,-0.267939,-0.602022,-0.752182,-0.026968,-0.058867,-0.043061,-30.363358,-16.517021,-7.727104,,,,,,,
1512177346.520566,-0.363605,0.638523,-2.968420,0.171107,0.012322,1.435584,-0.285575,-0.596010,-0.750478,-0.053689,-0.080000,-0.060832,-30.432053,-15.242134,-6.600883,,,,,,,
1512177346.540555,-0.383985,0.632226,-2.932049,0.283026,0.071105,1.503503,-0.302210,-0.590942,-0.747968,-0.039389,-0.110688,-0.069018,-30.426315,-14.042122,-5.925331,,,,,,,
1512177346.560575,-0.405236,0.627070,-2.893879,0.407577,0.046705,1.512683,-0.319232,-0.586775,-0.744167,-0.040616,-0.112902,-0.074574,-30.571625,-13.067345,-5.323601,,,,,,,
1512177346.580564,-0.425737,0.624734,-2.856194,0.557599,0.106969,1.404197,-0.334985,-0.584881,-0.738713,-0.032568,-0.110324,-0.023387,-30.791153,-11.942665,-4.496178,,,,,,,
1512177346.600552,-0.444902,0.622975,-2.819512,0.524654,0.117612,1.398426,-0.349523,-0.583454,-0.733085,-0.005168,-0.106503,0.021614,-30.861130,-10.892769,-3.895058,,,,,,,
1512177346.620571,-0.464665,0.618930,-2.781576,0.494813,0.104497,1.526943,-0.364996,-0.580164,-0.728139,-0.017908,-0.125067,0.060521,-30.781967,-9.992653,-3.670280,,,,,,,
1512177346.640560,-0.486642,0.613779,-2.740897,0.548816,0.056347,1.611778,-0.382301,-0.575961,-0.722574,-0.014931,-0.150098,0.084665,-30.849091,-8.342751,-2.768883,,,,,,,
1512177346.660580,-0.508894,0.608181,-2.701252,0.501460,-0.000145,1.505349,-0.399849,-0.571376,-0.716693,-0.002007,-0.164006,0.094531,-31.144287,-7.293190,-2.615852,,,,,,,
1512177346.680569,-0.530239,0.601974,-2.665985,0.428995,-0.105729,1.370680,-0.416840,-0.566271,-0.711042,-0.036041,-0.167494,0.109006,-31.140198,-6.468193,-1.865471,,,,,,,
1512177346.700523,-0.551671,0.595906,-2.632898,0.443126,-0.131186,1.287641,-0.433775,-0.561258,-0.704859,-0.068514,-0.199224,0.130991,-30.760849,-5.567619,-1.268242,,,,,,,
1512177346.720542,-0.568866,0.589569,-2.604626,0.272934,-0.027409,1.076591,-0.447737,-0.556003,-0.700279,-0.077287,-0.182583,0.145332,-30.979889,-4.292946,-0.815742,,,,,,,
1512177346.740531,-0.582354,0.581271,-2.583927,0.057441,-0.169434,0.884280,-0.459664,-0.549086,-0.698005,-0.166908,-0.245423,0.123588,-30.825531,-3.392723,-0.216606,,,,,,,
1512177346.760551,-0.596245,0.573860,-2.568072,0.079068,-0.311041,0.664491,-0.471587,-0.542878,-0.694902,-0.265596,-0.260940,0.101426,-30.673248,-2.942482,0.307320,,,,,,,
1512177346.780540,-0.608215,0.570333,-2.558068,0.082974,-0.313512,0.298884,-0.480962,-0.539913,-0.690773,-0.330699,-0.265355,0.074196,-30.670517,-2.417488,1.057564,,,,,,,
1512177346.800560,-0.613735,0.569165,-2.556450,-0.080262,-0.165740,-0.008925,-0.485130,-0.538929,-0.688623,-0.308525,-0.229519,0.088449,-30.520584,-2.417259,0.906288,,,,,,,
1512177346.820549,-0.612070,0.567409,-2.561127,-0.238406,0.020206,-0.171544,-0.484526,-0.537449,-0.690203,-0.230058,-0.159206,0.096499,-30.443329,-1.967140,1.355858,,,,,,,
1512177346.840538,-0.605890,0.566072,-2.570243,-0.280496,0.071730,-0.331884,-0.480660,-0.536321,-0.693775,-0.100287,-0.060939,0.108661,-30.593933,-2.117363,1.507057,,,,,,,
1512177346.860558,-0.600087,0.565821,-2.580576,-0.234439,-0.027505,-0.349684,-0.476703,-0.536109,-0.696664,0.004092,0.008719,0.117272,-30.521042,-2.567253,1.356224,,,,,,,
1512177346.880546,-0.596268,0.566504,-2.589060,-0.142955,-0.033927,-0.273758,-0.473832,-0.536686,-0.698176,0.080705,0.020008,0.147822,-30.522491,-2.867256,1.131065,,,,,,,
1512177346.900565,-0.595154,0.565885,-2.593763,-0.140081,-0.098427,-0.062860,-0.473241,-0.536163,-0.698978,0.117620,-0.001511,0.167454,-30.371338,-2.642036,1.429909,,,,,,,
1512177346.920554,-0.596934,0.562605,-2.594791,-0.173863,-0.109503,0.110380,-0.475470,-0.533391,-0.699586,0.106467,-0.060466,0.184815,-30.223022,-3.016808,1.428459,,,,,,,
1512177346.940543,-0.601095,0.557886,-2.593979,-0.156034,-0.227130,0.186985,-0.479795,-0.529394,-0.699669,0.068952,-0.128184,0.181954,-30.074554,-3.391594,1.727013,,,,,,,
1512177346.960563,-0.605141,0.552460,-2.594014,-0.295491,-0.166315,0.112681,-0.484249,-0.524783,-0.700074,-0.027287,-0.171476,0.107164,-29.622757,-3.015907,1.948357,,,,,,,
1512177346.980552,-0.600593,0.544618,-2.599791,-0.579588,0.236249,-0.028618,-0.483371,-0.518091,-0.705643,-0.082700,-0.220693,0.030701,-29.322464,-2.940468,1.870842,,,,,,,
1512177347.000572,-0.586560,0.533795,-2.610731,-0.766825,0.492475,-0.105067,-0.476497,-0.508804,-0.716985,-0.062275,-0.217591,-0.021571,-29.323135,-3.090462,1.870766,,,,,,,
1512177347.020561,-0.571486,0.524328,-2.621818,-0.576381,0.430901,-0.149427,-0.468220,-0.500631,-0.728105,0.000401,-0.186777,-0.060668,-28.873199,-3.089790,1.716957,,,,,,,
1512177347.040550,-0.562037,0.520042,-2.629488,-0.225551,0.182582,-0.167596,-0.462459,-0.496917,-0.734305,0.042278,-0.103059,-0.064783,-29.173950,-3.240242,1.569435,,,,,,,
1512177347.060570,-0.559723,0.520946,-2.632518,0.070671,-0.033936,-0.105426,-0.460520,-0.497701,-0.734992,0.060465,-0.046504,-0.012551,-29.175308,-3.540245,1.569298,,,,,,,
1512177347.080559,-0.561992,0.524453,-2.631065,0.216917,-0.087348,0.009510,-0.461253,-0.500739,-0.732464,0.065944,-0.045128,0.056119,-29.323624,-3.165459,1.570732,,,,,,,
1512177347.100579,-0.566512,0.527388,-2.626829,0.197168,-0.134567,0.106072,-0.463769,-0.503278,-0.729129,0.052254,-0.075168,0.093631,-28.948959,-3.239906,1.567513,,,,,,,
1512177347.120567,-0.571692,0.528056,-2.623535,0.042698,-0.196742,0.096154,-0.467357,-0.503855,-0.726433,0.022044,-0.111287,0.118600,-29.099258,-3.315132,1.643761,,,,,,,
1512177347.140586,-0.576448,0.526272,-2.622235,-0.093974,-0.204453,0.109072,-0.471296,-0.502313,-0.724955,0.004880,-0.141669,0.127467,-29.173737,-3.240242,2.019432,,,,,,,
1512177347.160575,-0.580586,0.522016,-2.622208,-0.238049,-0.226055,0.117570,-0.475460,-0.498629,-0.724779,-0.004886,-0.163145,0.114626,-29.172348,-2.940239,2.094566,,,,,,,
1512177347.180564,-0.583775,0.516694,-2.625902,-0.357582,-0.252568,-0.068679,-0.479225,-0.494009,-0.725463,-0.009285,-0.179911,0.092269,-29.245850,-2.640343,2.395348,,,,,,,
1512177347.200584,-0.583333,0.513646,-2.636178,-0.406131,-0.179445,-0.353767,-0.479731,-0.491356,-0.726929,-0.029745,-0.088829,0.074295,-28.946365,-2.789894,2.692711,,,,,,,
1512177347.220573,-0.579960,0.511036,-2.647386,-0.370869,-0.025703,-0.286626,-0.477977,-0.489081,-0.729613,-0.049794,-0.097467,0.077895,-29.172943,-3.165245,2.919456,,,,,,,
1512177347.240592,-0.575391,0.508832,-2.654336,-0.226350,0.083150,-0.124246,-0.475225,-0.487158,-0.732692,-0.028575,-0.075342,0.042659,-28.949142,-3.389900,2.542442,,,,,,,
1512177347.260581,-0.572895,0.507378,-2.657047,-0.099172,0.046813,-0.015923,-0.473778,-0.485887,-0.734470,-0.011986,-0.116392,0.046619,-29.098129,-3.165123,2.543831,,,,,,,
1512177347.280571,-0.572974,0.506429,-2.656712,-0.024027,-0.010943,0.078777,-0.474086,-0.485058,-0.734820,-0.014440,-0.122563,0.036440,-28.950302,-3.614906,2.242332,,,,,,,
1512177347.300591,-0.575057,0.505195,-2.654121,0.018349,-0.046283,0.158158,-0.475940,-0.483978,-0.734333,-0.009213,-0.107544,0.038227,-29.098206,-3.165123,2.393822,,,,,,,
1512177347.320580,-0.578376,0.504385,-2.649880,0.094581,-0.075071,0.187943,-0.478589,-0.483269,-0.733077,-0.000385,-0.100013,0.062652,-29.173508,-3.240242,2.469429,,,,,,,
1512177347.340598,-0.581685,0.505097,-2.645120,0.142548,-0.037485,0.125873,-0.480823,-0.483893,-0.731201,0.019596,-0.092340,0.079102,-28.797836,-3.089668,2.466316,,,,,,,
1512177347.360587,-0.583080,0.506509,-2.642415,0.088659,0.014954,0.034659,-0.481466,-0.485128,-0.729959,0.028738,-0.109950,0.096231,-29.173126,-3.165245,2.544456,,,,,,,
1512177347.380576,-0.582860,0.507325,-2.641743,0.010431,0.024527,-0.004818,-0.481088,-0.485841,-0.729734,0.030953,-0.138778,0.103300,-29.321823,-2.865456,2.470879,,,,,,,
1512177347.400596,-0.582881,0.507465,-2.642749,-0.046228,-0.051285,-0.063470,-0.481066,-0.485963,-0.729667,0.018892,-0.126433,0.092842,-28.796066,-2.714668,2.616478,,,,,,,
1512177347.420585,-0.583018,0.508119,-2.645314,-0.042187,-0.065066,-0.115698,-0.480990,-0.486535,-0.729336,0.007937,-0.126594,0.087459,-29.397125,-2.940575,2.546486,,,,,,,
1512177347.440605,-0.583603,0.508732,-2.647352,-0.035613,-0.077979,-0.062344,-0.481252,-0.487070,-0.728805,-0.007960,-0.125341,0.091064,-29.248764,-3.315346,2.620018,,,,,,,
1512177347.460594,-0.583937,0.509284,-2.648928,-0.033318,-0.028822,-0.069602,-0.481347,-0.487552,-0.728420,-0.010962,-0.117093,0.101604,-29.171738,-2.865242,2.619591,,,,,,,
1512177347.480613,-0.583238,0.509283,-2.650530,-0.075528,0.003080,-0.029592,-0.480839,-0.487551,-0.728757,0.000385,-0.130766,0.108197,-29.023499,-3.240013,2.468163,,,,,,,
1512177347.500602,-0.582392,0.507535,-2.651802,-0.146784,0.025295,0.025955,-0.480690,-0.486024,-0.729874,0.003456,-0.124419,0.089402,-29.174179,-3.390236,2.469368,,,,,,,
1512177347.520591,-0.580688,0.504961,-2.653537,-0.164494,0.064834,0.002381,-0.480130,-0.483773,-0.731736,0.000378,-0.131736,0.065888,-29.098587,-3.315132,2.993752,,,,,,,
1512177347.540612,-0.578138,0.502684,-2.655388,-0.151669,0.095837,0.002677,-0.478863,-0.481779,-0.733878,-0.004566,-0.121492,0.052390,-29.173660,-3.315239,2.844383,,,,,,,
1512177347.560601,-0.575439,0.500402,-2.657016,-0.155042,0.104353,0.013317,-0.477478,-0.479779,-0.736088,0.020111,-0.108585,0.056019,-29.098724,-3.315132,2.693748,,,,,,,
1512177347.580619,-0.573185,0.497928,-2.658551,-0.156284,0.064808,0.021688,-0.476460,-0.477606,-0.738158,0.035984,-0.100229,0.052275,-29.323730,-3.315468,2.695656,,,,,,,
1512177347.600608,-0.571959,0.495626,-2.659598,-0.124627,0.029574,0.040150,-0.476148,-0.475583,-0.739664,0.039914,-0.094669,0.047769,-29.173813,-3.315239,2.544395,,,,,,,
1512177347.620597,-0.571858,0.493801,-2.660031,-0.085082,-0.010941,0.032053,-0.476542,-0.473976,-0.740441,0.029414,-0.099693,0.043740,-29.251846,-3.990349,2.544716,,,,,,,
1512177347.640617,-0.571829,0.492700,-2.660637,-0.072919,-0.009803,0.005582,-0.476803,-0.473007,-0.740892,0.034893,-0.100434,0.052813,-28.798126,-3.164680,2.541283,,,,,,,
1512177347.660606,-0.571771,0.491384,-2.661520,-0.098711,-0.022688,0.016887,-0.477096,-0.471847,-0.741443,0.033371,-0.105042,0.061115,-29.323837,-3.315468,2.470665,,,,,,,
1512177347.680625,-0.571911,0.489397,-2.662433,-0.130925,-0.032373,0.031315,-0.477707,-0.470093,-0.742163,0.033035,-0.102142,0.059638,-29.173172,-3.165245,2.469460,,,,,,,
1512177347.700612,-0.572010,0.487083,-2.663555,-0.134057,-0.028100,0.027018,-0.478368,-0.468050,-0.743029,0.025441,-0.102476,0.058184,-29.023697,-3.315010,2.768105,,,,,,,
1512177347.720601,-0.572102,0.485002,-2.664528,-0.118110,-0.020602,0.030475,-0.478963,-0.466210,-0.743801,0.016957,-0.107276,0.063183,-29.248611,-3.315346,2.920021,,,,,,,
1512177347.740621,-0.572086,0.482895,-2.665208,-0.123625,-0.009952,0.042159,-0.479481,-0.464345,-0.744634,0.017873,-0.113780,0.069875,-29.173660,-3.315239,2.844383,,,,,,,
1512177347.760610,-0.571445,0.480452,-2.666185,-0.151263,0.016718,0.038653,-0.479616,-0.462180,-0.745893,0.023042,-0.117669,0.076566,-29.397949,-3.165581,2.921364,,,,,,,
1512177347.780629,-0.570946,0.477276,-2.667420,-0.189819,-0.009001,0.047597,-0.480034,-0.459361,-0.747364,0.029198,-0.099279,0.084736,-29.173019,-3.165245,2.769447,,,,,,,
1512177347.800618,-0.570140,0.473469,-2.669062,-0.229307,0.006957,0.051346,-0.480372,-0.455977,-0.749217,0.019023,-0.109209,0.072764,-29.100189,-3.615135,2.468620,,,,,,,
1512177347.820638,-0.569062,0.468894,-2.671004,-0.265700,0.034654,0.061575,-0.480683,-0.451900,-0.751484,0.002793,-0.115209,0.057484,-29.400375,-3.690575,2.771126,,,,,,,
1512177347.840627,-0.566551,0.464031,-2.673049,-0.263488,0.100887,0.059705,-0.479969,-0.447556,-0.754534,-0.028271,-0.124602,0.021318,-28.800644,-3.764687,2.915993,,,,,,,
1512177347.860616,-0.563282,0.459897,-2.674872,-0.213038,0.142666,0.041394,-0.478483,-0.443856,-0.757656,-0.021135,-0.115104,0.018261,-28.950424,-3.689903,2.692299,,,,,,,
1512177347.880635,-0.559464,0.456862,-2.676399,-0.161534,0.156670,0.021935,-0.476300,-0.441134,-0.760616,0.005475,-0.102659,0.018047,-28.949371,-3.464897,2.767403,,,,,,,
1512177347.900624,-0.556650,0.454854,-2.677934,-0.119325,0.083109,-0.020354,-0.474625,-0.439331,-0.762704,0.040009,-0.073700,0.026101,-29.175156,-3.615242,2.544258,,,,,,,
1512177347.920644,-0.554914,0.454101,-2.679953,-0.073941,0.026641,-0.060404,-0.473474,-0.438655,-0.763808,0.056146,-0.077047,0.028944,-28.949478,-3.464897,2.542412,,,,,,,
1512177347.940633,-0.554774,0.453699,-2.681005,-0.042937,-0.032172,-0.003657,-0.473460,-0.438293,-0.764024,0.047679,-0.082077,0.039491,-29.476166,-3.840691,2.546700,,,,,,,
1512177347.960622,-0.555238,0.453439,-2.681311,-0.018456,-0.021460,-0.001134,-0.473875,-0.438059,-0.763901,0.033186,-0.097188,0.027176,-29.475464,-3.690697,2.621758,,,,,,,
1512177347.980642,-0.555828,0.453474,-2.681120,0.014224,-0.026797,0.020641,-0.474317,-0.438091,-0.763608,0.026045,-0.095494,0.044309,-28.725861,-3.764565,2.465370,,,,,,,
1512177348.000631,-0.556193,0.453725,-2.680290,0.020359,0.011630,0.037918,-0.474538,-0.438317,-0.763342,0.019139,-0.091133,0.047582,-29.176208,-3.840248,2.469154,,,,,,,
1512177348.020650,-0.556074,0.453769,-2.679345,0.016075,0.038329,0.041151,-0.474437,-0.438357,-0.763381,0.030482,-0.089918,0.063873,-28.800873,-3.764687,2.465996,,,,,,,
1512177348.040639,-0.555538,0.453595,-2.678527,-0.011629,0.039358,0.040754,-0.474068,-0.438200,-0.763700,0.052865,-0.086382,0.059202,-29.176880,-3.990242,2.469078,,,,,,,
1512177348.060628,-0.554873,0.452742,-2.678588,-0.066733,0.030765,0.019668,-0.473757,-0.437433,-0.764333,0.065340,-0.083456,0.052007,-28.949783,-3.539909,2.617363,,,,,,,
1512177348.080648,-0.554120,0.451521,-2.678999,-0.069002,0.028610,0.028158,-0.473462,-0.436334,-0.765143,0.067913,-0.087439,0.040931,-28.951096,-3.839897,2.692238,,,,,,,
1512177348.100637,-0.553679,0.450610,-2.678831,-0.029792,0.024373,0.042572,-0.473333,-0.435515,-0.765690,0.067602,-0.088945,0.021503,-28.948761,-3.314903,2.617470,,,,,,,
1512177348.120656,-0.553853,0.450421,-2.677829,0.025440,0.009479,0.053980,-0.473510,-0.435345,-0.765677,0.060729,-0.092289,0.020636,-29.176056,-3.840248,2.769142,,,,,,,
1512177348.140645,-0.554682,0.450842,-2.675925,0.065527,-0.007606,0.077951,-0.474047,-0.435724,-0.765129,0.048342,-0.096564,0.021095,-29.176437,-3.915245,2.694115,,,,,,,
1512177348.160665,-0.555883,0.451337,-2.673412,0.070529,-0.011905,0.098266,-0.474852,-0.436169,-0.764376,0.025435,-0.102970,0.024340,-29.023621,-3.315010,2.918114,,,,,,,
1512177348.180654,-0.557297,0.451604,-2.670698,0.061878,-0.014070,0.105596,-0.475871,-0.436410,-0.763604,0.014918,-0.098121,0.028756,-29.398239,-3.240578,2.996330,,,,,,,
1512177348.200643,-0.558508,0.451627,-2.668288,0.040782,-0.014078,0.091429,-0.476790,-0.436430,-0.763019,0.010176,-0.075167,0.030308,-29.322906,-3.165459,2.995720,,,,,,,
1512177348.220662,-0.559181,0.451919,-2.666648,0.045826,0.011659,0.045753,-0.477235,-0.436693,-0.762590,0.009981,-0.068587,0.040102,-29.548431,-3.315804,3.297569,,,,,,,
1512177348.240651,-0.558818,0.452692,-2.665786,0.034691,0.042689,0.011586,-0.476780,-0.437388,-0.762477,0.029423,-0.077169,0.046138,-29.399597,-3.540581,2.996193,,,,,,,
1512177348.260671,-0.558467,0.452951,-2.665311,0.001470,0.022321,0.020627,-0.476452,-0.437621,-0.762548,0.053417,-0.090104,0.049734,-29.400681,-3.765587,2.846092,,,,,,,
1512177348.280660,-0.558015,0.452523,-2.665024,-0.036015,0.030789,0.031841,-0.476206,-0.437236,-0.762922,0.054575,-0.086552,0.037962,-29.623169,-3.240913,3.148247,,,,,,,
1512177348.300649,-0.557546,0.451584,-2.664741,-0.037217,0.033976,0.040364,-0.476066,-0.436391,-0.763493,0.055793,-0.086894,0.030034,-29.022537,-3.090019,3.068214,,,,,,,
1512177348.320668,-0.557295,0.450927,-2.663935,-0.006739,0.022221,0.066350,-0.476026,-0.435800,-0.763856,0.057263,-0.084296,0.027009,-29.397537,-3.090569,3.071404,,,,,,,
1512177348.340657,-0.557522,0.450509,-2.662522,0.012361,0.013692,0.070859,-0.476296,-0.435424,-0.763902,0.057961,-0.071748,0.030016,-29.397156,-3.015572,3.146431,,,,,,,
1512177348.360677,-0.557851,0.450381,-2.661064,0.023057,0.014782,0.068886,-0.476576,-0.435308,-0.763793,0.058303,-0.074823,0.042556,-29.847488,-3.091255,3.150230,,,,,,,
1512177348.380666,-0.558266,0.450026,-2.659300,0.012022,0.015792,0.092185,-0.476975,-0.434989,-0.763726,0.051652,-0.085152,0.041878,-29.398544,-3.315575,3.071297,,,,,,,
1512177348.400655,-0.558439,0.449153,-2.657433,-0.010569,0.040300,0.105802,-0.477308,-0.434203,-0.763965,0.039869,-0.085451,0.036564,-29.621475,-2.865913,3.148415,,,,,,,
1512177348.420675,-0.557814,0.447699,-2.655543,-0.030022,0.085097,0.123799,-0.477164,-0.432893,-0.764798,0.027579,-0.102340,0.019406,-29.845764,-2.716240,3.225410,,,,,,,
1512177348.440664,-0.556094,0.445599,-2.653698,-0.075006,0.149087,0.139359,-0.476327,-0.430998,-0.766388,0.028848,-0.103425,-0.004303,-29.396927,-2.940575,2.921471,,,,,,,
1512177348.460683,-0.553566,0.442533,-2.652403,-0.126101,0.153286,0.134367,-0.475080,-0.428230,-0.768711,0.042432,-0.096139,-0.016339,-29.395813,-2.715569,3.146568,,,,,,,
1512177348.480672,-0.550820,0.439250,-2.651827,-0.135205,0.142659,0.105420,-0.473701,-0.425260,-0.771206,0.058067,-0.072954,-0.026936,-29.395584,-2.640572,2.921608,,,,,,,
1512177348.500692,-0.548596,0.437032,-2.651242,-0.055878,0.108650,0.076599,-0.472475,-0.423252,-0.773061,0.059084,-0.059811,-0.029399,-29.394531,-2.415565,2.996712,,,,,,,
1512177348.520681,-0.547897,0.436789,-2.649639,0.060302,0.039394,0.073774,-0.471988,-0.423032,-0.773479,0.051807,-0.058612,-0.015447,-29.468445,-2.190681,3.147453,,,,,,,
1512177348.540670,-0.548978,0.437918,-2.647115,0.117857,-0.025666,0.072254,-0.472575,-0.424054,-0.772560,0.041758,-0.057421,0.009285,-29.618103,-2.115898,3.148766,,,,,,,
1512177348.560689,-0.551048,0.439346,-2.644331,0.119895,-0.055582,0.076443,-0.473855,-0.425348,-0.771063,0.022409,-0.068167,0.034720,-29.318100,-2.115456,3.146217,,,,,,,
1512177348.580678,-0.552965,0.440303,-2.641763,0.081497,-0.036420,0.078083,-0.475119,-0.426214,-0.769807,0.000799,-0.067362,0.046494,-29.617767,-2.040901,3.148796,,,,,,,
1512177348.600698,-0.553844,0.440496,-2.639764,0.039971,0.008385,0.077639,-0.475752,-0.426388,-0.769319,-0.010561,-0.091572,0.033845,-29.317352,-1.965446,3.296288,,,,,,,
1512177348.620687,-0.553906,0.440269,-2.638059,0.021959,0.051096,0.073264,-0.475850,-0.426183,-0.769371,-0.005778,-0.091517,0.030800,-29.393661,-2.265572,3.371788,,,,,,,
1512177348.640676,-0.552802,0.439993,-2.636852,0.000007,0.088490,0.047485,-0.475063,-0.425933,-0.769996,0.024928,-0.082947,0.028282,-29.166687,-1.815224,3.295082,,,,,,,
1512177348.660695,-0.551227,0.439682,-2.636415,-0.015561,0.088516,0.021674,-0.473919,-0.425652,-0.770856,0.068096,-0.072212,0.031324,-29.165741,-1.590218,3.145180,,,,,,,
1512177348.680684,-0.549773,0.439269,-2.636130,-0.021096,0.070325,0.033257,-0.472889,-0.425278,-0.771695,0.090565,-0.079880,0.026441,-29.391190,-1.665565,2.922066,,,,,,,
1512177348.700682,-0.549123,0.438716,-2.635455,-0.012821,0.037204,0.048191,-0.472510,-0.424777,-0.772202,0.097831,-0.081098,0.021714,-29.465515,-1.515678,2.922768,,,,,,,
1512177348.720671,-0.548780,0.438313,-2.634406,0.006132,0.048949,0.062363,-0.472335,-0.424412,-0.772511,0.092742,-0.074840,0.007816,-29.165558,-1.515221,2.845222,,,,,,,
1512177348.740690,-0.548276,0.438091,-2.632272,0.052195,0.082032,0.115383,-0.471994,-0.424212,-0.772828,0.073816,-0.088193,-0.003127,-29.165558,-1.515221,2.845222,,,,,,,
1512177348.760679,-0.547546,0.438277,-2.628739,0.092221,0.116211,0.145930,-0.471389,-0.424380,-0.773106,0.073745,-0.091688,-0.005535,-29.167023,-1.815224,2.620079,,,,,,,
1512177348.780668,-0.546699,0.438568,-2.624944,0.093309,0.117285,0.144884,-0.470670,-0.424643,-0.773399,0.084943,-0.083886,0.012260,-29.014175,-1.215004,2.919075,,,,,,,
1512177348.800688,-0.545851,0.438647,-2.621324,0.072964,0.108698,0.149890,-0.469996,-0.424715,-0.773770,0.091868,-0.085265,0.009579,-29.162628,-0.840218,2.620522,,,,,,,
1512177348.820677,-0.545238,0.438305,-2.617773,0.055738,0.096900,0.159192,-0.469597,-0.424405,-0.774182,0.078697,-0.088488,0.000531,-29.387863,-0.915565,2.847404,,,,,,,
1512177348.840696,-0.544706,0.437556,-2.613907,0.052136,0.113945,0.185856,-0.469350,-0.423727,-0.774703,0.049916,-0.086466,-0.013521,-29.011765,-0.689995,2.994316,,,,,,,
1512177348.860685,-0.543511,0.436793,-2.609700,0.062763,0.158812,0.189361,-0.468591,-0.423036,-0.775540,0.021386,-0.087141,-0.029697,-29.085236,-0.315102,2.695137,,,,,,,
1512177348.880674,-0.541635,0.436060,-2.605555,0.057567,0.184451,0.181910,-0.467294,-0.422371,-0.776683,0.023935,-0.086585,-0.025807,-29.082977,0.209892,2.470390,,,,,,,
1512177348.900694,-0.539666,0.435040,-2.601826,0.021377,0.154502,0.178088,-0.465985,-0.421446,-0.777971,0.039945,-0.051423,-0.010558,-29.082977,0.209892,2.470390,,,,,,,
1512177348.920683,-0.538266,0.433579,-2.598699,-0.003846,0.122461,0.154156,-0.465211,-0.420121,-0.779150,0.045671,-0.031280,-0.005350,-29.383774,0.059441,2.247856,,,,,,,
1512177348.940703,-0.537079,0.432307,-2.596334,-0.001141,0.101176,0.118944,-0.464559,-0.418967,-0.780160,0.050100,-0.026086,-0.001563,-29.457870,0.284340,2.023598,,,,,,,
1512177348.960692,-0.535692,0.431368,-2.594087,0.006304,0.118271,0.120175,-0.463677,-0.418114,-0.781142,0.062020,-0.036675,-0.008180,-29.231857,0.509682,2.021797,,,,,,,
1512177348.980681,-0.534163,0.429905,-2.591902,-0.025796,0.113935,0.127157,-0.462793,-0.416784,-0.782375,0.066477,-0.043817,-0.021244,-29.457306,0.434334,1.798668,,,,,,,
1512177349.000700,-0.533110,0.428604,-2.589697,0.007295,0.083017,0.123265,-0.462244,-0.415601,-0.783329,0.076868,-0.043047,-0.018414,-29.382126,0.509453,1.498070,,,,,,,
1512177349.020689,-0.532947,0.428026,-2.586768,0.059257,0.055288,0.137777,-0.462238,-0.415076,-0.783611,0.086537,-0.017496,0.000820,-29.682083,0.508995,1.575630,,,,,,,
1512177349.040709,-0.533673,0.428449,-2.583140,0.121073,0.019070,0.137483,-0.462718,-0.415460,-0.783124,0.083110,-0.024725,0.017301,-30.056778,0.583443,1.503838,,,,,,,
1512177349.060698,-0.535014,0.429491,-2.578778,0.146373,0.023346,0.154921,-0.463547,-0.416408,-0.782130,0.078674,-0.040654,0.026194,-29.606064,0.734108,1.575096,,,,,,,
1512177349.080717,-0.535777,0.429993,-2.574395,0.099356,0.061716,0.163970,-0.464036,-0.416865,-0.781596,0.061098,-0.058477,0.012187,-29.907532,0.433662,1.352501,,,,,,,
1512177349.100706,-0.535222,0.429916,-2.570797,0.071111,0.118345,0.133907,-0.463619,-0.416794,-0.781881,0.065517,-0.040939,-0.001063,-30.130768,0.883324,0.829628,,,,,,,
1512177349.120695,-0.533747,0.430028,-2.567688,0.079803,0.130126,0.124480,-0.462441,-0.416896,-0.782524,0.089074,-0.028874,0.007301,-30.281143,0.808098,0.755867,,,,,,,
1512177349.140715,-0.533121,0.430350,-2.563996,0.107106,0.090602,0.148193,-0.461883,-0.417189,-0.782697,0.119293,-0.023942,0.018430,-30.056076,0.808434,0.903954,,,,,,,
1512177349.160704,-0.533574,0.430817,-2.559620,0.120462,0.059579,0.175991,-0.462138,-0.417613,-0.782320,0.113826,-0.043034,0.011370,-30.131439,0.733330,0.829552,,,,,,,
1512177349.180723,-0.534368,0.430813,-2.554454,0.111144,0.077630,0.224959,-0.462760,-0.417610,-0.781954,0.083808,-0.067650,-0.009000,-29.907196,0.583656,0.677574,,,,,,,
1512177349.200712,-0.534512,0.430175,-2.548659,0.101131,0.132043,0.253790,-0.463008,-0.417030,-0.782117,0.059810,-0.075265,-0.032138,-29.605698,0.884117,0.975166,,,,,,,
1512177349.220701,-0.533441,0.429450,-2.542810,0.100115,0.176907,0.252865,-0.462324,-0.416371,-0.782872,0.066008,-0.070049,-0.035884,-30.207535,0.508217,0.680092,,,,,,,
1512177349.240721,-0.532296,0.428689,-2.537353,0.081371,0.147020,0.223703,-0.461588,-0.415679,-0.783674,0.090922,-0.046114,-0.023684,-29.981781,0.658546,0.828239,,,,,,,
1512177349.260710,-0.531499,0.428362,-2.533358,0.069935,0.092694,0.139131,-0.461033,-0.415381,-0.784159,0.100300,-0.029321,-0.020590,-30.134705,0.058311,0.379250,,,,,,,
1512177349.280729,-0.531366,0.428801,-2.530608,0.084558,0.037267,0.090111,-0.460835,-0.415781,-0.784063,0.099339,-0.024298,-0.018732,-30.431900,0.657875,0.607079,,,,,,,
1512177349.300718,-0.532370,0.429584,-2.527653,0.106467,-0.012956,0.116906,-0.461457,-0.416493,-0.783319,0.059357,-0.036769,-0.025260,-30.057007,0.583443,1.053841,,,,,,,
1512177349.320707,-0.534396,0.430482,-2.523554,0.146310,-0.019384,0.156905,-0.462852,-0.417309,-0.782061,0.014458,-0.049946,-0.010954,-30.056488,0.733437,0.753914,,,,,,,
1512177349.340727,-0.536626,0.431504,-2.518524,0.163932,-0.017283,0.187015,-0.464377,-0.418238,-0.780659,-0.010873,-0.050070,0.005726,-30.205399,0.958214,0.905296,,,,,,,
1512177349.360716,-0.538412,0.431996,-2.513463,0.111721,0.031770,0.187494,-0.465665,-0.418684,-0.779652,-0.006991,-0.037965,0.025730,-30.129639,1.108330,1.054726,,,,,,,
1512177349.380736,-0.537935,0.431016,-2.509821,-0.002802,0.132076,0.156339,-0.465503,-0.417794,-0.780226,0.020877,-0.024177,0.026289,-30.281372,0.733101,0.980827,,,,,,,
1512177349.400725,-0.534983,0.428712,-2.508102,-0.091653,0.201446,0.116912,-0.463687,-0.415700,-0.782423,0.064929,-0.038112,-0.005648,-30.354233,1.182991,1.206673,,,,,,,
1512177349.420744,-0.530936,0.425807,-2.507304,-0.119152,0.225996,0.104873,-0.461127,-0.413055,-0.785331,0.109122,-0.046692,-0.046578,-29.980087,1.033546,0.828423,,,,,,,
1512177349.440733,-0.527061,0.422848,-2.506302,-0.094966,0.211041,0.124360,-0.458693,-0.410359,-0.788165,0.134901,-0.053889,-0.087629,-29.603699,1.334114,0.900368,,,,,,,
1512177349.460722,-0.524149,0.420546,-2.504008,-0.024240,0.186500,0.165811,-0.456867,-0.408259,-0.790313,0.143376,-0.057592,-0.120881,-30.053452,1.408440,0.754234,,,,,,,
1512177349.480742,-0.522297,0.419080,-2.500030,0.054840,0.160878,0.216970,-0.455701,-0.406920,-0.791675,0.137052,-0.050859,-0.132733,-30.053329,1.408440,0.979225,,,,,,,
1512177349.500731,-0.521801,0.418794,-2.494413,0.151426,0.115048,0.240597,-0.455366,-0.406659,-0.792002,0.137815,-0.023837,-0.110433,-29.903412,1.408669,0.827950,,,,,,,
1512177349.520750,-0.522705,0.420156,-2.487767,0.242231,0.057536,0.226790,-0.455805,-0.407903,-0.791109,0.125361,-0.014186,-0.065733,-30.276413,1.858116,0.756355,,,,,,,
1512177349.540739,-0.525269,0.422796,-2.480851,0.280977,-0.026740,0.200407,-0.457291,-0.410312,-0.789004,0.115082,-0.008267,-0.016386,-29.751419,1.858894,0.751884,,,,,,,
1512177349.560728,-0.528625,0.425517,-2.474614,0.242891,-0.064149,0.180535,-0.459371,-0.412791,-0.786498,0.086599,-0.009328,0.018859,-30.050446,2.083443,0.679543,,,,,,,
1512177349.580748,-0.532295,0.427258,-2.468847,0.194705,-0.079203,0.192576,-0.461888,-0.414377,-0.784186,0.051763,-0.013189,0.036658,-30.274887,2.158119,1.131477,,,,,,,
1512177349.600737,-0.535455,0.428387,-2.463508,0.162919,-0.042912,0.182648,-0.464126,-0.415404,-0.782320,0.013106,-0.020967,0.031206,-30.499054,2.382774,0.758507,,,,,,,
1512177349.620756,-0.537276,0.429097,-2.458889,0.126047,0.016898,0.158868,-0.465399,-0.416050,-0.781220,0.000890,-0.029141,0.035721,-30.496399,2.907784,1.358742,,,,,,,
1512177349.640745,-0.537465,0.429082,-2.455127,0.056936,0.088379,0.151721,-0.465549,-0.416036,-0.781137,0.014454,-0.022303,0.035135,-30.496063,2.982780,1.358788,,,,,,,
1512177349.660734,-0.536144,0.427648,-2.452064,-0.017888,0.140573,0.165741,-0.464821,-0.414732,-0.782264,0.035805,-0.031832,0.012000,-30.120422,3.133339,1.280663,,,,,,,
1512177349.680754,-0.534408,0.425200,-2.449096,-0.048110,0.150095,0.188789,-0.463978,-0.412503,-0.783941,0.057148,-0.047382,-0.017894,-30.119370,3.358345,1.355766,,,,,,,
1512177349.700714,-0.532956,0.422436,-2.445902,-0.045049,0.134061,0.196240,-0.463417,-0.409984,-0.785592,0.064506,-0.046849,-0.056067,-30.046463,2.908455,1.204918,,,,,,,
1512177349.720733,-0.531232,0.420452,-2.442788,0.001450,0.166259,0.158651,-0.462473,-0.408174,-0.787090,0.072703,-0.031997,-0.078267,-30.195084,3.208229,1.281334,,,,,,,
1512177349.740722,-0.528883,0.419816,-2.439676,0.059419,0.187756,0.135045,-0.460754,-0.407592,-0.788398,0.104598,-0.027711,-0.060585,-29.893768,3.508690,1.203926,,,,,,,
1512177349.760742,-0.526385,0.419798,-2.436592,0.064945,0.174969,0.122287,-0.458787,-0.407576,-0.789553,0.126084,-0.017015,-0.047590,-29.594254,3.434135,0.901329,,,,,,,
1512177349.780731,-0.524270,0.419759,-2.433644,0.068025,0.139711,0.127538,-0.457123,-0.407540,-0.790535,0.133790,-0.032890,-0.052574,-29.669296,3.434013,0.826973,,,,,,,
1512177349.800720,-0.523659,0.419933,-2.430008,0.108049,0.073497,0.154542,-0.456605,-0.407699,-0.790753,0.120485,-0.028855,-0.044758,-29.443207,3.659355,0.975166,,,,,,,
1512177349.820739,-0.524518,0.420747,-2.425364,0.164040,0.021178,0.181818,-0.457118,-0.408442,-0.790073,0.090770,-0.020360,-0.029828,-29.668625,3.584023,0.827049,,,,,,,
1512177349.840729,-0.527039,0.422405,-2.419272,0.243443,-0.034300,0.213696,-0.458767,-0.409955,-0.788331,0.070049,-0.007998,0.010957,-29.968475,3.583565,1.129585,,,,,,,
1512177349.860748,-0.530938,0.425180,-2.412213,0.292476,-0.084429,0.211032,-0.461259,-0.412485,-0.785553,0.074769,0.001688,0.069595,-29.442154,3.884361,1.050270,,,,,,,
1512177349.880737,-0.535121,0.427757,-2.405860,0.226962,-0.082323,0.175977,-0.463997,-0.414831,-0.782699,0.085869,-0.003397,0.109237,-29.815125,4.333794,1.053658,,,,,,,
1512177349.900726,-0.537803,0.428592,-2.401262,0.090946,-0.011984,0.152930,-0.465917,-0.415591,-0.781154,0.083151,-0.026517,0.093471,-29.891327,4.108681,0.679207,,,,,,,
1512177349.920746,-0.537278,0.427414,-2.398451,-0.021725,0.148101,0.141196,-0.465757,-0.414519,-0.781819,0.079695,-0.056001,0.040944,-29.815201,4.333794,0.903664,,,,,,,
1512177349.940735,-0.533527,0.424712,-2.396062,-0.078804,0.276109,0.181320,-0.463389,-0.412059,-0.784522,0.083567,-0.070745,-0.013268,-29.814529,4.483803,0.903725,,,,,,,
1512177349.960754,-0.528223,0.421213,-2.393163,-0.080369,0.346546,0.215659,-0.459946,-0.408868,-0.788209,0.092270,-0.063514,-0.070266,-29.590240,4.334145,0.826759,,,,,,,
1512177349.980743,-0.522913,0.418279,-2.389035,-0.005357,0.334830,0.256149,-0.456351,-0.406189,-0.791676,0.110220,-0.055619,-0.089580,-29.811646,5.158806,0.604057,,,,,,,
1512177350.000763,-0.519468,0.416348,-2.383284,0.063335,0.254756,0.288848,-0.454009,-0.404423,-0.793923,0.117126,-0.027370,-0.087623,-29.737839,4.933922,0.228310,,,,,,,
1512177350.020752,-0.517946,0.415402,-2.376853,0.123162,0.182227,0.276666,-0.452990,-0.403557,-0.794946,0.102389,-0.024070,-0.098029,-29.662842,4.934029,0.227669,,,,,,,
