timestamp(unix),attitude_roll(radians),attitude_pitch(radians),attitude_yaw(radians),rotation_rate_x(radians/s),rotation_rate_y(radians/s),rotation_rate_z(radians/s),gravity_x(G),gravity_y(G),gravity_z(G),user_acc_x(G),user_acc_y(G),user_acc_z(G),magnetic_field_x(microteslas),magnetic_field_y(microteslas),magnetic_field_z(microteslas),latitude(degree),longitude(degree),altitude(meter),speed(m/s),course(degree),timestamp(unix),User Mark
1512177102.484351,0.228687,0.845048,-2.632347,0.000465,-0.067320,0.023545,0.150459,-0.748003,-0.646416,-0.033836,0.020113,0.022240,-32.301498,-10.444939,-38.682594,,,,,,,
1512177102.504340,0.227284,0.844583,-2.631749,-0.046283,-0.036397,0.015513,0.149630,-0.747694,-0.646965,-0.021243,0.010557,0.018822,-32.602814,-10.745384,-38.605186,,,,,,,
1512177102.524360,0.226246,0.843615,-2.631096,-0.051567,-0.018243,0.013367,0.149121,-0.747051,-0.647825,-0.000180,0.000912,0.014875,-32.602890,-10.745384,-38.755180,,,,,,,
1512177102.544349,0.225427,0.842995,-2.630401,-0.028206,-0.015015,0.019046,0.148694,-0.746639,-0.648399,0.005206,0.000270,0.010413,-32.378830,-10.970039,-38.607201,,,,,,,
1512177102.564368,0.224655,0.842675,-2.630081,-0.020481,-0.025649,0.003133,0.148246,-0.746426,-0.648746,-0.002891,0.005413,0.010883,-32.751160,-10.370598,-38.678734,,,,,,,
1512177102.584358,0.224054,0.842160,-2.630404,-0.025530,-0.046986,-0.015139,0.147942,-0.746083,-0.649210,0.006736,0.004155,-0.008230,-32.754883,-11.195610,-38.679115,,,,,,,
1512177102.604347,0.223089,0.841734,-2.630736,-0.012833,-0.057658,-0.009660,0.147386,-0.745799,-0.649662,0.005248,0.000972,-0.017071,-32.977219,-10.595940,-38.751930,,,,,,,
1512177102.624367,0.222434,0.841747,-2.630992,0.011505,-0.024534,0.002532,0.146958,-0.745808,-0.649749,0.004135,-0.002452,-0.011414,-32.827637,-10.670723,-38.903221,,,,,,,
1512177102.644356,0.221907,0.842380,-2.630794,0.035694,-0.012787,0.023179,0.146512,-0.746229,-0.649366,-0.002103,-0.003267,-0.005816,-33.055588,-11.346062,-38.751640,,,,,,,
1512177102.664374,0.221482,0.843221,-2.630456,0.036794,-0.003164,0.022165,0.146098,-0.746789,-0.648816,-0.006877,0.002831,0.014264,-32.602219,-10.595375,-38.755119,,,,,,,
1512177102.684363,0.221035,0.843602,-2.630331,0.001966,-0.026677,-0.000811,0.145745,-0.747043,-0.648603,-0.012383,0.011142,0.013959,-33.127106,-10.596169,-38.525642,,,,,,,
1512177102.704352,0.220209,0.842984,-2.630636,-0.043650,-0.057699,-0.016507,0.145311,-0.746631,-0.649174,-0.006059,0.005863,0.012424,-33.055252,-11.271049,-38.751610,,,,,,,
1512177102.724372,0.219242,0.842032,-2.631018,-0.041480,-0.060893,-0.018618,0.144837,-0.745998,-0.650007,-0.009141,0.003536,0.007109,-32.977783,-10.745949,-38.527000,,,,,,,
1512177102.744361,0.218245,0.841094,-2.631260,-0.043714,-0.055569,-0.012235,0.144340,-0.745373,-0.650834,-0.004097,-0.003406,-0.002227,-33.055664,-11.346062,-38.901619,,,,,,,
1512177102.764380,0.217040,0.840423,-2.631430,-0.029923,-0.067306,-0.008879,0.143664,-0.744925,-0.651496,-0.007693,-0.000665,-0.009911,-33.049637,-10.071053,-38.301048,,,,,,,
1512177102.784369,0.215696,0.839781,-2.631618,-0.039478,-0.068383,-0.011153,0.142890,-0.744497,-0.652156,-0.007225,-0.002329,-0.005117,-33.050949,-10.371056,-38.226189,,,,,,,
1512177102.804358,0.214216,0.838753,-2.631632,-0.053320,-0.081217,-0.012462,0.142087,-0.743810,-0.653114,-0.009824,0.013387,-0.021477,-33.051025,-10.371056,-38.376183,,,,,,,
1512177102.824378,0.212184,0.837369,-2.631604,-0.104702,-0.124044,-0.001629,0.140977,-0.742884,-0.654407,-0.003815,0.001444,-0.004773,-33.124222,-9.996162,-38.150368,,,,,,,
1512177102.844368,0.210120,0.835674,-2.631690,-0.046444,-0.115329,-0.043398,0.139888,-0.741749,-0.655927,0.000615,0.000049,0.000928,-33.277740,-10.746391,-38.449440,,,,,,,
1512177102.864387,0.208576,0.834965,-2.633633,-0.011712,-0.144042,-0.082439,0.138984,-0.741273,-0.656657,-0.011314,0.031266,0.010767,-33.802673,-10.747185,-38.294975,,,,,,,
1512177102.884376,0.208849,0.834724,-2.637042,0.035018,-0.092595,-0.133820,0.139201,-0.741111,-0.656793,-0.031107,0.033515,0.015466,-33.200272,-10.221275,-38.224846,,,,,,,
1512177102.904396,0.211966,0.835577,-2.641749,0.104505,0.029296,-0.139852,0.141114,-0.741684,-0.655738,-0.021836,0.010910,0.017966,-33.050537,-10.296059,-38.076149,,,,,,,
1512177102.924384,0.216122,0.837790,-2.645767,0.144135,0.076251,-0.083678,0.143486,-0.743166,-0.653541,-0.004310,-0.005384,0.006553,-33.426849,-10.596611,-37.998100,,,,,,,
1512177102.944373,0.220242,0.840097,-2.649669,0.135243,0.068846,-0.126474,0.145802,-0.744708,-0.651269,-0.048496,0.040545,-0.001670,-32.902512,-10.745827,-38.002632,,,,,,,
1512177102.964392,0.227713,0.842424,-2.656031,0.198393,0.195133,-0.200812,0.150272,-0.746259,-0.648472,-0.053974,0.054334,-0.018353,-33.053528,-10.971062,-38.001472,,,,,,,
1512177102.984381,0.240618,0.847978,-2.664499,0.431997,0.406990,-0.198822,0.157637,-0.749944,-0.642443,-0.004347,0.032278,-0.052015,-32.229126,-11.119820,-37.858543,,,,,,,
1512177103.004401,0.256515,0.858143,-2.673546,0.627310,0.476613,-0.144580,0.165888,-0.756630,-0.632450,0.016150,0.002296,-0.027997,-32.007843,-11.869499,-38.535805,,,,,,,
1512177103.024390,0.272319,0.869305,-2.682994,0.582515,0.397507,-0.146568,0.173579,-0.763880,-0.621576,0.023290,-0.024755,0.012705,-31.560760,-12.543816,-38.314934,,,,,,,
1512177103.044379,0.284001,0.877383,-2.690485,0.383453,0.241166,-0.107354,0.179094,-0.769069,-0.613562,0.039260,-0.038900,0.034964,-31.336777,-12.768486,-38.316948,,,,,,,
1512177103.064399,0.290375,0.881724,-2.695571,0.182452,0.064550,-0.081033,0.182043,-0.771836,-0.609204,0.045206,-0.052017,0.039502,-31.038239,-13.068031,-38.544640,,,,,,,
1512177103.084388,0.291176,0.882346,-2.697616,-0.019962,-0.086474,-0.032255,0.182393,-0.772232,-0.608598,0.046474,-0.051392,0.044511,-31.119537,-14.418159,-38.994621,,,,,,,
1512177103.104408,0.288635,0.880809,-2.697537,-0.084337,-0.125071,-0.008801,0.181184,-0.771254,-0.610196,0.029326,-0.033555,0.033918,-31.039856,-13.443031,-38.394814,,,,,,,
1512177103.124397,0.286635,0.879875,-2.697345,-0.017239,-0.061953,-0.001210,0.180167,-0.770659,-0.611248,0.017038,-0.020478,0.027966,-31.339890,-13.443489,-38.467262,,,,,,,
1512177103.144386,0.286565,0.880578,-2.697897,0.058504,-0.002021,-0.002039,0.179971,-0.771107,-0.610741,-0.014993,0.008824,-0.002251,-31.264847,-13.443382,-38.392906,,,,,,,
1512177103.164406,0.287752,0.881925,-2.698981,0.069362,0.023655,-0.012452,0.180400,-0.771964,-0.609530,-0.010524,0.007484,-0.004362,-31.040863,-13.668037,-38.394920,,,,,,,
1512177103.184394,0.288943,0.882814,-2.700033,0.039529,0.011863,-0.013991,0.180931,-0.772529,-0.608657,-0.001152,-0.002938,0.001250,-31.339737,-13.443489,-38.167259,,,,,,,
1512177103.204413,0.289688,0.883517,-2.700917,0.040581,0.009729,-0.012915,0.181229,-0.772975,-0.608001,0.003739,-0.005696,0.011383,-31.264557,-13.368370,-38.467873,,,,,,,
1512177103.224402,0.290173,0.884375,-2.701344,0.047657,0.008619,0.009567,0.181334,-0.773519,-0.607278,0.004076,-0.004176,0.013833,-31.489136,-13.293709,-38.315926,,,,,,,
1512177103.244391,0.290470,0.884969,-2.701460,0.014759,0.019272,0.001667,0.181382,-0.773896,-0.606783,-0.010408,0.009842,0.016299,-31.489822,-13.443718,-38.315987,,,,,,,
1512177103.264411,0.291071,0.884954,-2.701902,-0.001969,0.017147,-0.018839,0.181751,-0.773886,-0.606686,-0.016605,0.012319,-0.001423,-31.491806,-13.893715,-38.241203,,,,,,,
1512177103.284400,0.292389,0.885006,-2.702859,0.022719,0.054591,-0.026878,0.182538,-0.773919,-0.606407,-0.022825,0.008920,0.003318,-31.417099,-13.968605,-38.166862,,,,,,,
1512177103.304420,0.295458,0.885954,-2.704361,0.086796,0.134809,-0.029935,0.184185,-0.774519,-0.605142,-0.027141,0.023252,0.063653,-31.266052,-13.743385,-38.093040,,,,,,,
1512177103.324409,0.299186,0.886899,-2.705760,0.018553,0.094114,-0.031066,0.186224,-0.775116,-0.603751,0.029627,-0.007736,0.028556,-31.267548,-14.043373,-38.393181,,,,,,,
1512177103.344398,0.298202,0.884890,-2.706476,-0.157267,-0.135787,-0.047207,0.186087,-0.773845,-0.605421,0.056024,-0.036152,-0.028337,-31.191238,-13.743263,-38.468681,,,,,,,
1512177103.364418,0.294183,0.882220,-2.705615,-0.084660,-0.143265,0.010321,0.184250,-0.772151,-0.608140,0.032836,-0.014546,-0.079070,-31.265594,-13.593376,-38.542976,,,,,,,
1512177103.384407,0.293170,0.883967,-2.704585,0.166874,0.091965,0.089407,0.183244,-0.773261,-0.607033,-0.012330,-0.018457,-0.041221,-31.191498,-13.818260,-38.318718,,,,,,,
1512177103.404425,0.296497,0.889417,-2.704168,0.271535,0.204300,0.083853,0.184029,-0.776705,-0.602381,-0.027703,0.017031,0.012644,-31.267883,-14.118385,-38.393211,,,,,,,
1512177103.424414,0.299139,0.893387,-2.704411,0.118643,0.052468,0.038466,0.184709,-0.779199,-0.598942,0.002485,-0.001792,0.048389,-31.270660,-14.718391,-38.543495,,,,,,,
1512177103.444403,0.296932,0.892696,-2.703919,-0.119602,-0.162516,-0.005177,0.183545,-0.778766,-0.599862,0.014560,-0.005155,0.052880,-30.969543,-14.492928,-38.320930,,,,,,,
1512177103.464423,0.291662,0.889209,-2.702740,-0.183559,-0.217088,-0.008427,0.181161,-0.776573,-0.603419,0.011420,-0.003593,0.019343,-31.418533,-14.268608,-38.317009,,,,,,,
1512177103.484414,0.287240,0.886707,-2.701264,-0.095424,-0.114457,0.017727,0.179040,-0.774995,-0.606075,-0.025567,0.012193,-0.003925,-31.268188,-14.193382,-38.318245,,,,,,,
1512177103.504434,0.285821,0.885925,-2.700613,-0.030058,-0.001097,0.003079,0.178351,-0.774501,-0.606910,-0.043341,0.027812,-0.007745,-31.640823,-13.668938,-38.314812,,,,,,,
1512177103.524423,0.286520,0.885506,-2.700732,-0.020220,0.043808,-0.009415,0.178867,-0.774236,-0.607096,-0.021594,0.009511,-0.012105,-31.343491,-14.268486,-38.242653,,,,,,,
1512177103.544412,0.287536,0.885092,-2.700895,-0.020303,0.043800,-0.004085,0.179575,-0.773973,-0.607222,0.008322,-0.008314,-0.004945,-31.495071,-14.568718,-38.691505,,,,,,,
1512177103.564431,0.287508,0.884977,-2.700797,0.002879,-0.017082,0.008830,0.179582,-0.773901,-0.607312,0.023207,-0.009837,-0.006808,-31.566879,-13.893822,-38.390572,,,,,,,
1512177103.584420,0.286677,0.885228,-2.700704,0.014670,-0.034149,0.003609,0.179023,-0.774059,-0.607275,0.006676,-0.001927,0.010428,-31.266953,-13.893379,-38.543114,,,,,,,
1512177103.604440,0.286313,0.885401,-2.701130,0.011783,-0.026637,-0.014528,0.178764,-0.774169,-0.607212,-0.003288,0.001601,0.009235,-31.266846,-13.893379,-38.318108,,,,,,,
1512177103.624429,0.286607,0.885473,-2.701891,0.009806,0.003282,-0.022984,0.178927,-0.774215,-0.607105,-0.009234,0.011657,0.004429,-31.342102,-13.968483,-38.167503,,,,,,,
1512177103.644418,0.287420,0.885373,-2.702819,0.002374,0.004346,-0.024151,0.179443,-0.774151,-0.607034,-0.008010,0.007687,0.002664,-31.343109,-14.193489,-38.167610,,,,,,,
1512177103.664437,0.288029,0.885234,-2.703762,-0.006146,0.002201,-0.024280,0.179843,-0.774063,-0.607028,-0.006091,0.000992,0.010974,-31.190414,-13.593269,-38.168602,,,,,,,
1512177103.684426,0.288170,0.884760,-2.704384,-0.020077,-0.030946,-0.022469,0.180032,-0.773763,-0.607355,0.003241,-0.008525,-0.005133,-31.566833,-13.893822,-38.315559,,,,,,,
1512177103.704446,0.287792,0.884353,-2.704999,-0.008380,-0.038403,-0.020190,0.179892,-0.773505,-0.607724,0.003030,-0.003426,0.001584,-31.117401,-14.043159,-38.094460,,,,,,,
1512177103.724435,0.287787,0.884456,-2.705827,0.022559,-0.019128,-0.020741,0.179867,-0.773570,-0.607649,0.000355,0.000041,0.002195,-31.565796,-13.668831,-38.240456,,,,,,,
1512177103.744424,0.288426,0.885002,-2.706930,0.038667,0.000138,-0.026836,0.180135,-0.773916,-0.607129,-0.000142,0.001119,0.000943,-31.416763,-13.893608,-38.166832,,,,,,,
1512177103.764443,0.289589,0.885515,-2.708198,0.030205,0.019357,-0.030091,0.180727,-0.774241,-0.606538,-0.003985,-0.000036,0.005662,-31.418533,-14.268608,-38.317009,,,,,,,
1512177103.784432,0.290742,0.885874,-2.709433,0.026986,0.008663,-0.030178,0.181347,-0.774468,-0.606063,-0.002208,0.002389,0.008391,-31.266129,-13.743385,-38.243050,,,,,,,
1512177103.804452,0.291613,0.886100,-2.710613,0.015244,-0.006306,-0.029332,0.181824,-0.774611,-0.605737,-0.001053,0.002516,0.011987,-31.492783,-14.118721,-38.166298,,,,,,,
1512177103.824441,0.292042,0.886078,-2.711662,-0.000756,-0.014879,-0.029595,0.182089,-0.774597,-0.605675,-0.009436,0.005173,0.017403,-31.193069,-14.193275,-38.093895,,,,,,,
1512177103.844430,0.292460,0.885647,-2.712476,-0.018920,-0.008502,-0.026637,0.182439,-0.774324,-0.605919,-0.008031,0.006624,0.013771,-31.941727,-13.894386,-38.087379,,,,,,,
1512177103.864449,0.292896,0.885305,-2.713228,-0.006136,0.002199,-0.025348,0.182779,-0.774108,-0.606093,-0.004511,0.011275,0.016218,-31.492783,-14.118721,-38.166298,,,,,,,
1512177103.884438,0.293854,0.885175,-2.714166,0.003520,0.021446,-0.028340,0.183389,-0.774025,-0.606014,-0.000879,-0.000251,0.010341,-31.416809,-13.893608,-38.241844,,,,,,,
1512177103.904458,0.295141,0.884925,-2.715086,-0.013479,0.040654,-0.030650,0.184225,-0.773867,-0.605962,-0.000448,0.004229,0.007146,-31.492859,-14.118721,-38.316307,,,,,,,
1512177103.924447,0.296569,0.884550,-2.715834,-0.007289,0.044912,-0.017752,0.185175,-0.773630,-0.605976,0.009497,-0.004751,-0.003643,-31.270584,-14.718391,-38.393501,,,,,,,
1512177103.944436,0.297719,0.884552,-2.716431,0.010741,0.027837,-0.013288,0.185871,-0.773631,-0.605761,-0.000263,0.002070,-0.001310,-31.493408,-14.268715,-38.091377,,,,,,,
1512177103.964456,0.298239,0.884877,-2.717118,0.024551,-0.009531,-0.012151,0.186112,-0.773837,-0.605424,-0.003174,-0.001630,-0.001936,-31.792511,-14.044167,-38.313713,,,,,,,
1512177103.984445,0.298238,0.885174,-2.717841,0.016114,-0.034098,-0.018755,0.186044,-0.774025,-0.605205,-0.009408,-0.003639,-0.004216,-31.567398,-14.043831,-38.090630,,,,,,,
1512177104.004464,0.298128,0.885240,-2.718755,0.007667,-0.031969,-0.024203,0.185962,-0.774067,-0.605176,-0.011387,0.001545,-0.013034,-31.492065,-13.968712,-38.091240,,,,,,,
1512177104.024453,0.298230,0.885351,-2.719388,0.014861,-0.007426,-0.006957,0.185999,-0.774137,-0.605075,-0.006052,-0.003985,-0.013547,-31.266907,-13.893379,-38.468117,,,,,,,
1512177104.044442,0.298399,0.885778,-2.719563,0.023104,0.004305,0.011328,0.186004,-0.774407,-0.604728,0.000779,-0.010795,-0.014276,-31.268417,-14.268379,-38.093285,,,,,,,
1512177104.064462,0.297947,0.886379,-2.719479,0.026229,-0.024537,0.014471,0.185594,-0.774787,-0.604367,-0.001634,-0.006524,-0.005664,-31.495102,-14.643715,-38.091545,,,,,,,
1512177104.084451,0.297535,0.886982,-2.719505,0.032760,-0.008489,0.007160,0.185208,-0.775169,-0.603996,-0.009243,-0.006920,0.006492,-31.266388,-13.818382,-38.093071,,,,,,,
1512177104.104470,0.297599,0.887582,-2.719660,0.029635,0.002193,0.002886,0.185110,-0.775547,-0.603540,-0.005697,-0.002880,0.003671,-31.267136,-13.968376,-38.243141,,,,,,,
1512177104.124459,0.298028,0.887997,-2.720203,0.020281,0.008619,-0.011085,0.185275,-0.775810,-0.603152,-0.001711,0.000571,0.002856,-31.492813,-14.118721,-38.241310,,,,,,,
1512177104.144479,0.298558,0.888294,-2.720753,0.021312,0.010751,-0.008931,0.185526,-0.775997,-0.602834,-0.000270,0.003444,0.003301,-31.718796,-14.344063,-38.164497,,,,,,,
1512177104.164468,0.299223,0.888701,-2.721266,0.025521,0.020368,-0.004570,0.185834,-0.776253,-0.602408,0.007449,0.007363,0.004233,-31.722397,-15.094063,-38.614845,,,,,,,
1512177104.184457,0.299678,0.889311,-2.721460,0.032708,0.016071,0.011509,0.185968,-0.776638,-0.601871,0.009359,0.009426,0.012501,-31.642853,-14.118950,-38.315025,,,,,,,
1512177104.204476,0.299664,0.890062,-2.721230,0.031436,0.008572,0.024259,0.185788,-0.777111,-0.601317,0.007907,0.010601,0.023359,-31.418747,-14.343605,-38.092049,,,,,,,
1512177104.224465,0.299109,0.890631,-2.720705,0.012205,-0.010687,0.026047,0.185323,-0.777469,-0.600997,0.000681,0.009463,0.031936,-31.343872,-14.343498,-38.317680,,,,,,,
1512177104.244485,0.297991,0.890419,-2.719969,-0.037806,-0.034253,0.018842,0.184700,-0.777335,-0.601361,-0.006691,0.009086,0.028516,-31.419540,-14.493614,-38.317116,,,,,,,
1512177104.264474,0.296420,0.889200,-2.719003,-0.078201,-0.036437,0.011853,0.184032,-0.776568,-0.602557,-0.004039,0.008379,0.011965,-31.794434,-14.494164,-38.088921,,,,,,,
1512177104.284463,0.295345,0.887869,-2.718133,-0.064256,0.000975,0.007919,0.183684,-0.775729,-0.603742,0.002549,0.007846,-0.012087,-31.419312,-14.418602,-38.542076,,,,,,,
1512177104.304482,0.295231,0.887326,-2.717634,-0.011002,0.025616,0.011974,0.183738,-0.775386,-0.604166,0.007454,0.000453,-0.016943,-31.719086,-14.419060,-38.089531,,,,,,,
1512177104.324471,0.295655,0.887645,-2.717507,0.024248,0.027817,0.008230,0.183922,-0.775587,-0.603852,0.011726,-0.008654,-0.005264,-31.867783,-14.119286,-38.163109,,,,,,,
1512177104.344491,0.295882,0.888332,-2.717468,0.032611,0.003242,0.016793,0.183904,-0.776021,-0.603300,0.005870,-0.007777,0.011381,-31.567856,-14.118828,-38.315666,,,,,,,
1512177104.364480,0.295731,0.888774,-2.717496,0.010431,-0.003177,0.003655,0.183713,-0.776299,-0.603000,-0.002927,-0.001441,0.025073,-31.718750,-14.344063,-38.089500,,,,,,,
1512177104.384469,0.295490,0.888828,-2.717466,0.000785,-0.017080,0.006668,0.183555,-0.776334,-0.603004,-0.003135,0.006177,0.016563,-31.942734,-14.119392,-38.087471,,,,,,,
1512177104.404488,0.294675,0.888695,-2.717202,-0.016365,-0.029941,0.010634,0.183094,-0.776250,-0.603252,-0.018818,0.009725,0.020687,-31.944199,-14.419395,-38.312614,,,,,,,
1512177104.424477,0.293767,0.888063,-2.716714,-0.046156,-0.020363,0.008106,0.182688,-0.775851,-0.603887,-0.021204,0.003741,0.012503,-32.317810,-14.119957,-38.234291,,,,,,,
1512177104.444497,0.292748,0.887052,-2.716105,-0.061036,-0.023582,0.005749,0.182299,-0.775213,-0.604824,-0.016954,-0.001749,0.000835,-31.717697,-14.119057,-38.014397,,,,,,,
1512177104.464486,0.291729,0.885717,-2.715405,-0.080240,-0.022546,0.006540,0.181980,-0.774369,-0.606000,-0.006672,-0.010345,-0.012210,-31.717102,-13.969048,-38.164314,,,,,,,
1512177104.484451,0.289681,0.883800,-2.714293,-0.119729,-0.071744,0.006863,0.181162,-0.773154,-0.607793,-0.002833,-0.014962,-0.016459,-31.941162,-13.744392,-38.312309,,,,,,,
1512177104.504471,0.286750,0.880952,-2.713070,-0.167544,-0.109183,-0.004621,0.180002,-0.771345,-0.610431,0.012381,-0.016252,-0.024076,-31.565674,-13.668831,-38.015465,,,,,,,
1512177104.524459,0.283638,0.877979,-2.711997,-0.131201,-0.104844,-0.010477,0.178742,-0.769450,-0.613187,0.011428,-0.007894,-0.020129,-31.942734,-14.119392,-38.087471,,,,,,,
1512177104.544478,0.281872,0.876479,-2.711369,-0.046179,-0.028910,0.009143,0.177980,-0.768490,-0.614610,0.010496,0.005749,-0.004577,-31.940720,-13.669395,-38.087273,,,,,,,
1512177104.564467,0.281772,0.876698,-2.711029,0.033681,0.026744,0.017957,0.177872,-0.768631,-0.614466,0.004776,0.015365,0.009562,-31.939697,-13.444389,-38.087166,,,,,,,
1512177104.584456,0.282537,0.877459,-2.711094,0.022083,0.047030,0.010394,0.178179,-0.769117,-0.613768,0.008772,0.013105,0.030363,-32.165604,-13.669731,-37.860359,,,,,,,
1512177104.604476,0.282841,0.877220,-2.711095,-0.036309,-0.011772,-0.006645,0.178416,-0.768964,-0.613890,0.010609,0.021040,0.022002,-32.164368,-13.369728,-38.085213,,,,,,,
1512177104.624465,0.281683,0.875688,-2.711124,-0.090443,-0.075911,-0.023642,0.178032,-0.767985,-0.615227,0.001396,0.018564,0.029274,-32.015152,-13.519493,-38.311562,,,,,,,
1512177104.644485,0.279779,0.873782,-2.711103,-0.090512,-0.084467,-0.020477,0.177265,-0.766762,-0.616970,0.000088,0.011712,0.039257,-32.165604,-13.669731,-37.860359,,,,,,,
1512177104.664474,0.278237,0.872099,-2.710956,-0.083136,-0.059899,-0.013888,0.176667,-0.765681,-0.618482,-0.014207,0.012080,0.042005,-32.165344,-13.594734,-38.010323,,,,,,,
1512177104.684463,0.277022,0.870358,-2.710934,-0.087283,-0.065234,-0.021430,0.176280,-0.764560,-0.619978,-0.015117,0.004428,0.017408,-32.390045,-13.520058,-38.083382,,,,,,,
1512177104.704483,0.275486,0.867980,-2.711026,-0.137110,-0.083428,-0.038202,0.175821,-0.763025,-0.621996,-0.011210,-0.010229,0.001436,-32.465637,-13.670174,-37.932808,,,,,,,
1512177104.724472,0.273324,0.864455,-2.710905,-0.190407,-0.110220,-0.041205,0.175202,-0.760742,-0.624961,-0.012924,-0.015626,-0.017801,-32.537308,-12.920280,-38.006828,,,,,,,
1512177104.744490,0.270558,0.860744,-2.710319,-0.174847,-0.099565,-0.014290,0.174226,-0.758328,-0.628159,-0.009034,-0.009693,-0.030380,-32.611511,-12.770393,-37.781120,,,,,,,
1512177104.764479,0.268141,0.858305,-2.709254,-0.098497,-0.064247,0.012526,0.173196,-0.756736,-0.630359,-0.000452,-0.010018,-0.042919,-32.461517,-12.770164,-37.782387,,,,,,,
1512177104.784468,0.266299,0.857397,-2.708354,-0.033645,-0.052417,0.024169,0.172216,-0.756141,-0.631341,0.004664,-0.012810,-0.041389,-32.310760,-12.619942,-37.633598,,,,,,,
1512177104.804488,0.264546,0.856939,-2.707548,-0.036751,-0.062027,0.017693,0.171199,-0.755842,-0.631976,-0.001033,-0.003664,-0.016721,-32.611450,-12.770393,-37.631126,,,,,,,
1512177104.824477,0.262282,0.855483,-2.706849,-0.098211,-0.083437,-0.005659,0.170053,-0.754888,-0.633424,-0.007730,0.001637,0.018220,-32.310471,-12.544945,-37.708565,,,,,,,
1512177104.844496,0.260027,0.853085,-2.706355,-0.131195,-0.099502,-0.010457,0.169089,-0.753313,-0.635553,0.000711,0.007128,0.025339,-32.684753,-12.395500,-37.630318,,,,,,,
1512177104.864486,0.257619,0.850481,-2.705762,-0.121611,-0.092011,-0.009225,0.168057,-0.751598,-0.637854,0.000232,0.010326,0.015203,-32.834717,-12.395729,-37.554024,,,,,,,
1512177104.884475,0.255496,0.848778,-2.705267,-0.066345,-0.076997,0.001220,0.167026,-0.750474,-0.639446,0.001263,0.003876,0.000957,-33.210022,-12.471291,-37.475883,,,,,,,
1512177104.904495,0.254199,0.847961,-2.705027,-0.035355,-0.033142,-0.000307,0.166351,-0.749933,-0.640255,-0.010940,-0.001104,0.014950,-32.909714,-12.395836,-37.553398,,,,,,,
1512177104.924484,0.253761,0.847187,-2.704755,-0.052423,-0.006467,0.001671,0.166216,-0.749421,-0.640890,-0.010103,0.004228,0.017797,-33.134308,-12.321175,-37.401451,,,,,,,
1512177104.944504,0.253167,0.845485,-2.704602,-0.104301,-0.024665,-0.021534,0.166155,-0.748293,-0.642223,-0.010943,0.002825,0.029598,-32.909302,-12.320839,-37.403358,,,,,,,
1512177104.964493,0.252629,0.842995,-2.704470,-0.126644,-0.011872,-0.022876,0.166274,-0.746639,-0.644114,-0.001922,-0.000752,0.023829,-33.283295,-12.096397,-37.400063,,,,,,,
1512177104.984482,0.252206,0.840829,-2.704109,-0.093959,-0.011867,-0.001082,0.166405,-0.745196,-0.645749,0.019188,-0.009366,-0.023899,-32.832733,-11.945732,-37.628822,,,,,,,
1512177105.004500,0.250953,0.839969,-2.703360,-0.022960,-0.042791,0.022222,0.165755,-0.744623,-0.646577,0.007906,-0.001883,-0.023970,-33.132736,-11.946175,-37.626274,,,,,,,
1512177105.024489,0.249778,0.840067,-2.702836,-0.000429,-0.020306,0.015166,0.164977,-0.744688,-0.646701,-0.010909,0.000547,-0.001996,-33.057251,-11.871071,-37.326881,,,,,,,
1512177105.044509,0.249380,0.839989,-2.702522,-0.013154,0.001043,0.011857,0.164734,-0.744636,-0.646823,-0.006836,0.005363,0.001605,-32.982651,-11.945961,-37.477547,,,,,,,
1512177105.064498,0.249139,0.839947,-2.702414,0.002998,-0.011731,0.001385,0.164586,-0.744608,-0.646892,0.000179,0.012186,-0.000889,-32.832916,-12.020729,-37.328865,,,,,,,
1512177105.084487,0.248706,0.839747,-2.702758,-0.016963,-0.038431,-0.018187,0.164342,-0.744474,-0.647108,0.000316,0.002958,0.022459,-32.907623,-11.945839,-37.403191,,,,,,,
1512177105.104506,0.248163,0.839064,-2.703234,-0.035038,-0.043788,-0.020597,0.164116,-0.744018,-0.647690,0.000588,0.003738,0.019867,-32.982986,-12.020958,-37.477592,,,,,,,
1512177105.124496,0.247580,0.838463,-2.703660,-0.018083,-0.036297,-0.013928,0.163848,-0.743616,-0.648219,0.002260,0.000193,0.009212,-32.907242,-11.870842,-37.328148,,,,,,,
1512177105.144516,0.247261,0.838533,-2.704079,0.019130,-0.021297,-0.006939,0.163628,-0.743663,-0.648221,-0.003747,0.001231,0.001813,-33.058563,-12.171059,-37.252022,,,,,,,
1512177105.164505,0.247430,0.838815,-2.704513,0.003159,-0.002100,-0.008174,0.163687,-0.743852,-0.647990,-0.005087,0.001649,0.005458,-32.683258,-12.095497,-37.330162,,,,,,,
1512177105.184494,0.246756,0.838027,-2.704667,-0.064940,-0.058792,-0.017883,0.163392,-0.743325,-0.648669,-0.004213,-0.000084,0.000064,-33.133362,-12.096184,-37.551338,,,,,,,
1512177105.204512,0.245311,0.836339,-2.704905,-0.081884,-0.078030,-0.025658,0.162760,-0.742194,-0.650120,-0.001230,-0.005578,-0.008938,-33.281906,-11.796394,-37.324928,,,,,,,
1512177105.224501,0.244360,0.835173,-2.705039,-0.035211,-0.027792,-0.009886,0.162350,-0.741413,-0.651114,-0.004895,-0.000256,-0.012384,-33.282990,-12.021400,-37.475029,,,,,,,
1512177105.244521,0.244457,0.835190,-2.705218,0.018988,0.011793,0.002766,0.162411,-0.741424,-0.651085,0.000217,0.002456,-0.016212,-33.282364,-11.871407,-37.549965,,,,,,,
1512177105.264510,0.244584,0.836037,-2.705296,0.045453,0.000064,0.013770,0.162341,-0.741992,-0.650456,0.005002,-0.000897,-0.005581,-33.358597,-12.171516,-37.324471,,,,,,,
1512177105.284499,0.244364,0.836694,-2.705353,0.019982,-0.014916,0.005886,0.162080,-0.742432,-0.650019,-0.003480,-0.004653,0.007974,-33.133667,-12.171181,-37.476387,,,,,,,
1512177105.304518,0.243732,0.836791,-2.705302,-0.004535,-0.030971,0.005477,0.161652,-0.742498,-0.650050,-0.008362,-0.000682,0.003780,-33.132248,-11.871178,-37.326241,,,,,,,
1512177105.324507,0.243297,0.836684,-2.705315,-0.000188,-0.009594,0.001349,0.161388,-0.742426,-0.650198,-0.005520,0.007532,0.010565,-33.207550,-11.946297,-37.250633,,,,,,,
1512177105.344527,0.243218,0.837045,-2.705311,0.028405,-0.002102,0.012447,0.161272,-0.742667,-0.649951,0.004225,0.003165,0.002185,-33.207962,-12.021294,-37.400673,,,,,,,
1512177105.364516,0.243031,0.837807,-2.705339,0.034884,-0.005279,0.008270,0.161015,-0.743178,-0.649431,-0.001743,0.005110,0.010088,-33.133560,-12.171181,-37.251381,,,,,,,
1512177105.384506,0.243223,0.838463,-2.705484,0.029633,0.013945,0.003994,0.161022,-0.743617,-0.648927,-0.006511,0.000147,0.018754,-33.283188,-12.096397,-37.175072,,,,,,,
1512177105.404525,0.243638,0.838848,-2.705691,0.008443,0.022472,-0.003746,0.161222,-0.743874,-0.648582,-0.005353,0.002343,0.024528,-33.207626,-11.946297,-37.400627,,,,,,,
1512177105.424515,0.244082,0.838415,-2.705942,-0.031942,0.002134,-0.011863,0.161588,-0.743584,-0.648823,0.004809,-0.000816,0.006657,-33.132614,-11.946175,-37.401268,,,,,,,
1512177105.444534,0.243753,0.837800,-2.706174,-0.021313,-0.027763,-0.011814,0.161484,-0.743173,-0.649320,0.005966,0.001229,0.001569,-33.132126,-11.871178,-37.101234,,,,,,,
1512177105.464522,0.243508,0.837758,-2.706404,0.010492,-0.008513,-0.000628,0.161333,-0.743145,-0.649390,-0.001162,0.000225,-0.000665,-33.208176,-12.096291,-37.175713,,,,,,,
1512177105.484511,0.243576,0.838100,-2.706631,0.014809,0.002185,-0.002658,0.161316,-0.743373,-0.649132,-0.009217,0.005321,0.001153,-33.359573,-12.396507,-37.249580,,,,,,,
1512177105.504513,0.243911,0.838216,-2.706940,0.006331,0.009651,-0.005955,0.161513,-0.743451,-0.648994,-0.006285,0.000760,0.003486,-32.907623,-11.945839,-37.403191,,,,,,,
1512177105.524502,0.244232,0.838452,-2.707275,0.019095,0.006468,-0.003646,0.161679,-0.743609,-0.648772,-0.008175,0.003604,0.004699,-33.283218,-12.096397,-37.250069,,,,,,,
1512177105.544521,0.244387,0.838793,-2.707442,0.011458,-0.005318,0.005794,0.161717,-0.743837,-0.648502,0.001857,-0.005187,-0.000287,-33.282623,-11.946404,-37.400002,,,,,,,
1512177105.564510,0.243562,0.838647,-2.707227,-0.024823,-0.039556,0.006216,0.161209,-0.743739,-0.648740,-0.004348,-0.000142,-0.007465,-33.206268,-11.646278,-37.400490,,,,,,,
1512177105.584530,0.242649,0.837901,-2.706889,-0.038687,-0.018219,0.007153,0.160750,-0.743241,-0.649425,-0.004744,-0.001144,0.001003,-33.433258,-12.096626,-37.323799,,,,,,,
1512177105.604519,0.242101,0.837828,-2.706528,0.010230,-0.009612,0.015356,0.160407,-0.743191,-0.649566,0.003961,0.001996,-0.003342,-33.282288,-11.871407,-37.399956,,,,,,,
1512177105.624508,0.241558,0.838194,-2.706236,0.012354,-0.014951,0.015367,0.159989,-0.743436,-0.649389,0.002334,0.000516,0.002782,-33.357956,-12.021507,-37.399391,,,,,,,
1512177105.644527,0.240786,0.838242,-2.706106,-0.008814,-0.044867,0.005365,0.159479,-0.743469,-0.649477,0.003958,-0.003129,0.008974,-33.281830,-11.796394,-37.174934,,,,,,,
1512177105.664516,0.239574,0.837746,-2.705705,-0.036679,-0.034248,0.014592,0.158779,-0.743137,-0.650028,-0.000042,-0.000302,0.014073,-33.731873,-11.797081,-37.246117,,,,,,,
1512177105.684536,0.238624,0.837217,-2.705182,-0.025947,-0.013927,0.011621,0.158255,-0.742783,-0.650561,-0.008993,0.004700,0.012270,-33.656570,-11.721962,-37.321709,,,,,,,
1512177105.704525,0.238299,0.836629,-2.704849,-0.035425,0.003160,0.005146,0.158146,-0.742389,-0.651037,-0.004155,0.001895,0.006979,-33.656570,-11.721962,-37.321709,,,,,,,
1512177105.724514,0.238253,0.836203,-2.704584,-0.014110,0.016005,0.005497,0.158191,-0.742103,-0.651351,0.005719,0.005302,-0.003999,-33.507584,-11.946739,-37.323082,,,,,,,
1512177105.744533,0.238658,0.836536,-2.704505,0.029531,0.025680,0.010429,0.158396,-0.742327,-0.651047,0.006506,0.004076,-0.005508,-33.507172,-11.871742,-37.173058,,,,,,,
1512177105.764522,0.238693,0.837408,-2.704580,0.042354,-0.010610,0.007292,0.158266,-0.742911,-0.650412,0.004546,0.001700,0.003561,-33.431488,-11.721626,-37.173622,,,,,,,
1512177105.784542,0.238625,0.838113,-2.705169,0.033064,-0.019128,-0.010993,0.158098,-0.743382,-0.649914,-0.001268,-0.003475,0.011486,-33.281494,-11.721397,-37.174889,,,,,,,
1512177105.804531,0.238557,0.838668,-2.705809,0.030913,-0.023412,-0.011043,0.157956,-0.743753,-0.649523,-0.008695,0.002497,0.011965,-33.731827,-11.797081,-37.171104,,,,,,,
1512177105.824520,0.238870,0.839199,-2.706507,0.026722,0.005428,-0.014202,0.158066,-0.744108,-0.649091,-0.015320,0.002821,0.022626,-33.508636,-12.171745,-37.398186,,,,,,,
1512177105.844539,0.239556,0.839256,-2.707073,-0.003102,0.017138,-0.014591,0.158501,-0.744147,-0.648940,-0.007729,0.003393,0.007506,-33.731796,-11.797081,-37.096107,,,,,,,
1512177105.864528,0.239803,0.838876,-2.707471,-0.020197,-0.009597,-0.013867,0.158729,-0.743892,-0.649176,-0.002219,0.002193,-0.000207,-33.731537,-11.722069,-37.246071,,,,,,,
1512177105.884548,0.239680,0.838644,-2.707801,-0.001100,-0.014924,-0.009348,0.158689,-0.743738,-0.649363,0.002459,0.002771,-0.000433,-33.282089,-11.871407,-37.024971,,,,,,,
1512177105.904537,0.239872,0.838644,-2.708269,0.000058,0.002181,-0.013533,0.158814,-0.743737,-0.649333,0.006286,-0.007224,-0.003576,-33.508072,-12.096733,-36.948158,,,,,,,
1512177105.924526,0.239886,0.838398,-2.708582,-0.013805,-0.012792,-0.013785,0.158867,-0.743573,-0.649508,0.002617,-0.002017,-0.006132,-33.507401,-11.946739,-36.948097,,,,,,,
1512177105.944546,0.239802,0.837809,-2.709155,-0.033855,-0.035233,-0.028016,0.158916,-0.743179,-0.649947,0.003376,-0.006547,-0.010804,-33.582733,-12.021858,-36.947487,,,,,,,
1512177105.964535,0.238440,0.837109,-2.709459,-0.023538,-0.091860,-0.008869,0.158154,-0.742710,-0.650668,0.011920,-0.010174,-0.008252,-34.032028,-11.872536,-36.868599,,,,,,,
1512177105.984554,0.236536,0.836451,-2.709760,-0.040256,-0.113215,-0.031578,0.157029,-0.742270,-0.651443,0.003677,0.004980,-0.002000,-33.732101,-11.872078,-37.021141,,,,,,,
1512177106.004543,0.234688,0.835301,-2.710892,-0.046346,-0.138819,-0.050942,0.156023,-0.741499,-0.652561,-0.001497,0.001051,-0.010494,-33.732056,-11.872078,-36.946144,,,,,,,
1512177106.024532,0.232807,0.834099,-2.712293,-0.052614,-0.146286,-0.058519,0.155001,-0.740692,-0.653720,-0.004794,0.000946,0.001804,-33.957733,-12.022408,-36.944313,,,,,,,
1512177106.044552,0.229927,0.832315,-2.713773,-0.094030,-0.248868,-0.073335,0.153419,-0.739492,-0.655450,-0.019599,-0.013651,-0.008186,-34.105301,-11.497643,-36.792793,,,,,,,
1512177106.064541,0.225837,0.830327,-2.716033,-0.090488,-0.259502,-0.094642,0.151066,-0.738152,-0.657504,0.004849,0.013268,0.014468,-34.256454,-11.797859,-36.416649,,,,,,,
1512177106.084560,0.223035,0.828006,-2.717893,-0.097123,-0.194390,-0.077457,0.149601,-0.736584,-0.659593,-0.014836,0.001690,0.012804,-34.331161,-11.722969,-36.490990,,,,,,,
1512177106.104549,0.220825,0.826316,-2.719326,-0.051592,-0.124930,-0.055234,0.148415,-0.735440,-0.661135,-0.015496,0.013013,0.007754,-34.480789,-11.648201,-36.414665,,,,,,,
1512177106.124538,0.220856,0.826078,-2.720664,0.023864,0.001195,-0.034511,0.148474,-0.735279,-0.661302,-0.013190,0.013034,0.027925,-34.780823,-11.648643,-36.487129,,,,,,,
1512177106.144558,0.222062,0.826943,-2.721723,0.052411,0.026844,-0.019084,0.149131,-0.735865,-0.660501,-0.009117,0.000956,0.021830,-34.409241,-12.398094,-36.565651,,,,,,,
1512177106.164547,0.222785,0.826603,-2.722626,-0.065544,-0.017086,-0.044400,0.149664,-0.735635,-0.660638,-0.011756,0.005379,0.015847,-34.482849,-12.098198,-36.489876,,,,,,,
1512177106.184566,0.220682,0.822575,-2.723627,-0.270573,-0.230931,-0.098219,0.148922,-0.732900,-0.663837,0.003162,-0.018687,-0.030194,-34.555740,-11.648308,-36.339027,,,,,,,
1512177106.204555,0.212234,0.814887,-2.725265,-0.419102,-0.627338,-0.161451,0.144491,-0.727648,-0.670560,0.064035,-0.003004,-0.080280,-34.929214,-11.348869,-35.960701,,,,,,,
1512177106.224544,0.198542,0.805846,-2.727928,-0.398617,-0.859055,-0.186478,0.136589,-0.721417,-0.678897,0.042473,-0.027805,-0.072919,-35.154358,-11.424217,-35.583824,,,,,,,
1512177106.244564,0.183904,0.798699,-2.733555,-0.290088,-0.981488,-0.308994,0.127576,-0.716449,-0.685875,-0.032758,0.023029,-0.059151,-36.204178,-11.425789,-35.199913,,,,,,,
1512177106.264553,0.168213,0.790098,-2.743257,-0.442261,-1.192919,-0.465449,0.117827,-0.710422,-0.693842,-0.050017,0.008365,-0.022405,-37.027573,-11.127022,-34.667763,,,,,,,
1512177106.284572,0.150865,0.777235,-2.755936,-0.627138,-1.355350,-0.575298,0.107137,-0.701311,-0.704758,-0.068136,0.024080,0.006364,-37.403015,-11.277580,-34.214653,,,,,,,
1512177106.304561,0.130547,0.760477,-2.771168,-0.864603,-1.875595,-0.746857,0.094314,-0.689267,-0.718342,-0.160537,0.103696,-0.161830,-38.374649,-10.679039,-32.856087,,,,,,,
1512177106.324550,0.106900,0.738750,-2.801271,-1.006860,-2.341091,-1.515965,0.078882,-0.673364,-0.735090,-0.202051,0.219522,-0.046907,-39.500916,-11.130730,-31.346733,,,,,,,
1512177106.344570,0.085143,0.710438,-2.846432,-1.406557,-2.703013,-1.925985,0.064467,-0.652166,-0.755330,-0.281584,0.242391,0.073720,-40.702499,-11.657539,-29.761787,,,,,,,
1512177106.364559,0.066293,0.677219,-2.894269,-1.500669,-2.226694,-1.949145,0.051626,-0.626628,-0.777607,-0.286535,0.169124,0.145084,-41.604599,-12.333885,-27.879463,,,,,,,
1512177106.384579,0.059047,0.650103,-2.940916,-1.035947,-1.571255,-1.913484,0.046975,-0.605269,-0.794634,-0.334253,0.121077,0.176348,-42.205994,-12.784782,-26.599571,,,,,,,
1512177106.404568,0.059475,0.631368,-2.990643,-0.786301,-1.410120,-2.174751,0.047981,-0.590249,-0.805794,-0.361488,0.099832,0.228737,-42.286316,-14.134911,-25.099556,,,,,,,
1512177106.424557,0.063836,0.607859,-3.052925,-1.196579,-1.783159,-2.913310,0.052365,-0.571111,-0.819201,-0.277738,0.105184,0.231875,-41.616638,-15.408897,-24.280907,,,,,,,
1512177106.444576,0.067595,0.571581,-3.132083,-1.874189,-2.214506,-3.539741,0.056807,-0.540963,-0.839126,0.194139,-0.131569,0.179656,-40.572830,-16.907341,-23.165520,,,,,,,
1512177106.464565,0.057205,0.533511,3.097457,-1.443277,-1.921613,-1.147707,0.049228,-0.508560,-0.859618,1.658124,-1.135193,-0.386613,-39.828598,-18.331230,-21.897560,,,,,,,
1512177106.484585,0.011366,0.515241,3.122229,-0.714747,-1.535398,1.819306,0.009890,-0.492745,-0.870118,0.046094,-0.503822,-0.046463,-40.276733,-18.031898,-20.843590,,,,,,,
1512177106.504543,-0.021080,0.507067,-3.126333,-0.233697,-0.263258,1.154822,-0.018426,-0.485616,-0.873978,-0.221915,0.036626,0.245285,-41.694336,-16.459023,-20.230766,,,,,,,
1512177106.524532,-0.026542,0.505387,-3.114590,-0.004001,0.093672,0.172220,-0.023221,-0.484146,-0.874679,-0.347415,0.111755,-0.144196,-41.763306,-15.184120,-19.629539,,,,,,,
1512177106.544551,-0.024772,0.508965,-3.120232,0.321240,-0.180238,-0.428476,-0.021630,-0.487274,-0.872981,-0.082343,-0.044281,-0.138738,-41.388077,-15.108559,-19.857689,,,,,,,
1512177106.564540,-0.021390,0.521924,-3.131809,0.802135,-0.069221,-0.558643,-0.018541,-0.498549,-0.866663,-0.017959,-0.089067,-0.060293,-40.940292,-15.632896,-19.561745,,,,,,,
1512177106.584560,-0.013367,0.539514,3.135515,0.835132,0.024260,-0.809429,-0.011468,-0.513719,-0.857881,-0.015632,-0.021742,-0.127546,-41.019760,-16.608009,-19.711571,,,,,,,
1512177106.604549,-0.002214,0.551256,3.110707,0.373519,-0.180760,-1.207010,-0.001886,-0.523758,-0.851865,-0.011099,-0.026474,-0.084399,-40.424515,-17.657112,-19.792152,,,,,,,
1512177106.624538,0.007437,0.550111,3.078583,-0.305521,-0.458987,-1.481132,0.006340,-0.522782,-0.852443,-0.193108,-0.019622,-0.053197,-39.529312,-18.705772,-19.950279,,,,,,,
1512177106.644557,0.023811,0.539722,3.035422,-0.517935,-0.130168,-2.096053,0.020424,-0.513897,-0.857608,-0.303643,-0.025150,-0.052960,-39.157791,-19.455223,-20.178825,,,,,,,
1512177106.664546,0.050736,0.529764,2.980473,-0.311956,0.038636,-2.489052,0.043762,-0.505330,-0.861816,-0.150727,-0.093211,-0.016099,-37.441193,-21.252647,-20.794304,,,,,,,
1512177106.684566,0.084553,0.522320,2.923771,-0.167124,0.367683,-2.399460,0.073192,-0.498892,-0.863568,-0.115383,-0.174493,-0.022922,-35.799133,-22.900169,-21.859093,,,,,,,
1512177106.704555,0.112780,0.517028,2.874620,0.056609,0.053096,-1.953832,0.097831,-0.494299,-0.863769,0.032448,-0.297129,0.004684,-34.081558,-24.472603,-22.549477,,,,,,,
1512177106.724544,0.130256,0.518537,2.836938,0.391226,-0.005106,-1.432148,0.112814,-0.495610,-0.861188,-0.037176,-0.217006,0.080502,-32.438904,-25.970146,-23.764183,,,,,,,
1512177106.744563,0.140240,0.525261,2.808190,0.623643,-0.469068,-1.067935,0.120937,-0.501439,-0.856699,0.021534,0.084142,0.171274,-30.868561,-26.867790,-24.977974,,,,,,,
1512177106.764552,0.144929,0.540281,2.779966,1.107180,-0.435019,-1.168484,0.123852,-0.514377,-0.848574,0.054875,0.209308,0.004595,-30.197937,-27.841774,-24.984169,,,,,,,
1512177106.784572,0.150231,0.563933,2.746129,1.526730,-0.743926,-1.283945,0.126492,-0.534515,-0.835640,0.196277,0.349883,-0.013191,-28.853714,-29.114754,-25.071220,,,,,,,
1512177106.804561,0.160575,0.592995,2.714637,1.654683,-0.305500,-0.875460,0.132589,-0.558847,-0.818603,0.250911,0.413980,-0.192140,-27.517746,-32.337761,-24.109200,,,,,,,
1512177106.824550,0.162697,0.622867,2.698103,1.418213,-0.203765,-0.106706,0.131562,-0.583367,-0.801483,0.241592,0.371422,-0.041474,-27.517746,-32.337761,-24.109200,,,,,,,
1512177106.844569,0.157673,0.646912,2.702952,1.006381,0.021664,0.635418,0.125294,-0.602725,-0.788050,0.206951,0.333850,-0.039312,-27.221313,-33.237312,-23.137169,,,,,,,
1512177106.864559,0.154433,0.664823,2.721990,0.627580,0.658062,1.011664,0.121061,-0.616920,-0.777660,0.181445,0.299171,-0.031743,-27.970703,-33.088432,-23.280724,,,,,,,
1512177106.884578,0.154202,0.676550,2.749774,0.302144,0.904943,1.234877,0.119761,-0.626107,-0.770485,0.242803,0.298699,-0.060386,-28.418442,-32.564110,-23.501656,,,,,,,
1512177106.904567,0.151132,0.685622,2.782077,0.283003,0.821351,1.356904,0.116535,-0.633155,-0.765202,0.290737,0.244940,-0.037761,-29.316345,-32.115456,-23.343803,,,,,,,
1512177106.924587,0.143152,0.698944,2.817571,0.590750,0.684811,1.500543,0.109212,-0.643409,-0.757692,0.249171,0.216972,-0.003234,-30.064590,-31.741570,-23.187248,,,,,,,
1512177106.944576,0.130168,0.720074,2.855792,0.993481,0.535610,1.636984,0.097579,-0.659441,-0.745397,0.185533,0.182100,0.014867,-30.958893,-30.542915,-22.579048,,,,,,,
1512177106.964565,0.110943,0.746872,2.898249,1.198081,0.433122,1.766454,0.081245,-0.679347,-0.729306,0.117546,0.133082,0.016583,-32.008514,-30.544487,-21.820137,,,,,,,
1512177106.984584,0.088843,0.774811,2.943321,1.229185,0.473775,1.756382,0.063400,-0.699581,-0.711735,0.075547,0.097027,0.041324,-33.355453,-29.946510,-21.058372,,,,,,,
1512177107.004573,0.065750,0.802008,2.991316,1.231232,0.601813,1.832548,0.045681,-0.718754,-0.693762,0.038212,0.084797,0.070181,-34.550613,-28.973305,-20.147743,,,,,,,
1512177107.024593,0.038755,0.829598,3.046651,1.317106,0.690159,2.060106,0.026160,-0.737660,-0.674665,0.001154,0.063298,0.085691,-36.122314,-28.300667,-19.609032,,,,,,,
1512177107.044582,0.003149,0.858037,3.111904,1.398022,0.622592,2.256128,0.002059,-0.756560,-0.653921,-0.010802,0.030623,0.082800,-37.091736,-27.177116,-18.550240,,,,,,,
1512177107.064571,-0.039873,0.884868,-3.101396,1.355306,0.456028,2.188838,-0.025249,-0.773831,-0.632888,-0.001469,-0.023654,0.076736,-38.134277,-25.603676,-17.790596,,,,,,,
1512177107.084590,-0.087353,0.907247,-3.032409,1.174941,0.232875,1.995687,-0.053734,-0.787811,-0.613568,0.010658,-0.059250,0.061215,-39.401474,-23.955589,-17.028999,,,,,,,
1512177107.104579,-0.136562,0.924009,-2.968973,0.986097,-0.052100,1.732910,-0.082040,-0.798024,-0.597015,-0.029929,-0.045116,0.022628,-40.294083,-22.381920,-16.420631,,,,,,,
1512177107.124599,-0.187411,0.937891,-2.909953,0.989597,-0.220565,1.576728,-0.110204,-0.806312,-0.581133,-0.119029,-0.054253,0.009005,-41.190048,-21.558266,-15.737587,,,,,,,
1512177107.144588,-0.240147,0.952955,-2.851105,1.172004,-0.252189,1.503570,-0.137778,-0.815131,-0.562654,-0.139184,-0.124261,-0.025680,-41.633743,-20.283928,-14.608192,,,,,,,
1512177107.164577,-0.293816,0.969422,-2.791431,1.272372,-0.242154,1.364336,-0.163853,-0.824559,-0.541530,-0.148235,-0.158794,-0.043293,-42.755814,-19.760612,-13.473396,,,,,,,
1512177107.184596,-0.341427,0.985745,-2.738477,1.194124,-0.114448,1.009720,-0.184908,-0.833684,-0.520365,-0.123823,-0.196025,0.021022,-43.199707,-18.486275,-12.718971,,,,,,,
1512177107.204585,-0.377311,1.000015,-2.695914,1.004203,0.028875,0.767602,-0.199055,-0.841479,-0.502285,-0.109921,-0.197141,0.050183,-43.497452,-18.036720,-12.266228,,,,,,,
1512177107.224605,-0.408380,1.010698,-2.659669,0.785413,-0.064158,0.648974,-0.210979,-0.847203,-0.487580,-0.110569,-0.157603,0.075517,-43.945694,-17.662392,-12.112221,,,,,,,
1512177107.244594,-0.434629,1.018614,-2.630406,0.618920,-0.041623,0.467542,-0.220873,-0.851382,-0.475777,-0.106474,-0.127637,0.090203,-44.544952,-17.513298,-11.957054,,,,,,,
1512177107.264583,-0.449625,1.025132,-2.611105,0.439583,0.163658,0.233256,-0.225566,-0.854783,-0.467404,-0.085897,-0.102615,0.125959,-44.543381,-17.213295,-11.506920,,,,,,,
1512177107.284602,-0.451450,1.029080,-2.602325,0.167498,0.345178,0.063644,-0.224945,-0.856825,-0.463951,-0.037629,-0.075747,0.159600,-44.392212,-16.913063,-11.883049,,,,,,,
1512177107.304591,-0.444385,1.028461,-2.602123,-0.134231,0.340565,0.000622,-0.221889,-0.856506,-0.466008,0.038539,-0.044038,0.160527,-44.393936,-17.288063,-11.958229,,,,,,,
1512177107.324611,-0.435277,1.024204,-2.607010,-0.285154,0.191918,-0.035133,-0.219171,-0.854301,-0.471311,0.074700,-0.012017,0.156018,-44.318268,-17.062950,-12.633766,,,,,,,
1512177107.344600,-0.428321,1.019691,-2.613245,-0.256066,0.023246,-0.060880,-0.217486,-0.851946,-0.476327,0.065295,0.011584,0.123681,-44.469986,-17.438179,-12.707649,,,,,,,
1512177107.364589,-0.424609,1.016378,-2.618810,-0.210296,-0.076027,-0.061629,-0.216878,-0.850207,-0.479699,0.053045,0.031420,0.090371,-44.394089,-17.213066,-12.933189,,,,,,,
1512177107.384609,-0.422491,1.012684,-2.623573,-0.248382,-0.082589,-0.015298,-0.217148,-0.848256,-0.483019,0.050217,0.023458,0.058321,-44.468292,-17.063179,-12.707481,,,,,,,
1512177107.404598,-0.420454,1.007061,-2.626734,-0.332000,0.001481,0.081861,-0.218107,-0.845265,-0.487807,0.061124,0.008351,0.034743,-44.093338,-17.062614,-12.785667,,,,,,,
1512177107.424617,-0.418949,0.998900,-2.627633,-0.407155,0.058850,0.181180,-0.220171,-0.840876,-0.494420,0.067248,0.008921,0.014394,-44.240631,-16.462837,-12.784111,,,,,,,
1512177107.444606,-0.419789,0.990033,-2.625681,-0.354196,0.016041,0.264952,-0.223617,-0.836044,-0.501024,0.064483,-0.003418,-0.002485,-44.088013,-15.862617,-12.935112,,,,,,,
1512177107.464595,-0.425512,0.983188,-2.619947,-0.174498,-0.075597,0.288558,-0.228837,-0.832269,-0.504937,0.061998,-0.004508,-0.005027,-43.937302,-15.712379,-12.861320,,,,,,,
1512177107.484615,-0.434715,0.979933,-2.611828,0.007014,-0.140437,0.268576,-0.234614,-0.830460,-0.505264,0.033168,-0.018539,-0.004288,-44.086136,-15.487602,-12.559944,,,,,,,
1512177107.504584,-0.444025,0.978450,-2.602715,0.035890,-0.031436,0.268308,-0.239837,-0.829633,-0.504170,0.026061,-0.048983,0.021168,-44.384445,-15.113060,-12.557213,,,,,,,
1512177107.524603,-0.450036,0.975152,-2.594732,-0.115681,0.054821,0.283466,-0.244052,-0.827787,-0.505180,0.039203,-0.053027,0.027671,-44.082016,-14.587608,-12.409523,,,,,,,
1512177107.544592,-0.453691,0.969179,-2.588461,-0.217188,0.084546,0.299156,-0.248060,-0.824421,-0.508720,0.031446,-0.057888,0.036140,-44.305359,-14.212944,-12.482445,,,,,,,
1512177107.564581,-0.457032,0.963125,-2.582982,-0.181331,0.031279,0.255783,-0.251956,-0.820980,-0.512358,0.017443,-0.039097,0.029295,-44.230316,-14.212822,-12.408073,,,,,,,
1512177107.584601,-0.461033,0.959486,-2.578312,-0.055346,-0.023922,0.176394,-0.255331,-0.818896,-0.514018,0.009955,-0.052441,0.040751,-44.228302,-13.762825,-12.407860,,,,,,,
1512177107.604590,-0.465392,0.958538,-2.574527,0.026014,-0.073829,0.088917,-0.257918,-0.818352,-0.513593,0.003645,-0.038368,0.047025,-44.529495,-13.988274,-12.780418,,,,,,,
1512177107.624609,-0.468897,0.958527,-2.571953,0.022985,-0.064199,0.079313,-0.259720,-0.818346,-0.512694,0.007309,-0.062315,0.053191,-44.151688,-13.462700,-11.883369,,,,,,,
1512177107.644598,-0.472651,0.957666,-2.567853,0.008963,0.011465,0.157194,-0.261963,-0.817851,-0.512343,0.013657,-0.069203,0.071165,-44.376755,-13.463051,-12.031456,,,,,,,
1512177107.664587,-0.476992,0.956278,-2.562419,0.013047,0.006116,0.168966,-0.264706,-0.817051,-0.512208,0.005368,-0.064647,0.075487,-44.451797,-13.463158,-12.105827,,,,,,,
1512177107.684607,-0.481022,0.955667,-2.557804,0.044835,-0.024710,0.113881,-0.266999,-0.816699,-0.511580,0.006303,-0.077726,0.084319,-44.750336,-13.163597,-11.878136,,,,,,,
1512177107.704596,-0.484806,0.955642,-2.554750,0.023322,-0.087655,0.057916,-0.268943,-0.816684,-0.510584,0.010413,-0.082867,0.085291,-44.450333,-13.163155,-11.880684,,,,,,,
1512177107.724615,-0.486862,0.955600,-2.555058,-0.034784,-0.118527,-0.040044,-0.270007,-0.816660,-0.510060,0.004672,-0.076543,0.083455,-44.523880,-12.863258,-11.654915,,,,,,,
1512177107.744604,-0.485853,0.955023,-2.558660,-0.105350,-0.070468,-0.089938,-0.269712,-0.816327,-0.510749,0.000196,-0.070788,0.085791,-44.300827,-13.312935,-11.507042,,,,,,,
1512177107.764593,-0.481597,0.953365,-2.564443,-0.182698,0.023462,-0.114186,-0.268163,-0.815368,-0.513091,0.015081,-0.069031,0.081328,-44.374817,-13.088051,-11.506294,,,,,,,
1512177107.784613,-0.474347,0.950429,-2.571471,-0.253108,0.108792,-0.107449,-0.265528,-0.813665,-0.517149,0.028422,-0.071421,0.076872,-44.150116,-13.162697,-11.433235,,,,,,,
1512177107.804602,-0.465140,0.946666,-2.579046,-0.281852,0.170704,-0.106583,-0.262127,-0.811472,-0.522304,0.048077,-0.069952,0.088253,-44.602585,-13.688377,-11.654655,,,,,,,
1512177107.824622,-0.456114,0.943080,-2.586728,-0.237708,0.123830,-0.134888,-0.258683,-0.809371,-0.527258,0.061646,-0.063219,0.080573,-44.226685,-13.462822,-11.882729,,,,,,,
1512177107.844611,-0.448885,0.941871,-2.594028,-0.101690,0.033322,-0.178009,-0.255289,-0.808660,-0.529996,0.067041,-0.071986,0.082959,-44.077103,-13.537590,-12.034035,,,,,,,
1512177107.864600,-0.444004,0.942655,-2.601001,-0.052217,-0.073361,-0.209646,-0.252427,-0.809121,-0.530663,0.067872,-0.073462,0.081246,-43.702652,-13.612038,-12.487267,,,,,,,
1512177107.884619,-0.439163,0.943197,-2.608839,-0.103310,-0.053129,-0.212444,-0.249668,-0.809439,-0.531481,0.047779,-0.090982,0.084918,-43.328445,-13.836479,-12.040550,,,,,,,
1512177107.904608,-0.432333,0.942316,-2.617353,-0.178068,0.035389,-0.200428,-0.246331,-0.808922,-0.533821,0.046379,-0.090278,0.087059,-43.480957,-14.361702,-12.339516,,,,,,,
1512177107.924628,-0.423755,0.940357,-2.626320,-0.214436,0.084448,-0.191192,-0.242394,-0.807769,-0.537358,0.056832,-0.080186,0.090596,-43.558548,-14.961815,-12.114159,,,,,,,
1512177107.944617,-0.414746,0.938300,-2.635482,-0.200283,0.075962,-0.209138,-0.238212,-0.806554,-0.541040,0.064170,-0.063319,0.088632,-43.182266,-14.661247,-12.267220,,,,,,,
1512177107.964606,-0.405657,0.937465,-2.645486,-0.137399,0.046278,-0.274426,-0.233551,-0.806060,-0.543802,0.077820,-0.079667,0.090692,-43.034775,-15.186028,-12.568718,,,,,,,
1512177107.984625,-0.396397,0.937707,-2.656024,-0.121259,0.036708,-0.283820,-0.228429,-0.806204,-0.545761,0.101934,-0.084376,0.093353,-42.960907,-15.410912,-12.794472,,,,,,,
1512177108.004614,-0.388320,0.936881,-2.665640,-0.176822,0.002299,-0.213319,-0.224266,-0.805715,-0.548204,0.113518,-0.070186,0.086077,-42.810913,-15.410698,-12.795738,,,,,,,
1512177108.024634,-0.383056,0.934957,-2.673018,-0.168679,-0.053404,-0.128111,-0.221956,-0.804573,-0.550815,0.126726,-0.063972,0.078235,-42.962326,-15.710915,-12.944603,,,,,,,
1512177108.044623,-0.381693,0.933347,-2.677357,-0.100530,-0.137813,-0.062386,-0.221688,-0.803617,-0.552317,0.126671,-0.046817,0.064417,-42.738266,-15.935585,-12.796623,,,,,,,
1512177108.064612,-0.383549,0.932951,-2.679454,-0.021047,-0.176200,-0.035783,-0.222832,-0.803381,-0.552200,0.099968,-0.056132,0.068954,-42.887146,-15.710808,-12.570244,,,,,,,
1512177108.084631,-0.384488,0.933008,-2.681330,-0.048426,-0.079006,-0.051833,-0.223333,-0.803415,-0.551948,0.090230,-0.065619,0.068534,-42.812820,-15.860695,-12.570946,,,,,,,
1512177108.104620,-0.381197,0.931452,-2.685564,-0.174429,0.036259,-0.098032,-0.221980,-0.802487,-0.553840,0.093623,-0.064075,0.063682,-42.964951,-16.310921,-12.794884,,,,,,,
1512177108.124640,-0.374020,0.928427,-2.692485,-0.233394,0.102480,-0.139165,-0.218885,-0.800678,-0.557676,0.107679,-0.068539,0.061460,-42.588348,-15.935356,-12.947899,,,,,,,
1512177108.144629,-0.366155,0.925535,-2.699417,-0.197458,0.115310,-0.120480,-0.215320,-0.798943,-0.561540,0.131549,-0.071205,0.056977,-42.139053,-16.084694,-13.026802,,,,,,,
1512177108.164648,-0.361163,0.923393,-2.703687,-0.121915,0.057599,-0.050295,-0.213118,-0.797653,-0.564207,0.132796,-0.069321,0.057035,-42.290436,-16.384911,-13.100655,,,,,,,
1512177108.184637,-0.358600,0.922337,-2.705644,-0.055230,0.050176,-0.020566,-0.211968,-0.797015,-0.565540,0.118950,-0.073148,0.059376,-42.514099,-16.085243,-13.098610,,,,,,,
1512177108.204626,-0.355854,0.921942,-2.707025,-0.032607,0.110053,-0.031755,-0.210524,-0.796777,-0.566415,0.108686,-0.078773,0.064004,-42.515213,-16.310249,-13.323708,,,,,,,
1512177108.224646,-0.351680,0.921574,-2.708468,-0.044521,0.173027,-0.017852,-0.208258,-0.796554,-0.567564,0.100623,-0.088547,0.077467,-42.291565,-16.609917,-13.325752,,,,,,,
1512177108.244635,-0.346683,0.920764,-2.709745,-0.054080,0.215741,-0.017842,-0.205639,-0.796064,-0.569204,0.099911,-0.090990,0.082296,-41.990250,-16.309471,-13.403175,,,,,,,
1512177108.264654,-0.340755,0.919991,-2.711288,-0.065777,0.237086,-0.019005,-0.202467,-0.795596,-0.570993,0.122266,-0.109998,0.089579,-41.915741,-16.384361,-13.703835,,,,,,,
1512177108.284643,-0.335665,0.918909,-2.712531,-0.062894,0.181515,-0.002097,-0.199841,-0.794940,-0.572829,0.131420,-0.095502,0.085295,-41.841232,-16.459251,-14.004509,,,,,,,
1512177108.304632,-0.332687,0.918776,-2.712502,0.031637,0.138896,0.017248,-0.198169,-0.794859,-0.573521,0.110400,-0.089509,0.091527,-42.365631,-16.310020,-14.149986,,,,,,,
1512177108.324652,-0.331320,0.920714,-2.710665,0.134752,0.150763,0.034771,-0.196883,-0.796034,-0.572334,0.094329,-0.088137,0.100822,-42.591232,-16.460365,-13.998131,,,,,,,
1512177108.344641,-0.330148,0.923091,-2.708044,0.118576,0.178487,0.047426,-0.195598,-0.797470,-0.570772,0.092235,-0.089676,0.120196,-42.142090,-16.609688,-14.377022,,,,,,,
1512177108.364661,-0.327599,0.924528,-2.705766,0.063131,0.235011,0.051085,-0.193774,-0.798336,-0.570184,0.098910,-0.101551,0.137749,-42.292847,-16.759926,-14.525826,,,,,,,
1512177108.384650,-0.324387,0.925031,-2.704119,0.018525,0.209330,0.039689,-0.191813,-0.798639,-0.570422,0.116892,-0.097326,0.140491,-42.293900,-16.984917,-14.600929,,,,,,,
1512177108.404639,-0.322066,0.925219,-2.703318,0.008075,0.114277,0.022149,-0.190441,-0.798753,-0.570723,0.124126,-0.098174,0.136549,-42.443634,-16.910149,-14.749611,,,,,,,
1512177108.424658,-0.320404,0.925714,-2.703313,0.018190,0.076974,-0.010880,-0.189368,-0.799050,-0.570663,0.117667,-0.097358,0.121796,-42.292999,-16.759926,-14.825813,,,,,,,
1512177108.444647,-0.318373,0.926323,-2.703642,0.009594,0.102587,-0.005585,-0.188056,-0.799417,-0.570585,0.110511,-0.102363,0.121854,-42.293289,-16.834923,-14.750862,,,,,,,
1512177108.464667,-0.315477,0.926058,-2.703799,-0.046103,0.162282,0.013003,-0.186469,-0.799257,-0.571328,0.115668,-0.106642,0.112466,-41.845062,-17.209251,-14.904854,,,,,,,
1512177108.484656,-0.310804,0.924849,-2.704830,-0.093543,0.211410,-0.016294,-0.184092,-0.798530,-0.573113,0.116191,-0.111474,0.099923,-42.071701,-17.584587,-14.828117,,,,,,,
1512177108.504618,-0.303799,0.922980,-2.707735,-0.145029,0.249868,-0.060618,-0.180519,-0.797403,-0.575812,0.119423,-0.122076,0.089072,-41.919159,-16.984352,-15.129112,,,,,,,
1512177108.524637,-0.295183,0.920256,-2.711927,-0.189433,0.276549,-0.081422,-0.176183,-0.795757,-0.579421,0.119145,-0.117344,0.081558,-41.469681,-17.058678,-15.507973,,,,,,,
1512177108.544626,-0.285660,0.917265,-2.716593,-0.185052,0.296862,-0.087685,-0.171327,-0.793942,-0.583354,0.118577,-0.113758,0.075817,-41.396484,-17.433571,-15.733772,,,,,,,
1512177108.564646,-0.276034,0.914913,-2.720932,-0.130646,0.314041,-0.088968,-0.166212,-0.792510,-0.586771,0.108549,-0.113252,0.081843,-40.945496,-17.207893,-15.812492,,,,,,,
1512177108.584635,-0.266668,0.914275,-2.724784,-0.033286,0.319571,-0.109926,-0.160842,-0.792121,-0.588790,0.095550,-0.125131,0.088836,-40.949661,-18.032906,-16.712868,,,,,,,
1512177108.604624,-0.256385,0.914483,-2.729448,-0.049688,0.339919,-0.148470,-0.154738,-0.792247,-0.590254,0.085142,-0.137043,0.117491,-41.177032,-18.558235,-16.711205,,,,,,,
1512177108.624643,-0.244007,0.913220,-2.736246,-0.160735,0.363347,-0.202239,-0.147662,-0.791476,-0.593094,0.083712,-0.157361,0.134278,-41.025864,-18.258018,-17.087334,,,,,,,
1512177108.644632,-0.228569,0.909945,-2.746459,-0.275169,0.380481,-0.307240,-0.139075,-0.789470,-0.597825,0.059393,-0.139836,0.130998,-40.651871,-18.407448,-17.765587,,,,,,,
1512177108.664652,-0.208126,0.905315,-2.761097,-0.359443,0.491678,-0.428542,-0.127579,-0.786620,-0.604113,0.044343,-0.129976,0.129458,-40.429092,-18.857124,-18.142708,,,,,,,
1512177108.684641,-0.182719,0.899032,-2.779486,-0.463209,0.587863,-0.530984,-0.113087,-0.782725,-0.612007,0.061756,-0.119909,0.123253,-39.831146,-19.231224,-18.897987,,,,,,,
1512177108.704630,-0.153961,0.890633,-2.800223,-0.567890,0.652957,-0.580249,-0.096447,-0.777470,-0.621480,0.077236,-0.107036,0.119878,-39.610382,-20.055901,-19.950264,,,,,,,
1512177108.724649,-0.124388,0.879955,-2.821521,-0.652784,0.662491,-0.602764,-0.079054,-0.770710,-0.632262,0.095900,-0.069057,0.112777,-38.934296,-19.754890,-20.480873,,,,,,,
1512177108.744638,-0.094887,0.868563,-2.842462,-0.640281,0.665677,-0.585517,-0.061198,-0.763402,-0.643018,0.133707,-0.057765,0.116895,-37.812515,-20.353203,-21.540703,,,,,,,
1512177108.764658,-0.070127,0.857131,-2.859852,-0.611365,0.511677,-0.471564,-0.045868,-0.755967,-0.653000,0.159027,-0.031173,0.097855,-37.139389,-20.652184,-22.596581,,,,,,,
1512177108.784647,-0.051944,0.846422,-2.874099,-0.537722,0.305529,-0.422176,-0.034406,-0.748914,-0.661773,0.152708,-0.011523,0.072646,-36.841461,-21.026741,-23.349297,,,,,,,
1512177108.804636,-0.037149,0.837946,-2.887529,-0.391810,0.222422,-0.418220,-0.024846,-0.743270,-0.668529,0.139440,-0.012253,0.066448,-36.467621,-21.251183,-23.652580,,,,,,,
1512177108.824656,-0.023797,0.831441,-2.898923,-0.329296,0.270412,-0.327597,-0.016033,-0.738903,-0.673620,0.134472,-0.014194,0.075491,-35.867920,-21.250282,-24.257683,,,,,,,
1512177108.844645,-0.011861,0.824508,-2.906964,-0.375802,0.303240,-0.221553,-0.008052,-0.734214,-0.678870,0.165218,-0.023446,0.066748,-35.270203,-21.699394,-24.787987,,,,,,,
1512177108.864664,-0.002658,0.816956,-2.912249,-0.370565,0.248640,-0.153437,-0.001820,-0.729066,-0.684440,0.175144,-0.029021,0.051872,-34.669342,-21.473488,-25.092979,,,,,,,
1512177108.884653,0.005037,0.810631,-2.916640,-0.277991,0.212445,-0.144760,0.003471,-0.724722,-0.689032,0.196221,-0.043787,0.038840,-34.445007,-21.548149,-25.769920,,,,,,,
1512177108.904642,0.011741,0.806473,-2.920695,-0.182435,0.171956,-0.123262,0.008125,-0.721850,-0.692001,0.194359,-0.036099,0.017990,-34.820419,-21.623711,-25.916771,,,,,,,
1512177108.924662,0.016773,0.803152,-2.923019,-0.168938,0.165392,-0.037808,0.011648,-0.719549,-0.694344,0.189524,-0.031291,0.010094,-33.920578,-21.622368,-26.224419,,,,,,,
1512177108.944651,0.020270,0.800258,-2.923025,-0.120892,0.185643,0.023726,0.014118,-0.717536,-0.696377,0.165738,-0.020562,-0.013034,-33.995941,-21.697472,-26.298805,,,,,,,
1512177108.964670,0.024987,0.799483,-2.922340,-0.002594,0.313993,0.032284,0.017416,-0.716996,-0.696859,0.133158,-0.016982,-0.010325,-33.771774,-21.847130,-26.600792,,,,,,,
1512177108.984659,0.032204,0.799601,-2.921313,-0.010457,0.435696,0.062443,0.022442,-0.717078,-0.696630,0.147327,-0.028420,0.009695,-33.171692,-21.771233,-27.130867,,,,,,,
1512177109.004648,0.039231,0.798292,-2.918626,-0.108351,0.436511,0.116464,0.027374,-0.716165,-0.697393,0.176255,-0.026175,0.027074,-33.321625,-21.696465,-27.654549,,,,,,,
1512177109.024668,0.044260,0.795692,-2.915020,-0.137521,0.348832,0.134922,0.030963,-0.714348,-0.699104,0.180738,-0.015053,0.026741,-33.099701,-22.371132,-27.731773,,,,,,,
1512177109.044657,0.047369,0.794208,-2.911255,-0.030033,0.250711,0.141469,0.033186,-0.713309,-0.700063,0.164903,-0.015314,0.009221,-32.646545,-21.620445,-28.185234,,,,,,,
1512177109.064676,0.048430,0.795966,-2.906506,0.142842,0.232713,0.195084,0.033868,-0.714540,-0.698773,0.141501,-0.029036,0.027280,-32.947037,-21.695900,-28.482735,,,,,,,
1512177109.084665,0.050175,0.800092,-2.900856,0.199000,0.313933,0.219633,0.034940,-0.717420,-0.695763,0.140918,-0.037188,0.040581,-32.871887,-21.620796,-28.858330,,,,,,,
1512177109.104654,0.052800,0.803203,-2.895169,0.102206,0.341579,0.207665,0.036648,-0.719584,-0.693437,0.142323,-0.048010,0.058748,-33.098679,-21.996132,-29.081596,,,,,,,
1512177109.124674,0.055501,0.804183,-2.890035,0.015277,0.290242,0.176381,0.038481,-0.720264,-0.692631,0.147798,-0.030239,0.057835,-32.949539,-22.145897,-29.457939,,,,,,,
1512177109.144663,0.057681,0.804995,-2.885429,0.054740,0.280685,0.173717,0.039957,-0.720827,-0.691962,0.151114,-0.027281,0.077704,-33.174286,-22.071251,-29.605995,,,,,,,
1512177109.164682,0.060168,0.806874,-2.880259,0.086189,0.305235,0.207306,0.041597,-0.722128,-0.690507,0.152083,-0.034250,0.065324,-32.948685,-21.920906,-29.757835,,,,,,,
1512177109.184671,0.061653,0.808729,-2.874813,0.079970,0.258251,0.194260,0.042539,-0.723410,-0.689106,0.138872,-0.020014,0.053517,-33.249435,-22.071358,-29.905342,,,,,,,
1512177109.204691,0.063100,0.811205,-2.869407,0.124480,0.265766,0.210923,0.043423,-0.725117,-0.687254,0.142765,-0.028331,0.058302,-33.176834,-22.596245,-29.981224,,,,,,,
1512177109.224680,0.063933,0.814462,-2.864258,0.164302,0.206056,0.184639,0.043845,-0.727356,-0.684857,0.155618,-0.025863,0.063901,-33.401276,-22.446587,-30.204247,,,,,,,
1512177109.244669,0.064284,0.818602,-2.859158,0.199004,0.192173,0.213881,0.043892,-0.730191,-0.681831,0.151284,-0.029391,0.070793,-33.477737,-22.746696,-30.428734,,,,,,,
1512177109.264689,0.062600,0.822993,-2.852317,0.205377,0.147185,0.276710,0.042542,-0.733184,-0.678697,0.155456,-0.019822,0.074037,-33.551834,-22.596809,-29.978035,,,,,,,
1512177109.284678,0.059158,0.828041,-2.843917,0.251303,0.136466,0.337043,0.039986,-0.736608,-0.675136,0.148307,-0.038172,0.084667,-34.000748,-22.372475,-29.824120,,,,,,,
1512177109.304697,0.054366,0.834039,-2.833407,0.284441,0.149213,0.396198,0.036510,-0.740651,-0.670896,0.143208,-0.038050,0.083204,-34.077316,-22.672600,-30.273613,,,,,,,
1512177109.324686,0.049123,0.839720,-2.822118,0.237397,0.165145,0.405166,0.032785,-0.744456,-0.666866,0.123724,-0.047734,0.098766,-34.227219,-22.672829,-30.047325,,,,,,,
1512177109.344675,0.044611,0.843744,-2.811112,0.146329,0.188574,0.368746,0.029642,-0.747137,-0.664008,0.125357,-0.047754,0.099281,-34.450455,-22.298149,-29.895241,,,,,,,
1512177109.364695,0.040831,0.846135,-2.801070,0.078526,0.177838,0.342140,0.027059,-0.748724,-0.662329,0.115703,-0.048380,0.101065,-34.978943,-23.048943,-30.116142,,,,,,,
