timestamp(unix),attitude_roll(radians),attitude_pitch(radians),attitude_yaw(radians),rotation_rate_x(radians/s),rotation_rate_y(radians/s),rotation_rate_z(radians/s),gravity_x(G),gravity_y(G),gravity_z(G),user_acc_x(G),user_acc_y(G),user_acc_z(G),magnetic_field_x(microteslas),magnetic_field_y(microteslas),magnetic_field_z(microteslas),latitude(degree),longitude(degree),altitude(meter),speed(m/s),course(degree),timestamp(unix),User Mark
1512178904.723906,-0.064922,0.492637,2.047654,-0.014147,0.114611,0.314391,-0.057162,-0.472951,-0.879232,0.100955,-0.017848,0.004598,-11.500443,-38.838737,-30.998589,,,,,,,
1512178904.743895,-0.066315,0.491024,2.056133,-0.074449,0.132480,0.416990,-0.058437,-0.471529,-0.879912,0.099803,0.008547,0.003325,-11.726608,-39.064064,-31.296791,,,,,,,
1512178904.763884,-0.068245,0.488484,2.066038,-0.105147,0.116310,0.467660,-0.060217,-0.469287,-0.880990,0.107428,0.028079,-0.012763,-12.403671,-39.515083,-31.366264,,,,,,,
1512178904.783904,-0.070795,0.486189,2.076668,-0.067320,0.100280,0.500133,-0.062539,-0.467260,-0.881905,0.128610,0.027746,-0.001563,-12.927246,-39.140877,-31.886620,,,,,,,
1512178904.803893,-0.073923,0.484684,2.088419,-0.036374,0.102342,0.563488,-0.065349,-0.465928,-0.882406,0.137279,0.013200,0.014852,-13.078339,-39.441093,-31.360481,,,,,,,
1512178904.823882,-0.077477,0.482761,2.101848,-0.072863,0.122425,0.644050,-0.068554,-0.464226,-0.883060,0.143703,0.013176,0.027972,-13.825790,-38.842216,-31.653831,,,,,,,
1512178904.843901,-0.081284,0.479227,2.116986,-0.147592,0.136054,0.715506,-0.072048,-0.461093,-0.884422,0.160671,0.022067,0.008384,-13.973434,-38.317436,-31.652321,,,,,,,
1512178904.863890,-0.085801,0.474600,2.133397,-0.168021,0.125191,0.789795,-0.076224,-0.456982,-0.886204,0.163352,0.026776,-0.003735,-14.726959,-39.068565,-31.946281,,,,,,,
1512178904.883879,-0.090882,0.470289,2.151365,-0.126430,0.136880,0.854403,-0.080904,-0.453144,-0.887758,0.168810,0.043003,-0.021864,-15.551178,-38.919807,-31.714211,,,,,,,
1512178904.903868,-0.096795,0.466782,2.170662,-0.085720,0.128291,0.906132,-0.086305,-0.450015,-0.888841,0.162034,0.062274,-0.007064,-15.845474,-37.645241,-31.786079,,,,,,,
1512178904.923888,-0.101831,0.464093,2.190984,-0.012598,0.194575,0.936208,-0.090903,-0.447612,-0.889595,0.163275,0.077739,-0.026542,-16.142426,-36.970695,-31.783211,,,,,,,
1512178904.943877,-0.106441,0.463162,2.211735,0.091803,0.220362,0.942075,-0.095047,-0.446779,-0.889581,0.159683,0.087404,-0.030570,-16.969910,-37.496941,-32.001442,,,,,,,
1512178904.963866,-0.110946,0.464160,2.232559,0.188039,0.226950,0.924301,-0.099004,-0.447672,-0.888700,0.158559,0.079188,-0.002306,-17.190674,-36.597267,-31.624107,,,,,,,
1512178904.983885,-0.115721,0.466367,2.253386,0.226567,0.202461,0.914114,-0.103132,-0.449644,-0.887234,0.153944,0.056425,0.026730,-17.789658,-36.373161,-31.618904,,,,,,,
1512178905.003874,-0.120559,0.467839,2.273815,0.158635,0.213077,0.897178,-0.107344,-0.450959,-0.886066,0.162824,0.032807,0.040699,-18.241058,-36.673851,-31.690224,,,,,,,
1512178905.023844,-0.124559,0.467848,2.293569,0.092867,0.251460,0.878231,-0.110887,-0.450967,-0.885626,0.181123,0.000436,0.016577,-18.462234,-35.849174,-31.462929,,,,,,,
1512178905.043864,-0.128265,0.466806,2.313824,0.059944,0.263050,0.936430,-0.114228,-0.450036,-0.885675,0.190140,-0.031394,-0.017417,-18.910095,-35.399849,-31.233894,,,,,,,
1512178905.063853,-0.132413,0.465485,2.335796,0.077777,0.285346,1.019920,-0.117980,-0.448856,-0.885782,0.177565,-0.023022,-0.034613,-19.886292,-35.626305,-31.600716,,,,,,,
1512178905.083842,-0.135976,0.464730,2.359242,0.115525,0.371844,1.062344,-0.121180,-0.448182,-0.885691,0.143611,0.006318,-0.044500,-20.410614,-35.477104,-31.596184,,,,,,,
1512178905.103831,-0.138143,0.464275,2.382551,0.118336,0.407178,1.023064,-0.123128,-0.447775,-0.885628,0.111409,0.024267,-0.074546,-20.861221,-35.552773,-32.117393,,,,,,,
1512178905.123850,-0.140008,0.463769,2.404214,0.094183,0.360318,0.934069,-0.124811,-0.447322,-0.885621,0.098474,0.027751,-0.091338,-21.227478,-33.678322,-31.513344,,,,,,,
1512178905.143839,-0.142008,0.462309,2.424000,0.023668,0.329338,0.876435,-0.126674,-0.446016,-0.886016,0.095806,0.028902,-0.097352,-21.227890,-33.753319,-31.663368,,,,,,,
1512178905.163828,-0.143257,0.460454,2.443051,0.052740,0.376419,0.862098,-0.127898,-0.444355,-0.886674,0.088180,0.035999,-0.091948,-21.299896,-33.078423,-31.737434,,,,,,,
1512178905.183848,-0.143158,0.460314,2.462373,0.162614,0.460974,0.861852,-0.127820,-0.444229,-0.886748,0.075711,0.043152,-0.079148,-21.376175,-33.378548,-31.586922,,,,,,,
1512178905.203837,-0.141605,0.462091,2.481745,0.230160,0.533752,0.841761,-0.126331,-0.445821,-0.886163,0.064258,0.041234,-0.050178,-21.752335,-33.604103,-31.883827,,,,,,,
1512178905.223826,-0.138167,0.463886,2.500522,0.191185,0.619200,0.818043,-0.123173,-0.447427,-0.885798,0.068302,0.035027,-0.042654,-21.972870,-32.629448,-31.731483,,,,,,,
1512178905.243815,-0.133374,0.465111,2.518970,0.176389,0.659776,0.811571,-0.118853,-0.448522,-0.885834,0.076754,0.030050,-0.048508,-21.521179,-32.253761,-31.735130,,,,,,,
1512178905.263835,-0.128273,0.467027,2.537693,0.239071,0.688688,0.826440,-0.114222,-0.450234,-0.885575,0.058543,0.028054,-0.037536,-21.745209,-32.029091,-31.808113,,,,,,,
1512178905.283824,-0.123360,0.470982,2.556679,0.343783,0.665378,0.810819,-0.109651,-0.453761,-0.884351,0.026536,0.031200,0.001234,-21.893143,-31.579323,-31.731636,,,,,,,
1512178905.303813,-0.117688,0.475809,2.575116,0.332587,0.724174,0.782080,-0.104374,-0.458057,-0.882774,0.001408,0.025425,0.023429,-21.669876,-31.953987,-31.808708,,,,,,,
1512178905.323832,-0.111508,0.480209,2.593364,0.300463,0.727307,0.790151,-0.098691,-0.461964,-0.881390,-0.005816,0.021260,0.027371,-21.517166,-31.353752,-31.809715,,,,,,,
1512178905.343821,-0.105737,0.483732,2.612587,0.243885,0.744177,0.860818,-0.093431,-0.465086,-0.880321,-0.019362,0.032179,0.025936,-21.746216,-32.254097,-31.808220,,,,,,,
1512178905.363810,-0.100457,0.485845,2.633056,0.171525,0.747156,0.917346,-0.088682,-0.466956,-0.879823,-0.038423,0.050162,0.019883,-21.515930,-31.053749,-32.034569,,,,,,,
1512178905.383830,-0.095309,0.486972,2.654716,0.148279,0.770515,0.970393,-0.084102,-0.467952,-0.879743,-0.039784,0.061458,0.000623,-21.891266,-31.129326,-32.031410,,,,,,,
1512178905.403819,-0.091144,0.488663,2.677782,0.204693,0.740560,1.039336,-0.080365,-0.469445,-0.879296,-0.043536,0.073205,-0.000052,-21.514328,-30.678749,-32.184395,,,,,,,
1512178905.423808,-0.087831,0.491368,2.702419,0.240110,0.750127,1.089987,-0.077340,-0.471832,-0.878290,-0.061194,0.081879,0.015771,-22.112640,-30.304649,-32.179131,,,,,,,
1512178905.443797,-0.085323,0.493274,2.727420,0.145036,0.693350,1.099072,-0.075060,-0.473512,-0.877583,-0.067975,0.073778,0.022770,-22.414703,-30.755104,-32.251778,,,,,,,
1512178905.463816,-0.083656,0.492765,2.752473,0.036042,0.671789,1.113408,-0.073618,-0.473064,-0.877947,-0.059836,0.083156,0.001620,-22.185272,-29.779762,-32.178246,,,,,,,
1512178905.483805,-0.082955,0.491439,2.777743,0.017529,0.643942,1.135429,-0.073054,-0.471895,-0.878623,-0.034933,0.078844,-0.005090,-22.482346,-29.105202,-32.400383,,,,,,,
1512178905.503794,-0.082470,0.489503,2.803738,-0.006500,0.635293,1.170232,-0.072703,-0.470188,-0.879567,-0.026799,0.068149,-0.016689,-22.481827,-28.955208,-32.700310,,,,,,,
1512178905.523814,-0.082478,0.488108,2.830457,0.055979,0.640685,1.196745,-0.072764,-0.468955,-0.880219,-0.038381,0.046821,0.012971,-22.855133,-28.580757,-32.696953,,,,,,,
1512178905.543803,-0.080513,0.487719,2.857515,0.081658,0.798807,1.197663,-0.071049,-0.468612,-0.880543,-0.038525,0.040114,0.022571,-22.779617,-28.430656,-32.997520,,,,,,,
1512178905.563792,-0.076258,0.486641,2.884428,0.000552,0.853150,1.206275,-0.067340,-0.467660,-0.881340,-0.018582,0.012902,-0.007469,-22.925674,-27.530861,-33.220833,,,,,,,
1512178905.583811,-0.073022,0.483232,2.912241,-0.120003,0.789804,1.272532,-0.064603,-0.464643,-0.883138,-0.011538,0.003355,-0.023310,-23.074173,-27.156090,-33.594383,,,,,,,
1512178905.603800,-0.071269,0.478019,2.941119,-0.189036,0.752225,1.320443,-0.063227,-0.460021,-0.885654,-0.022497,0.019011,-0.032605,-23.520844,-26.406761,-33.665199,,,,,,,
1512178905.623789,-0.069528,0.472472,2.970369,-0.168850,0.766131,1.325047,-0.061861,-0.455089,-0.888295,-0.028181,0.032191,-0.050716,-23.518326,-25.806755,-34.039925,,,,,,,
1512178905.643778,-0.067322,0.468261,2.999542,-0.085550,0.781229,1.316712,-0.060030,-0.451335,-0.890333,-0.029356,0.039455,-0.060580,-23.963409,-24.682426,-34.335594,,,,,,,
1512178905.663798,-0.065353,0.465996,3.028400,0.002185,0.722655,1.294325,-0.058343,-0.449312,-0.891468,-0.033606,0.033007,-0.050976,-24.261459,-24.232872,-34.482826,,,,,,,
1512178905.683787,-0.064723,0.464324,3.056955,-0.012570,0.647883,1.279991,-0.057830,-0.447818,-0.892252,-0.042054,0.032657,-0.025472,-23.961578,-24.232430,-34.710381,,,,,,,
1512178905.703776,-0.065004,0.461721,3.084864,-0.072984,0.593363,1.256540,-0.058156,-0.445490,-0.893396,-0.043773,0.035166,-0.003165,-24.107300,-23.257637,-34.933647,,,,,,,
1512178905.723795,-0.065911,0.457966,3.112226,-0.117539,0.568754,1.241950,-0.059076,-0.442124,-0.895006,-0.044424,0.027573,0.022051,-24.481064,-22.958199,-35.155327,,,,,,,
1512178905.743784,-0.066386,0.454150,3.138922,-0.102012,0.565650,1.205921,-0.059613,-0.438698,-0.896655,-0.036334,0.027093,0.023089,-24.628510,-22.358421,-35.453773,,,,,,,
1512178905.763773,-0.066189,0.450905,-3.118332,-0.076967,0.589244,1.174381,-0.059530,-0.435780,-0.898082,-0.019953,0.007328,0.033275,-24.553619,-22.358315,-35.679405,,,,,,,
1512178905.783793,-0.066447,0.447603,-3.092877,-0.097008,0.506998,1.157815,-0.059857,-0.432806,-0.899498,-0.009922,-0.010538,0.037498,-24.848938,-21.308754,-35.751366,,,,,,,
1512178905.803782,-0.068782,0.443898,-3.067751,-0.116312,0.387330,1.159253,-0.062067,-0.429463,-0.900949,-0.008108,-0.021999,0.065240,-24.769958,-20.408638,-35.901588,,,,,,,
1512178905.823771,-0.072952,0.439122,-3.042702,-0.187706,0.299638,1.152581,-0.065972,-0.425145,-0.902718,-0.020973,-0.032954,0.080132,-24.917603,-19.883858,-35.900078,,,,,,,
1512178905.843760,-0.078320,0.432594,-3.018596,-0.276557,0.218409,1.106236,-0.071033,-0.419227,-0.905098,-0.025494,-0.027962,0.102837,-25.213669,-18.984306,-36.122108,,,,,,,
1512178905.863780,-0.083394,0.424384,-2.996236,-0.345630,0.214188,1.028466,-0.075908,-0.411759,-0.908126,-0.029012,-0.038329,0.096465,-25.809952,-18.160194,-36.116631,,,,,,,
1512178905.883769,-0.088143,0.415920,-2.975500,-0.322372,0.181219,0.974321,-0.080524,-0.404032,-0.911194,-0.033245,-0.067480,0.074524,-25.581696,-17.409843,-36.343193,,,,,,,
1512178905.903758,-0.093183,0.408863,-2.955812,-0.239487,0.131239,0.923109,-0.085379,-0.397566,-0.913593,-0.029932,-0.087129,0.081989,-26.178650,-16.735741,-36.337776,,,,,,,
1512178905.923777,-0.097881,0.402643,-2.937439,-0.229199,0.147351,0.880667,-0.089909,-0.391851,-0.915625,-0.029705,-0.120218,0.095602,-26.322998,-15.460960,-36.485924,,,,,,,
1512178905.943766,-0.102286,0.395550,-2.919304,-0.294399,0.125878,0.891380,-0.094223,-0.385316,-0.917962,-0.032547,-0.149627,0.073449,-26.847321,-15.311760,-36.481392,,,,,,,
1512178905.963755,-0.107951,0.387502,-2.900887,-0.309592,0.052122,0.903695,-0.099753,-0.377877,-0.920466,-0.045969,-0.139503,0.070796,-26.921646,-15.161858,-36.480675,,,,,,,
1512178905.983744,-0.113186,0.380229,-2.882848,-0.252455,0.107824,0.867403,-0.104878,-0.371133,-0.922638,-0.058559,-0.117408,0.051056,-27.516663,-14.037758,-36.625053,,,,,,,
1512178906.003764,-0.116240,0.374623,-2.866360,-0.176257,0.196786,0.777139,-0.107935,-0.365922,-0.924365,-0.090216,-0.079574,0.009433,-27.737686,-13.138084,-36.772728,,,,,,,
1512178906.023730,-0.116609,0.370663,-2.852024,-0.067456,0.281593,0.647884,-0.108444,-0.362234,-0.925757,-0.067597,-0.067560,-0.016809,-27.585434,-12.612862,-36.998772,,,,,,,
1512178906.043719,-0.118056,0.372692,-2.838504,0.260792,0.172199,0.584032,-0.109697,-0.364124,-0.924868,-0.048781,-0.120236,-0.047712,-27.736115,-12.763084,-36.997566,,,,,,,
1512178906.063738,-0.116854,0.378186,-2.826126,0.346538,0.376391,0.565729,-0.108350,-0.369236,-0.922998,0.002301,-0.100354,-0.083060,-28.108688,-12.238640,-36.919136,,,,,,,
1512178906.083727,-0.112775,0.385234,-2.812371,0.475892,0.533514,0.616122,-0.104288,-0.375776,-0.920824,-0.007483,-0.088991,-0.061949,-27.810135,-12.538200,-37.071815,,,,,,,
1512178906.103716,-0.111334,0.397015,-2.794872,0.824274,0.275029,0.875057,-0.102463,-0.386667,-0.916510,0.021164,-0.012381,-0.085657,-27.513245,-13.212746,-37.224678,,,,,,,
1512178906.123736,-0.117409,0.415935,-2.772873,1.170420,0.068311,0.884684,-0.107152,-0.404045,-0.908441,0.005818,-0.093635,-0.086142,-27.961578,-12.913414,-36.620720,,,,,,,
1512178906.143725,-0.125341,0.438502,-2.752116,1.237241,0.059009,0.774747,-0.113185,-0.424584,-0.898286,0.000316,-0.113304,-0.026397,-28.188904,-13.438759,-36.544044,,,,,,,
1512178906.163714,-0.129676,0.457986,-2.733650,0.920273,0.300134,0.679316,-0.115986,-0.442143,-0.889414,-0.028194,-0.133465,0.005350,-28.190445,-13.813759,-36.244225,,,,,,,
1512178906.183703,-0.125158,0.466070,-2.719246,0.193389,0.706238,0.559325,-0.111517,-0.449379,-0.886353,-0.009256,-0.078819,-0.016265,-28.115219,-13.738655,-36.469826,,,,,,,
1512178906.203722,-0.116343,0.461517,-2.705998,-0.292787,0.713782,0.693030,-0.103936,-0.445307,-0.889325,0.087762,0.007304,-0.128909,-27.889053,-13.438316,-36.846596,,,,,,,
1512178906.223711,-0.112337,0.453078,-2.689455,-0.310722,0.454912,0.862437,-0.100791,-0.437735,-0.893437,0.111151,0.073874,-0.190517,-27.734863,-12.463081,-37.222420,,,,,,,
1512178906.243700,-0.116931,0.447069,-2.669771,-0.133404,0.079001,0.952182,-0.105199,-0.432324,-0.895561,0.099721,0.145642,-0.127404,-27.883972,-12.238304,-37.446037,,,,,,,
1512178906.263720,-0.126019,0.443296,-2.649640,-0.049786,-0.053265,0.916684,-0.113538,-0.428919,-0.896179,0.037778,0.179591,-0.060379,-28.180923,-11.563744,-37.443169,,,,,,,
1512178906.283709,-0.134501,0.440593,-2.631815,-0.017422,0.014380,0.768143,-0.121289,-0.426476,-0.896330,-0.032641,0.188241,-0.034167,-28.628448,-11.039421,-37.214104,,,,,,,
1512178906.303698,-0.137899,0.439725,-2.618637,0.091469,0.166748,0.508001,-0.124385,-0.425690,-0.896279,-0.020177,0.208024,-0.057182,-28.926758,-10.664864,-37.211388,,,,,,,
1512178906.323718,-0.137383,0.442299,-2.610350,0.224925,0.222897,0.304379,-0.123772,-0.428019,-0.895254,0.050652,0.172129,-0.074411,-28.777771,-10.889641,-37.212761,,,,,,,
1512178906.343707,-0.135708,0.446373,-2.604174,0.287373,0.199568,0.265758,-0.122036,-0.431696,-0.893726,0.098995,0.118479,-0.064282,-29.305328,-11.415443,-37.583534,,,,,,,
1512178906.363696,-0.135672,0.451138,-2.596872,0.326651,0.156758,0.338672,-0.121724,-0.435990,-0.891682,0.102864,0.079498,-0.035381,-28.853821,-11.114754,-37.287239,,,,,,,
1512178906.383685,-0.137915,0.456430,-2.586879,0.403157,0.076483,0.479154,-0.123405,-0.440747,-0.889108,0.099632,0.074398,-0.003714,-29.302094,-10.740440,-37.208229,,,,,,,
1512178906.403704,-0.142575,0.462913,-2.574353,0.465797,0.009133,0.556586,-0.127138,-0.446557,-0.885677,0.079881,0.043191,0.047725,-29.528336,-11.040764,-36.981468,,,,,,,
1512178906.423693,-0.148590,0.469523,-2.559740,0.439769,0.037749,0.649054,-0.132023,-0.452461,-0.881957,0.028568,0.043327,0.084258,-29.753296,-11.041115,-36.904549,,,,,,,
1512178906.443682,-0.154999,0.475939,-2.544642,0.430550,-0.009215,0.624238,-0.137222,-0.458174,-0.878207,0.010436,0.052397,0.186587,-30.053680,-11.116554,-36.977043,,,,,,,
1512178906.463702,-0.157396,0.479580,-2.531273,0.163875,0.334539,0.521360,-0.139064,-0.461407,-0.876222,0.000331,0.055462,0.153718,-30.353485,-11.117012,-36.599495,,,,,,,
1512178906.483691,-0.156361,0.478780,-2.522508,-0.043643,0.244799,0.365595,-0.138214,-0.460697,-0.876730,0.041519,0.015842,0.116842,-30.125519,-10.441673,-36.751091,,,,,,,
1512178906.503680,-0.155616,0.476127,-2.514701,-0.077308,0.193410,0.401177,-0.137751,-0.458341,-0.878037,0.070230,-0.022952,0.060837,-30.350189,-10.367012,-36.749138,,,,,,,
1512178906.523669,-0.157530,0.473494,-2.505398,-0.052976,0.090755,0.471529,-0.139620,-0.455999,-0.878960,0.084093,-0.014735,0.042962,-30.274582,-10.216896,-36.899712,,,,,,,
1512178906.543688,-0.161550,0.470939,-2.494997,-0.058934,0.014839,0.506361,-0.143339,-0.453724,-0.879539,0.078000,-0.014828,0.047050,-30.725037,-10.292564,-37.120918,,,,,,,
1512178906.563677,-0.167676,0.466577,-2.484536,-0.200856,-0.092205,0.509262,-0.149053,-0.449832,-0.880588,0.020635,-0.019223,0.123813,-30.871811,-9.617790,-36.744331,,,,,,,
1512178906.583666,-0.172915,0.457264,-2.476666,-0.544334,-0.070071,0.393491,-0.154378,-0.441495,-0.883883,0.021505,0.013547,0.177035,-31.244446,-9.093346,-36.740898,,,,,,,
1512178906.603686,-0.174500,0.439814,-2.473990,-0.979686,0.043886,0.229805,-0.157093,-0.425771,-0.891090,0.016865,-0.047908,0.125602,-31.691483,-8.419014,-36.886772,,,,,,,
1512178906.623675,-0.171496,0.420566,-2.474242,-0.844289,0.162779,0.170348,-0.155785,-0.408277,-0.899467,0.059960,-0.090975,0.037956,-31.613449,-7.743904,-36.887093,,,,,,,
1512178906.643664,-0.169150,0.408338,-2.471535,-0.420452,0.247624,0.266332,-0.154503,-0.397084,-0.904684,0.093453,-0.126963,0.017629,-31.686127,-7.219002,-36.961220,,,,,,,
1512178906.663683,-0.167835,0.406226,-2.466397,0.115432,0.154409,0.282300,-0.153454,-0.395146,-0.905711,0.065533,-0.118679,0.022623,-31.908875,-6.694344,-37.184044,,,,,,,
1512178906.683672,-0.166315,0.410962,-2.460359,0.320023,0.223199,0.226871,-0.151766,-0.399491,-0.904087,0.025209,-0.086410,0.059162,-31.759964,-6.919121,-37.335426,,,,,,,
1512178906.703661,-0.163536,0.417282,-2.456831,0.316219,0.200001,0.067890,-0.148838,-0.405277,-0.901997,-0.009457,-0.094082,0.060444,-31.910858,-7.144341,-37.109261,,,,,,,
1512178906.723650,-0.161078,0.422827,-2.457175,0.218493,0.067708,-0.088562,-0.146258,-0.410340,-0.900128,-0.013318,-0.118270,0.048275,-31.986908,-7.369453,-37.183723,,,,,,,
1512178906.743670,-0.158918,0.426568,-2.460386,0.099031,0.047354,-0.150062,-0.144069,-0.413749,-0.898919,0.010036,-0.121637,0.034799,-31.989349,-7.894463,-37.333961,,,,,,,
1512178906.763659,-0.156359,0.428290,-2.463427,0.020404,0.075975,-0.099931,-0.141657,-0.415315,-0.898580,0.033533,-0.114744,-0.033808,-32.291336,-8.344917,-37.256630,,,,,,,
1512178906.783648,-0.155123,0.428757,-2.465078,-0.006421,0.023451,-0.026943,-0.140516,-0.415740,-0.898563,0.028975,-0.088776,-0.097897,-32.214844,-8.044807,-36.957130,,,,,,,
1512178906.803667,-0.155846,0.429417,-2.465372,0.043970,-0.072697,0.015026,-0.141123,-0.416341,-0.898189,-0.000143,-0.060527,-0.131825,-32.366226,-8.345024,-37.030998,,,,,,,
1512178906.823656,-0.158414,0.431617,-2.466064,0.123101,-0.157866,-0.068342,-0.143285,-0.418340,-0.896918,-0.050197,-0.035487,-0.099054,-32.363037,-7.670021,-36.730690,,,,,,,
1512178906.843645,-0.159439,0.435158,-2.469737,0.155673,-0.068842,-0.229603,-0.143968,-0.421554,-0.895302,-0.082640,-0.048524,-0.054222,-32.515747,-8.270256,-36.729683,,,,,,,
1512178906.863665,-0.156557,0.439024,-2.476695,0.122792,0.059560,-0.361820,-0.141132,-0.425056,-0.894097,-0.086682,-0.084893,-0.023109,-32.819000,-9.020699,-36.502480,,,,,,,
1512178906.883654,-0.149453,0.440439,-2.485755,-0.077887,0.240922,-0.402477,-0.134687,-0.426337,-0.894481,-0.072741,-0.093332,-0.031911,-32.743561,-8.945595,-36.278084,,,,,,,
1512178906.903643,-0.138818,0.436356,-2.495577,-0.370400,0.375011,-0.369999,-0.125407,-0.422640,-0.897579,-0.041463,-0.067030,-0.099735,-32.447037,-9.695152,-36.505989,,,,,,,
1512178906.923632,-0.128349,0.427360,-2.504876,-0.571870,0.288055,-0.311394,-0.116485,-0.414469,-0.902578,-0.042832,-0.026983,-0.143748,-32.445694,-9.395149,-36.505852,,,,,,,
1512178906.943652,-0.120765,0.414289,-2.513665,-0.765309,0.179826,-0.286853,-0.110280,-0.402539,-0.908736,-0.035426,0.054806,-0.138948,-31.995544,-9.319481,-36.884636,,,,,,,
1512178906.963641,-0.113811,0.398152,-2.523404,-0.882159,0.174359,-0.312017,-0.104683,-0.387716,-0.915815,-0.017479,0.125005,-0.161074,-31.468399,-8.793678,-37.338844,,,,,,,
1512178906.983630,-0.106811,0.381355,-2.533250,-0.871879,0.179804,-0.352355,-0.098949,-0.372179,-0.922872,0.000606,0.178102,-0.167674,-31.765671,-8.194130,-37.261024,,,,,,,
1512178907.003649,-0.101905,0.367810,-2.544262,-0.591124,-0.053512,-0.452511,-0.094925,-0.359572,-0.928276,-0.027527,0.187072,-0.117805,-31.539993,-8.043785,-37.262871,,,,,,,
1512178907.023604,-0.102400,0.362908,-2.556541,-0.120703,-0.330333,-0.547933,-0.095563,-0.354995,-0.929971,-0.076464,0.165786,0.001688,-31.917648,-8.644356,-37.184944,,,,,,,
1512178907.043593,-0.104377,0.366535,-2.569753,0.233815,-0.281537,-0.647105,-0.097267,-0.358383,-0.928494,-0.129433,0.110458,0.133221,-32.220917,-9.394814,-36.957756,,,,,,,
1512178907.063582,-0.103005,0.373296,-2.584178,0.251695,-0.116924,-0.688916,-0.095742,-0.364686,-0.926195,-0.160148,0.050676,0.193941,-31.922791,-9.844368,-36.660515,,,,,,,
1512178907.083602,-0.098108,0.377332,-2.598797,0.046459,0.049324,-0.646533,-0.091060,-0.368441,-0.925181,-0.175450,-0.001691,0.188044,-31.999329,-10.219475,-36.360054,,,,,,,
1512178907.103591,-0.090951,0.375990,-2.612159,-0.223804,0.145915,-0.543506,-0.084481,-0.367194,-0.926300,-0.129264,0.010260,0.102096,-31.776459,-10.669136,-36.587166,,,,,,,
1512178907.123580,-0.085315,0.369812,-2.623189,-0.405349,0.040669,-0.400453,-0.079451,-0.361440,-0.929004,-0.077699,0.037283,0.006122,-31.626465,-10.668922,-36.588448,,,,,,,
1512178907.143599,-0.084219,0.361595,-2.630788,-0.441429,-0.135988,-0.225693,-0.078680,-0.353767,-0.932019,-0.074884,0.043098,-0.018299,-31.851501,-10.669258,-36.661522,,,,,,,
1512178907.163588,-0.086884,0.353217,-2.635124,-0.418060,-0.225937,-0.095608,-0.081418,-0.345918,-0.934726,-0.091342,0.074708,0.010211,-32.000793,-10.519478,-36.585182,,,,,,,
1512178907.183577,-0.090968,0.345316,-2.637917,-0.407887,-0.234519,-0.065637,-0.085480,-0.338494,-0.937078,-0.118026,0.095483,0.045003,-32.076279,-10.669594,-36.209618,,,,,,,
1512178907.203597,-0.094630,0.337105,-2.641111,-0.415939,-0.224864,-0.094506,-0.089170,-0.330756,-0.939494,-0.129107,0.098883,0.071559,-32.152298,-10.894707,-36.209084,,,,,,,
1512178907.223586,-0.097299,0.329319,-2.645504,-0.396544,-0.163801,-0.168637,-0.091925,-0.323399,-0.941787,-0.124338,0.093205,0.086059,-32.374146,-10.220039,-35.981865,,,,,,,
1512178907.243575,-0.099023,0.322864,-2.651189,-0.298387,-0.168856,-0.238659,-0.093753,-0.317284,-0.943685,-0.115689,0.081978,0.088552,-32.001236,-10.669487,-36.135262,,,,,,,
1512178907.263564,-0.100561,0.318212,-2.658502,-0.247833,-0.176072,-0.330698,-0.095351,-0.312869,-0.944998,-0.099839,0.066318,0.098593,-32.225830,-10.594810,-35.983315,,,,,,,
1512178907.283583,-0.101454,0.314250,-2.667787,-0.221853,-0.166245,-0.418770,-0.096321,-0.309104,-0.946138,-0.080971,0.023734,0.110674,-32.527100,-10.895271,-35.830894,,,,,,,
1512178907.303572,-0.101175,0.311840,-2.678128,-0.127364,-0.107272,-0.456639,-0.096131,-0.306810,-0.946904,-0.060714,-0.021544,0.130711,-32.227661,-11.044823,-35.608513,,,,,,,
1512178907.323561,-0.099136,0.311494,-2.688179,-0.027567,-0.004635,-0.427121,-0.094211,-0.306482,-0.947203,-0.038845,-0.053840,0.138884,-32.078674,-11.269600,-35.609901,,,,,,,
1512178907.343581,-0.096128,0.312158,-2.697023,0.000245,0.031611,-0.365823,-0.091341,-0.307113,-0.947280,-0.028288,-0.083665,0.122573,-31.555740,-11.718819,-35.689568,,,,,,,
1512178907.363570,-0.093790,0.312754,-2.704093,0.002848,0.010050,-0.266720,-0.089109,-0.307680,-0.947308,-0.031267,-0.110640,0.109387,-31.482727,-12.168709,-35.615410,,,,,,,
1512178907.383559,-0.092892,0.312861,-2.709058,-0.030827,-0.041477,-0.167180,-0.088256,-0.307782,-0.947355,-0.047425,-0.121479,0.090665,-31.783401,-12.319160,-35.612938,,,,,,,
1512178907.403548,-0.093401,0.311703,-2.712259,-0.096291,-0.074859,-0.076558,-0.088771,-0.306680,-0.947664,-0.050267,-0.128592,0.056337,-31.483932,-12.468712,-35.315544,,,,,,,
1512178907.423568,-0.094890,0.308883,-2.713309,-0.179276,-0.086973,0.041594,-0.090263,-0.303995,-0.948388,-0.066978,-0.134070,0.004647,-31.787155,-13.144157,-35.688316,,,,,,,
1512178907.443557,-0.096716,0.304687,-2.712457,-0.243403,-0.025265,0.119770,-0.092118,-0.299994,-0.949483,-0.053344,-0.084024,-0.033458,-31.635086,-12.693932,-35.614372,,,,,,,
1512178907.463546,-0.096644,0.299733,-2.710472,-0.282466,0.105961,0.166563,-0.092191,-0.295265,-0.950957,-0.033160,-0.047341,-0.089326,-31.331451,-11.868477,-35.766548,,,,,,,
1512178907.483565,-0.094936,0.294160,-2.707730,-0.285168,0.147551,0.203984,-0.090722,-0.289936,-0.952736,-0.013343,-0.028316,-0.156593,-30.957382,-12.092918,-35.619835,,,,,,,
1512178907.503554,-0.094105,0.289047,-2.704143,-0.206752,0.071782,0.229378,-0.090068,-0.285039,-0.954275,-0.009770,0.014928,-0.178782,-30.957718,-12.167915,-35.619881,,,,,,,
1512178907.523543,-0.094623,0.286194,-2.701147,-0.078775,0.017635,0.158550,-0.090639,-0.282303,-0.955034,-0.043150,0.015686,-0.126189,-31.256454,-11.868370,-35.767189,,,,,,,
1512178907.543563,-0.093790,0.285088,-2.699685,-0.055098,0.127840,0.085718,-0.089872,-0.281242,-0.955419,-0.065355,-0.012200,-0.046061,-30.581528,-11.867348,-35.922920,,,,,,,
1512178907.563552,-0.087831,0.279988,-2.698891,-0.421151,0.436983,0.125200,-0.084302,-0.276344,-0.957354,-0.065844,-0.047813,-0.056013,-30.430511,-11.642128,-35.924095,,,,,,,
1512178907.583541,-0.077397,0.262530,-2.696350,-1.132842,0.603255,0.300962,-0.074670,-0.259525,-0.962845,0.005136,-0.003537,-0.238159,-29.904160,-11.266335,-36.603386,,,,,,,
1512178907.603530,-0.070673,0.232827,-2.690196,-1.582414,0.236805,0.523442,-0.068709,-0.230729,-0.970589,0.070875,0.082948,-0.429329,-29.524277,-10.140755,-36.981056,,,,,,,
1512178907.623549,-0.074820,0.200735,-2.681805,-1.510501,-0.270503,0.533378,-0.073250,-0.199390,-0.977179,0.071586,0.196750,-0.400171,-29.442719,-8.640648,-37.355980,,,,,,,
1512178907.643538,-0.083884,0.174933,-2.676487,-1.055583,-0.471202,0.282350,-0.082507,-0.174042,-0.981276,0.046847,0.255844,-0.235018,-29.662659,-7.515968,-37.353554,,,,,,,
1512178907.663527,-0.095267,0.163838,-2.678351,-0.234668,-0.632469,-0.181782,-0.093849,-0.163106,-0.982135,0.034340,0.204610,-0.044858,-30.031769,-6.241524,-37.049782,,,,,,,
1512178907.683547,-0.105496,0.168853,-2.686235,0.428931,-0.478142,-0.463729,-0.103803,-0.168052,-0.980298,0.066877,0.081947,0.138333,-30.485413,-7.067207,-36.896339,,,,,,,
1512178907.703536,-0.109904,0.182404,-2.695938,0.697504,-0.194567,-0.510022,-0.107864,-0.181394,-0.977477,0.095641,-0.010454,0.261672,-30.262924,-7.666878,-36.523537,,,,,,,
1512178907.723525,-0.108740,0.196731,-2.703975,0.623002,0.096671,-0.373631,-0.106433,-0.195464,-0.974918,0.091693,-0.085313,0.299137,-30.340515,-8.266991,-36.298164,,,,,,,
1512178907.743544,-0.103626,0.206815,-2.708403,0.388047,0.266771,-0.146176,-0.101237,-0.205344,-0.973440,0.102778,-0.094583,0.253561,-30.116898,-8.566658,-36.375221,,,,,,,
1512178907.763533,-0.097838,0.211815,-2.708442,0.181510,0.302300,0.098285,-0.095499,-0.210235,-0.972975,0.091013,-0.083909,0.185790,-29.745346,-9.316093,-36.528755,,,,,,,
1512178907.783522,-0.093769,0.213565,-2.704311,0.081161,0.204542,0.294772,-0.091505,-0.211945,-0.972988,0.065259,-0.058822,0.110470,-29.294067,-9.015419,-36.682442,,,,,,,
1512178907.803511,-0.093964,0.214096,-2.697428,0.045178,-0.006151,0.397993,-0.091683,-0.212464,-0.972858,0.035455,-0.033919,0.108921,-29.220230,-9.240303,-36.983177,,,,,,,
1512178907.823531,-0.096947,0.213006,-2.689259,-0.052849,-0.060894,0.457148,-0.094608,-0.211399,-0.972810,0.008228,-0.026058,0.135942,-29.067078,-8.565086,-36.759148,,,,,,,
1512178907.843520,-0.099369,0.209822,-2.680422,-0.145004,0.017950,0.490203,-0.097030,-0.208286,-0.973243,-0.009919,-0.004758,0.125602,-29.141739,-8.490196,-36.758476,,,,,,,
1512178907.863509,-0.099267,0.205708,-2.671658,-0.153051,0.146166,0.467078,-0.097015,-0.204261,-0.974097,-0.019837,0.030402,0.071311,-29.215164,-8.115303,-36.982658,,,,,,,
1512178907.883528,-0.097875,0.202666,-2.664049,-0.084642,0.144284,0.391307,-0.095719,-0.201282,-0.974845,-0.012069,0.045871,0.021080,-28.988144,-7.664955,-36.984367,,,,,,,
1512178907.903517,-0.097807,0.201412,-2.658232,0.002388,0.026063,0.279152,-0.095677,-0.200053,-0.975102,-0.019298,0.050761,0.012959,-28.836609,-7.289726,-37.285469,,,,,,,
1512178907.923507,-0.099324,0.202342,-2.654956,0.101797,-0.064281,0.129966,-0.097138,-0.200965,-0.974770,-0.008773,0.041602,0.041497,-28.758163,-6.539619,-37.135750,,,,,,,
1512178907.943496,-0.101044,0.205062,-2.654288,0.160209,-0.068238,0.013531,-0.098758,-0.203628,-0.974055,-0.004391,-0.012681,0.068995,-28.534622,-6.839272,-37.362801,,,,,,,
1512178907.963515,-0.101800,0.209106,-2.654892,0.227055,-0.016774,-0.029028,-0.099411,-0.207585,-0.973153,0.003723,-0.054408,0.092980,-28.159836,-6.913719,-37.141029,,,,,,,
1512178907.983504,-0.101817,0.214282,-2.655883,0.260381,-0.000671,-0.045548,-0.099317,-0.212646,-0.972069,-0.013904,-0.090165,0.107643,-28.388367,-7.664055,-37.439461,,,,,,,
1512178908.003493,-0.101262,0.218722,-2.657594,0.191014,0.044074,-0.038935,-0.098681,-0.216982,-0.971175,-0.022398,-0.098249,0.095153,-28.161835,-7.363716,-37.066246,,,,,,,
1512178908.023506,-0.100215,0.221912,-2.658812,0.135863,0.036552,-0.055748,-0.097594,-0.220095,-0.970584,-0.046251,-0.094510,0.037463,-28.086609,-7.288612,-37.291847,,,,,,,
1512178908.043495,-0.100384,0.224088,-2.661374,0.063570,-0.074492,-0.138204,-0.097710,-0.222218,-0.970089,-0.067986,-0.089336,-0.015751,-28.087234,-7.438606,-37.216911,,,,,,,
1512178908.063484,-0.102633,0.225271,-2.666253,-0.009351,-0.201509,-0.248444,-0.099864,-0.223371,-0.969604,-0.088750,-0.108127,-0.046585,-28.238556,-7.738838,-37.140770,,,,,,,
1512178908.083503,-0.106358,0.225487,-2.672959,-0.077547,-0.263430,-0.317874,-0.103471,-0.223582,-0.969178,-0.121810,-0.126669,-0.071243,-28.240433,-8.188835,-36.840981,,,,,,,
1512178908.103492,-0.109402,0.224629,-2.681453,-0.132453,-0.193897,-0.411175,-0.106441,-0.222744,-0.969049,-0.129216,-0.120090,-0.110495,-28.462692,-7.589165,-36.763802,,,,,,,
1512178908.123481,-0.110291,0.222688,-2.692223,-0.188178,-0.118989,-0.518324,-0.107350,-0.220852,-0.969381,-0.107723,-0.126423,-0.180475,-28.313370,-7.738945,-36.765144,,,,,,,
1512178908.143470,-0.110062,0.219710,-2.704636,-0.205496,-0.148834,-0.569855,-0.107199,-0.217946,-0.970056,-0.083505,-0.144954,-0.257621,-28.314301,-7.963951,-36.615242,,,,,,,
1512178908.163490,-0.111427,0.217773,-2.717164,-0.132014,-0.202129,-0.566839,-0.108570,-0.216056,-0.970326,-0.096203,-0.156167,-0.245403,-28.315094,-8.113945,-36.840309,,,,,,,
1512178908.183479,-0.112193,0.216994,-2.730182,-0.099002,-0.152823,-0.626955,-0.109332,-0.215295,-0.970410,-0.125318,-0.163611,-0.219746,-28.541626,-8.489296,-36.538582,,,,,,,
1512178908.203468,-0.111165,0.216390,-2.744916,-0.114552,-0.062948,-0.714286,-0.108349,-0.214705,-0.970650,-0.141620,-0.176240,-0.190299,-28.614639,-8.039406,-36.612724,,,,,,,
1512178908.223487,-0.106858,0.215806,-2.761141,-0.104880,0.124122,-0.774259,-0.104180,-0.214135,-0.971233,-0.105933,-0.140159,-0.198766,-28.467712,-8.714180,-36.689308,,,,,,,
1512178908.243476,-0.099300,0.216334,-2.777873,-0.007517,0.222579,-0.790628,-0.096826,-0.214650,-0.971880,-0.041587,-0.054072,-0.236311,-28.169815,-9.163734,-36.842064,,,,,,,
1512178908.263465,-0.092452,0.220886,-2.793999,0.267233,0.115084,-0.778494,-0.090078,-0.219095,-0.971537,-0.016520,0.041772,-0.185125,-28.322250,-9.688957,-36.991035,,,,,,,
1512178908.283454,-0.087461,0.231163,-2.810436,0.539062,0.064355,-0.845094,-0.085026,-0.229110,-0.969680,-0.043575,0.057479,-0.040940,-27.950516,-10.438408,-36.769569,,,,,,,
1512178908.303474,-0.081629,0.245781,-2.828157,0.709726,0.116025,-0.912800,-0.079088,-0.243314,-0.966718,-0.066023,0.049757,0.032285,-27.728577,-11.113075,-36.771797,,,,,,,
1512178908.323463,-0.073140,0.261632,-2.846748,0.713523,0.250685,-0.942125,-0.070588,-0.258658,-0.963387,-0.073211,0.036673,0.165565,-27.507324,-11.937737,-36.849083,,,,,,,
1512178908.343452,-0.062238,0.275419,-2.865895,0.553398,0.320913,-0.925009,-0.059854,-0.271950,-0.960448,-0.051475,0.028237,0.176024,-26.837006,-12.986732,-36.780312,,,,,,,
1512178908.363471,-0.051219,0.283978,-2.883497,0.281245,0.282814,-0.779841,-0.049146,-0.280177,-0.958690,-0.021670,0.027155,0.108409,-26.163773,-13.360725,-36.936226,,,,,,,
1512178908.383460,-0.044938,0.288208,-2.897763,0.141640,0.004516,-0.602669,-0.043070,-0.284235,-0.957787,-0.011144,0.065027,0.057640,-26.167511,-14.185738,-37.011604,,,,,,,
1512178908.403449,-0.045547,0.291768,-2.909332,0.179332,-0.291496,-0.510404,-0.043607,-0.287646,-0.956744,-0.040957,0.105410,0.093920,-26.242142,-14.110847,-36.935936,,,,,,,
1512178908.423469,-0.049768,0.297131,-2.920492,0.280971,-0.372468,-0.535862,-0.047568,-0.292778,-0.954996,-0.065759,0.128075,0.186732,-26.170059,-14.785728,-36.711876,,,,,,,
1512178908.443458,-0.051633,0.304626,-2.932759,0.385614,-0.182042,-0.601913,-0.049234,-0.299936,-0.952688,-0.067938,0.107492,0.245458,-26.395966,-15.011070,-36.485069,,,,,,,
1512178908.463447,-0.047928,0.314466,-2.945424,0.511420,0.102261,-0.589509,-0.045560,-0.309309,-0.949870,-0.050387,0.076872,0.242426,-25.946793,-15.235405,-36.114006,,,,,,,
1512178908.483436,-0.040829,0.325929,-2.956717,0.551571,0.200426,-0.496899,-0.038669,-0.320189,-0.946564,-0.028088,0.067137,0.197175,-26.327011,-16.360970,-36.411339,,,,,,,
1512178908.503456,-0.035298,0.335679,-2.965915,0.402544,0.080338,-0.387543,-0.033321,-0.329410,-0.943599,-0.022892,0.059620,0.159038,-25.879959,-17.035301,-36.265465,,,,,,,
1512178908.523445,-0.033358,0.341519,-2.973186,0.216508,-0.068603,-0.296942,-0.031426,-0.334918,-0.941723,-0.005882,0.063266,0.132610,-25.431686,-17.409630,-36.344460,,,,,,,
1512178908.543434,-0.034453,0.344651,-2.978738,0.122174,-0.173611,-0.205928,-0.032420,-0.337868,-0.940635,0.022823,0.054588,0.105399,-25.433304,-17.784630,-36.194649,,,,,,,
1512178908.563453,-0.038084,0.346870,-2.981740,0.102704,-0.251903,-0.063631,-0.035808,-0.339956,-0.939760,0.032512,0.031576,0.092408,-25.657135,-17.559975,-35.892632,,,,,,,
1512178908.583442,-0.043640,0.348715,-2.981538,0.084326,-0.260759,0.081057,-0.041000,-0.341690,-0.938918,0.022125,0.023789,0.090819,-25.882477,-17.635307,-35.890739,,,,,,,
1512178908.603431,-0.049420,0.349728,-2.978765,0.035649,-0.215119,0.190314,-0.046410,-0.342642,-0.938319,0.005486,0.013312,0.066233,-26.182449,-17.635750,-35.813194,,,,,,,
1512178908.623420,-0.054089,0.348593,-2.974281,-0.100854,-0.099040,0.263363,-0.050811,-0.341576,-0.938480,-0.001603,0.010201,0.005069,-26.631805,-17.486427,-35.884300,,,,,,,
1512178908.643440,-0.057164,0.344264,-2.968709,-0.258374,-0.040631,0.315654,-0.053780,-0.337504,-0.939786,0.024041,0.023570,-0.121356,-26.554962,-17.111320,-35.584770,,,,,,,
1512178908.663429,-0.061651,0.336720,-2.961912,-0.407081,-0.160671,0.406898,-0.058152,-0.330393,-0.942050,0.058030,0.024378,-0.238186,-26.628922,-16.886421,-35.509026,,,,,,,
1512178908.683418,-0.070490,0.327472,-2.953273,-0.425477,-0.361668,0.477354,-0.066689,-0.321651,-0.944507,0.061455,0.050853,-0.269131,-26.851746,-16.361763,-35.881874,,,,,,,
1512178908.703437,-0.080942,0.319955,-2.945101,-0.278049,-0.374088,0.394166,-0.076750,-0.314524,-0.946142,0.065306,0.065592,-0.229563,-27.297546,-15.462425,-35.577629,,,,,,,
1512178908.723426,-0.088573,0.316480,-2.939064,-0.075925,-0.202683,0.298546,-0.084064,-0.311224,-0.946611,0.065265,-0.003596,-0.143828,-28.198547,-15.688774,-35.570076,,,,,,,
1512178908.743415,-0.090851,0.315029,-2.933028,-0.065642,0.114514,0.337111,-0.086261,-0.309844,-0.946866,0.070072,-0.045869,-0.090487,-27.896637,-15.238335,-35.797432,,,,,,,
1512178908.763435,-0.088096,0.309576,-2.925198,-0.374921,0.319912,0.483658,-0.083800,-0.304655,-0.948769,0.114195,-0.029650,-0.139701,-27.896561,-15.238335,-35.647423,,,,,,,
1512178908.783424,-0.086958,0.295316,-2.914140,-0.825006,0.114814,0.681110,-0.083089,-0.291043,-0.953095,0.166722,0.045040,-0.287841,-28.042542,-14.338539,-35.720741,,,,,,,
1512178908.803413,-0.093959,0.274932,-2.900897,-0.972843,-0.320343,0.768068,-0.090298,-0.271481,-0.958198,0.185238,0.132245,-0.324547,-28.188416,-13.363762,-36.244011,,,,,,,
1512178908.823402,-0.107802,0.257931,-2.888545,-0.613919,-0.604760,0.645418,-0.104034,-0.255081,-0.961307,0.174133,0.172149,-0.214581,-28.710266,-12.689552,-36.014244,,,,,,,
1512178908.843421,-0.121074,0.252481,-2.878430,0.032712,-0.407982,0.489166,-0.116950,-0.249807,-0.961207,0.131674,0.114248,0.011607,-29.532578,-12.090782,-36.006950,,,,,,,
1512178908.863410,-0.124018,0.257907,-2.869291,0.455694,0.225200,0.404748,-0.119609,-0.255058,-0.959499,0.158229,0.058128,0.153896,-30.130432,-11.641670,-35.776649,,,,,,,
1512178908.883399,-0.115208,0.266203,-2.859624,0.416504,0.738800,0.479527,-0.110904,-0.263070,-0.958381,0.220874,0.016915,0.143852,-30.129730,-11.491676,-35.701576,,,,,,,
1512178908.903419,-0.102614,0.268878,-2.847281,0.057098,0.757077,0.683331,-0.098754,-0.265649,-0.958998,0.267394,0.010355,0.023116,-29.005661,-11.639992,-36.236198,,,,,,,
1512178908.923408,-0.097570,0.264895,-2.830841,-0.192385,0.265929,0.920005,-0.094017,-0.261808,-0.960530,0.248848,0.028410,-0.044231,-28.928040,-11.039864,-36.386559,,,,,,,
1512178908.943397,-0.104325,0.258571,-2.810968,-0.204373,-0.242795,1.039589,-0.100674,-0.255700,-0.961500,0.173688,0.063729,0.043928,-29.150452,-10.440208,-36.609367,,,,,,,
1512178908.963416,-0.116508,0.254381,-2.791093,-0.012315,-0.353439,0.958832,-0.112504,-0.251646,-0.961258,0.111924,0.076521,0.200363,-29.673386,-9.990990,-36.529701,,,,,,,
1512178908.983406,-0.124873,0.255787,-2.773191,0.292782,-0.058962,0.832088,-0.120496,-0.253007,-0.959931,0.079786,0.055604,0.304811,-30.123795,-10.066658,-36.675911,,,,,,,
1512178909.003395,-0.125885,0.262845,-2.756288,0.535929,0.291884,0.779265,-0.121240,-0.259829,-0.958014,0.062952,0.017458,0.322271,-30.046326,-9.541542,-36.451302,,,,,,,
1512178909.023360,-0.122768,0.272418,-2.739151,0.581570,0.426507,0.797449,-0.117944,-0.269061,-0.955874,0.052438,-0.008649,0.299990,-29.969742,-9.166435,-36.676765,,,,,,,
1512178909.043380,-0.119678,0.280789,-2.721655,0.466155,0.362212,0.811545,-0.114717,-0.277114,-0.953964,0.039720,-0.015351,0.249939,-29.971588,-9.541435,-36.976952,,,,,,,
1512178909.063369,-0.119552,0.285877,-2.705117,0.283798,0.178212,0.806130,-0.114427,-0.281999,-0.952567,0.036607,-0.020583,0.194892,-29.818024,-8.716209,-37.277840,,,,,,,
1512178909.083358,-0.123609,0.287818,-2.688583,0.150481,-0.049501,0.799144,-0.118223,-0.283861,-0.951549,0.038068,-0.034193,0.140957,-29.967316,-8.566429,-37.201485,,,,,,,
1512178909.103378,-0.133186,0.287362,-2.671948,0.030221,-0.353125,0.836857,-0.127348,-0.283424,-0.950502,0.026655,-0.055276,0.097429,-30.563293,-7.742317,-36.596016,,,,,,,
1512178909.123367,-0.148750,0.283123,-2.654710,-0.169202,-0.635547,0.891616,-0.142302,-0.279356,-0.949584,-0.023393,-0.058764,0.043350,-31.085220,-7.068108,-36.516243,,,,,,,
1512178909.143356,-0.168681,0.274404,-2.638026,-0.367307,-0.785362,0.873300,-0.161601,-0.270974,-0.948925,-0.091329,-0.023689,0.007763,-31.533768,-6.768776,-36.287270,,,,,,,
1512178909.163345,-0.184062,0.265230,-2.623533,-0.237550,-0.381073,0.717745,-0.176625,-0.262131,-0.948731,-0.211803,-0.010009,-0.058593,-32.130280,-6.019676,-36.056831,,,,,,,
1512178909.183364,-0.186866,0.264038,-2.613222,0.213934,0.216317,0.390556,-0.179342,-0.260980,-0.948539,-0.248819,0.023325,-0.186990,-31.906326,-6.244331,-36.133858,,,,,,,
1512178909.203352,-0.180088,0.271664,-2.608896,0.490932,0.456734,0.024414,-0.172547,-0.268335,-0.947747,-0.226104,0.009515,-0.298896,-31.905731,-6.094337,-36.283775,,,,,,,
1512178909.223341,-0.171688,0.281456,-2.611174,0.426447,0.326904,-0.273336,-0.164123,-0.277754,-0.946528,-0.182419,-0.041917,-0.341024,-31.532715,-6.543770,-36.212181,,,,,,,
1512178909.243361,-0.165663,0.290096,-2.619172,0.344989,0.132850,-0.513985,-0.158016,-0.286044,-0.945098,-0.156361,-0.083035,-0.292100,-31.609100,-6.843895,-36.286674,,,,,,,
1512178909.263350,-0.160517,0.299007,-2.631953,0.348444,0.063839,-0.727389,-0.152737,-0.294571,-0.943345,-0.143436,-0.138611,-0.223266,-31.462143,-7.518669,-36.288261,,,,,,,
1512178909.283340,-0.154420,0.308040,-2.648108,0.300148,0.082135,-0.836766,-0.146567,-0.303191,-0.941591,-0.144463,-0.206880,-0.127867,-31.240067,-8.118340,-36.740456,,,,,,,
1512178909.303359,-0.145585,0.312555,-2.665295,-0.067151,0.289786,-0.791258,-0.138042,-0.307491,-0.941485,-0.123951,-0.228596,-0.065443,-31.319824,-9.168465,-36.815300,,,,,,,
1512178909.323348,-0.130635,0.306219,-2.681570,-0.588363,0.600632,-0.651676,-0.124204,-0.301455,-0.945356,-0.037432,-0.106290,-0.204958,-30.567947,-8.717323,-37.121468,,,,,,,
1512178909.343337,-0.114457,0.295987,-2.696318,-0.505114,0.581416,-0.594036,-0.109241,-0.291684,-0.950256,0.031955,0.061414,-0.287842,-29.818176,-8.716209,-37.577827,,,,,,,
1512178909.363326,-0.100611,0.294037,-2.709584,0.068671,0.446672,-0.616043,-0.096131,-0.289818,-0.952242,0.046967,0.164849,-0.232420,-29.444000,-8.865639,-37.881096,,,,,,,
1512178909.383346,-0.089394,0.302485,-2.723818,0.476856,0.320440,-0.743823,-0.085222,-0.297893,-0.950788,0.012407,0.153194,-0.074252,-29.372787,-9.690544,-38.032112,,,,,,,
1512178909.403335,-0.079043,0.314464,-2.739906,0.542852,0.254432,-0.805995,-0.075089,-0.309306,-0.947993,-0.000076,0.106883,0.062144,-28.926575,-10.514870,-38.186317,,,,,,,
1512178909.423324,-0.070050,0.325133,-2.755629,0.420925,0.183577,-0.720591,-0.066326,-0.319435,-0.945284,-0.006931,0.075798,0.142947,-28.327988,-10.813972,-38.341545,,,,,,,
1512178909.443343,-0.063200,0.331545,-2.769056,0.181830,0.108152,-0.577202,-0.059718,-0.325504,-0.943653,-0.013707,0.069339,0.168094,-28.330582,-11.413979,-38.116829,,,,,,,
1512178909.463331,-0.058045,0.332646,-2.780069,-0.045078,0.073392,-0.459079,-0.054833,-0.326545,-0.943590,0.004189,0.100486,0.144075,-27.956329,-11.563408,-38.270088,,,,,,,
1512178909.483320,-0.054371,0.331979,-2.788672,-0.029029,0.036851,-0.335311,-0.051377,-0.325915,-0.944002,0.004807,0.109698,0.116320,-27.734833,-12.313087,-38.497337,,,,,,,
1512178909.503309,-0.052122,0.333957,-2.794965,0.164750,0.012426,-0.256898,-0.049220,-0.327784,-0.943470,0.001124,0.125666,0.135257,-28.110825,-12.538643,-38.494255,,,,,,,
1512178909.523329,-0.049746,0.340238,-2.800221,0.374498,0.065049,-0.238753,-0.046875,-0.333712,-0.941509,-0.013885,0.126818,0.180584,-27.811752,-12.763191,-38.271919,,,,,,,
1512178909.543319,-0.046222,0.349255,-2.805283,0.457628,0.111101,-0.235257,-0.043416,-0.342198,-0.938624,-0.015254,0.114018,0.201091,-27.662613,-12.912971,-38.648262,,,,,,,
1512178909.563308,-0.043013,0.357912,-2.809811,0.389665,0.064976,-0.188427,-0.040275,-0.350320,-0.935764,-0.008004,0.095773,0.204929,-27.664520,-13.362968,-38.423470,,,,,,,
1512178909.583328,-0.041833,0.364005,-2.813012,0.238008,-0.017660,-0.110957,-0.039081,-0.356020,-0.933661,-0.002377,0.089754,0.203406,-27.442337,-13.962639,-38.650658,,,,,,,
1512178909.603317,-0.041849,0.367136,-2.814750,0.115322,-0.014778,-0.040231,-0.039049,-0.358944,-0.932542,0.005464,0.091030,0.182435,-27.517822,-14.112755,-38.275093,,,,,,,
1512178909.623306,-0.041685,0.368987,-2.815280,0.091990,0.014978,0.018167,-0.038869,-0.360671,-0.931883,0.023503,0.088988,0.138227,-27.593536,-14.262871,-38.349525,,,,,,,
1512178909.643325,-0.042083,0.371023,-2.814044,0.113983,0.000950,0.105853,-0.039208,-0.362569,-0.931132,0.044625,0.084691,0.085673,-28.045700,-14.713554,-38.645897,,,,,,,
1512178909.663314,-0.044348,0.373536,-2.810741,0.144150,-0.073992,0.211566,-0.041277,-0.364909,-0.930128,0.046556,0.063915,0.062955,-27.593948,-14.337868,-38.499550,,,,,,,
1512178909.683303,-0.048604,0.376222,-2.805260,0.136225,-0.107296,0.303018,-0.045187,-0.367409,-0.928961,0.038717,0.054925,0.066214,-27.970612,-14.713432,-38.496544,,,,,,,
1512178909.703292,-0.053260,0.376736,-2.798134,-0.029209,-0.082059,0.381733,-0.049502,-0.367887,-0.928552,0.032580,0.039365,0.032739,-28.045959,-14.788551,-38.495934,,,,,,,
1512178909.723312,-0.058294,0.372881,-2.789630,-0.252113,-0.100701,0.450929,-0.054257,-0.364300,-0.929700,0.033581,0.031140,-0.054111,-28.267776,-14.113884,-38.193718,,,,,,,
1512178909.743301,-0.064873,0.364856,-2.780414,-0.434032,-0.185442,0.488508,-0.060560,-0.356815,-0.932210,0.046583,0.031666,-0.123332,-28.419418,-14.414101,-38.792580,,,,,,,
1512178909.763289,-0.072547,0.354259,-2.770679,-0.513622,-0.219831,0.528809,-0.067983,-0.346895,-0.935437,0.088765,0.030947,-0.177997,-28.864014,-13.289772,-38.113228,,,,,,,
1512178909.783309,-0.080104,0.343564,-2.760351,-0.470311,-0.154657,0.556316,-0.075342,-0.336845,-0.938541,0.109292,0.010017,-0.206845,-28.936691,-12.764885,-38.187355,,,,,,,
1512178909.803298,-0.085402,0.335555,-2.749731,-0.262289,-0.053916,0.553287,-0.080541,-0.329293,-0.940787,0.102269,0.000298,-0.217218,-29.308731,-12.090446,-38.333855,,,,,,,
1512178909.823287,-0.089368,0.332442,-2.739106,-0.047412,0.019114,0.520407,-0.084362,-0.326352,-0.941476,0.074841,-0.025791,-0.148627,-29.682877,-11.866005,-38.630562,,,,,,,
1512178909.843276,-0.090622,0.329293,-2.728898,-0.208552,0.168382,0.537781,-0.085635,-0.323374,-0.942388,0.063251,-0.070150,-0.102183,-29.604874,-11.190880,-38.705894,,,,,,,
1512178909.863296,-0.090177,0.317459,-2.717274,-0.770664,0.217430,0.687584,-0.085555,-0.312153,-0.946172,0.115234,-0.028408,-0.174220,-29.831375,-11.491234,-39.004112,,,,,,,
1512178909.883285,-0.092602,0.293804,-2.703696,-1.264471,-0.036745,0.818133,-0.088507,-0.289595,-0.953048,0.173209,0.054228,-0.341446,-29.823868,-9.841209,-38.853355,,,,,,,
1512178909.903274,-0.103192,0.267482,-2.688842,-1.146249,-0.469283,0.868446,-0.099346,-0.264304,-0.959309,0.183910,0.129752,-0.346477,-29.818954,-8.716209,-39.152824,,,,,,,
1512178909.923293,-0.117672,0.249503,-2.674158,-0.575671,-0.504574,0.787039,-0.113766,-0.246922,-0.962334,0.135937,0.150960,-0.187782,-30.562393,-7.292320,-38.845802,,,,,,,
1512178909.943282,-0.125913,0.244679,-2.661383,0.068565,-0.044948,0.595423,-0.121840,-0.242245,-0.962534,0.108656,0.127422,0.004969,-31.160706,-6.918221,-38.840523,,,,,,,
1512178909.963271,-0.122086,0.249651,-2.650993,0.404045,0.523066,0.448746,-0.118008,-0.247066,-0.961786,0.142575,0.078136,0.086344,-31.233948,-6.543327,-38.689720,,,,,,,
1512178909.983291,-0.111043,0.256218,-2.641555,0.321931,0.713060,0.459945,-0.107198,-0.253424,-0.961397,0.202809,0.026510,0.065798,-31.009628,-6.692986,-38.691704,,,,,,,
1512178910.003280,-0.102137,0.257915,-2.629896,0.041232,0.483639,0.662964,-0.098587,-0.255065,-0.961885,0.233093,0.003646,0.026445,-30.035217,-6.766533,-39.225014,,,,,,,
1512178910.023254,-0.102178,0.255109,-2.614186,-0.088247,0.037601,0.864217,-0.098699,-0.252350,-0.962589,0.192877,0.029114,0.064548,-30.034027,-6.466530,-39.524879,,,,,,,
1512178910.043243,-0.109711,0.252425,-2.596112,0.014155,-0.217638,0.912786,-0.106021,-0.249753,-0.962488,0.126895,0.061276,0.185114,-30.030991,-5.791527,-39.524559,,,,,,,
1512178910.063263,-0.118074,0.253495,-2.578508,0.245865,-0.135937,0.829009,-0.114035,-0.250789,-0.961302,0.083502,0.057780,0.309996,-30.553925,-5.342308,-39.444893,,,,,,,
1512178910.083252,-0.121472,0.259739,-2.561872,0.502968,0.174350,0.767715,-0.117109,-0.256828,-0.959336,0.052091,0.025520,0.380738,-30.329117,-5.341972,-39.821800,,,,,,,
1512178910.103241,-0.118543,0.269960,-2.546138,0.644443,0.461979,0.736655,-0.113982,-0.266693,-0.957018,0.034850,-0.002442,0.377901,-30.101746,-4.816628,-39.823479,,,,,,,
1512178910.123260,-0.112457,0.280434,-2.529731,0.563080,0.537650,0.761326,-0.107836,-0.276773,-0.954865,0.019824,-0.031958,0.305650,-29.426895,-4.815620,-40.129219,,,,,,,
1512178910.143249,-0.108438,0.286659,-2.513058,0.287233,0.366234,0.801506,-0.103809,-0.282749,-0.953560,0.021885,-0.041058,0.194328,-29.802353,-4.891182,-40.351067,,,,,,,
1512178910.163238,-0.109614,0.287103,-2.496007,0.029133,0.082655,0.859679,-0.104917,-0.283175,-0.953312,0.017011,-0.049115,0.077305,-29.951035,-4.591408,-40.424644,,,,,,,
1512178910.183227,-0.115769,0.285026,-2.478170,0.009095,-0.096917,0.902473,-0.110850,-0.281182,-0.953231,0.012614,-0.047248,0.003264,-29.726028,-4.591072,-40.426552,,,,,,,
1512178910.203247,-0.123090,0.285043,-2.459938,0.180037,-0.094478,0.879370,-0.117825,-0.281199,-0.952389,-0.013873,-0.041738,-0.056065,-30.098297,-3.991631,-40.348091,,,,,,,
1512178910.223236,-0.130113,0.288689,-2.442301,0.344138,-0.103720,0.818819,-0.124377,-0.284696,-0.950515,-0.047330,-0.038394,-0.103867,-30.096939,-3.691628,-40.347954,,,,,,,
1512178910.243225,-0.137335,0.294151,-2.425955,0.381746,-0.123794,0.735075,-0.131023,-0.289928,-0.948037,-0.080632,-0.055638,-0.106772,-30.322250,-3.766960,-40.271080,,,,,,,
1512178910.263244,-0.144639,0.298675,-2.411631,0.269371,-0.156873,0.630991,-0.137754,-0.294254,-0.945747,-0.130404,-0.075314,-0.095375,-30.697205,-3.767525,-40.192894,,,,,,,
1512178910.283233,-0.151597,0.299224,-2.400692,-0.003159,-0.198645,0.476582,-0.144307,-0.294779,-0.944606,-0.145732,-0.066656,-0.131932,-30.995865,-3.467964,-40.190208,,,,,,,
1512178910.303222,-0.158805,0.294474,-2.394618,-0.279103,-0.306542,0.267526,-0.151331,-0.290237,-0.944914,-0.157904,-0.054475,-0.183779,-31.146652,-3.693199,-39.739037,,,,,,,
1512178910.323242,-0.165985,0.287624,-2.394415,-0.328657,-0.355172,-0.026526,-0.158436,-0.283675,-0.945741,-0.165172,-0.044892,-0.200453,-31.442749,-2.868645,-39.361107,,,,,,,
1512178910.343231,-0.170209,0.283886,-2.401255,-0.155975,-0.249474,-0.408506,-0.162608,-0.280088,-0.946102,-0.143178,-0.053194,-0.170338,-31.442673,-2.868645,-39.211098,,,,,,,
1512178910.363220,-0.169509,0.286162,-2.414072,0.108847,-0.064791,-0.684398,-0.161839,-0.282272,-0.945585,-0.113476,-0.106552,-0.104937,-32.046387,-3.694542,-39.206383,,,,,,,
1512178910.383209,-0.164083,0.292464,-2.429966,0.211485,0.120436,-0.822988,-0.156411,-0.288312,-0.944675,-0.097678,-0.157488,-0.057125,-31.824768,-4.444221,-39.208641,,,,,,,
1512178910.403228,-0.154719,0.297878,-2.447674,0.057501,0.275146,-0.851332,-0.147316,-0.293492,-0.944542,-0.115028,-0.209666,-0.056495,-31.677872,-5.118996,-39.360222,,,,,,,
1512178910.423217,-0.141604,0.297315,-2.466060,-0.284836,0.470071,-0.833224,-0.134939,-0.292954,-0.946557,-0.058695,-0.136642,-0.166542,-31.154266,-5.418205,-39.439827,,,,,,,
1512178910.443206,-0.126930,0.291579,-2.484835,-0.421784,0.423875,-0.805519,-0.121246,-0.287465,-0.950086,0.013550,-0.056224,-0.317645,-30.780685,-5.717644,-39.593147,,,,,,,
1512178910.463226,-0.117370,0.287656,-2.501723,-0.171867,0.131397,-0.718698,-0.112290,-0.283706,-0.952314,0.026596,0.012481,-0.306933,-30.332108,-6.016975,-39.747124,,,,,,,
1512178910.483215,-0.112297,0.290855,-2.516679,0.227596,0.045453,-0.704683,-0.107355,-0.286771,-0.951965,-0.017081,0.058256,-0.137101,-30.109131,-6.466637,-39.749245,,,,,,,
1512178910.503204,-0.104788,0.300069,-2.531863,0.445163,0.255270,-0.764765,-0.099922,-0.295586,-0.950076,-0.024208,0.079384,-0.000379,-30.114197,-7.591652,-39.749763,,,,,,,
1512178910.523193,-0.092686,0.311246,-2.547493,0.501687,0.425186,-0.758025,-0.088106,-0.306245,-0.947867,-0.002500,0.076554,0.036902,-29.364990,-7.740532,-39.981194,,,,,,,
1512178910.543212,-0.080369,0.322015,-2.561793,0.450747,0.357591,-0.645996,-0.076156,-0.316479,-0.945538,0.032287,0.078305,0.022869,-28.845459,-8.939751,-40.136223,,,,,,,
1512178910.563201,-0.072615,0.330716,-2.573380,0.366994,0.109337,-0.492429,-0.068619,-0.324720,-0.943318,0.063080,0.097822,0.016407,-28.472778,-9.464180,-40.064644,,,,,,,
1512178910.583191,-0.071550,0.338987,-2.581778,0.417655,-0.177148,-0.345573,-0.067420,-0.332532,-0.940679,0.058601,0.120618,0.067800,-28.323761,-9.688972,-39.991020,,,,,,,
1512178910.603210,-0.074614,0.349325,-2.588094,0.542556,-0.256108,-0.296068,-0.070043,-0.342264,-0.936990,0.049199,0.141778,0.163567,-28.701950,-10.439537,-39.613182,,,,,,,
1512178910.623199,-0.076670,0.362248,-2.593901,0.679004,-0.148017,-0.289447,-0.071624,-0.354377,-0.932356,0.056305,0.136634,0.228407,-28.404572,-11.039085,-39.466011,,,,,,,
1512178910.643188,-0.075319,0.377746,-2.598858,0.793421,0.069961,-0.235863,-0.069943,-0.368826,-0.926863,0.056713,0.123648,0.262846,-28.631256,-11.489418,-38.789314,,,,,,,
1512178910.663208,-0.071379,0.393286,-2.601728,0.718949,0.184967,-0.109678,-0.065874,-0.383226,-0.921303,0.065279,0.112459,0.245033,-28.409286,-12.164085,-38.791542,,,,,,,
1512178910.683197,-0.068285,0.404360,-2.601399,0.436618,0.145721,0.071588,-0.062729,-0.393431,-0.917212,0.060395,0.096434,0.196295,-28.186737,-12.688759,-38.943687,,,,,,,
1512178910.703186,-0.068919,0.408227,-2.598121,0.069671,-0.020677,0.206413,-0.063206,-0.396982,-0.915647,0.067493,0.124079,0.126921,-28.336990,-12.763985,-38.792458,,,,,,,
1512178910.723175,-0.073157,0.405722,-2.593653,-0.194577,-0.157908,0.256476,-0.067158,-0.394682,-0.916360,0.089085,0.142729,0.057549,-28.188644,-13.138756,-38.718895,,,,,,,
1512178910.743194,-0.079263,0.400384,-2.588287,-0.239339,-0.206171,0.317489,-0.072918,-0.389772,-0.918020,0.119884,0.138719,0.000189,-28.561951,-12.764320,-38.715538,,,,,,,
1512178910.763183,-0.086865,0.397130,-2.581388,-0.061369,-0.245553,0.383894,-0.080004,-0.386773,-0.918698,0.131670,0.133828,-0.019275,-28.637405,-12.914436,-38.264977,,,,,,,
1512178910.783172,-0.095018,0.397464,-2.572777,0.123204,-0.213333,0.442119,-0.087479,-0.387081,-0.917887,0.120545,0.114788,0.001993,-28.633652,-12.089424,-38.189583,,,,,,,
1512178910.803192,-0.102012,0.400423,-2.563110,0.218941,-0.093589,0.459911,-0.093780,-0.389808,-0.916109,0.105621,0.099067,0.049532,-29.082199,-11.790092,-37.960625,,,,,,,
1512178910.823181,-0.105978,0.402935,-2.553251,0.119731,0.054721,0.471785,-0.097308,-0.392120,-0.914753,0.101260,0.076293,0.023670,-29.158279,-12.015221,-38.110100,,,,,,,
1512178910.843170,-0.109241,0.400759,-2.543252,-0.176383,0.006103,0.518494,-0.100385,-0.390117,-0.915277,0.113828,0.060893,-0.069205,-29.233551,-12.090324,-37.959496,,,,,,,
1512178910.863159,-0.115926,0.392322,-2.532742,-0.430272,-0.226208,0.582236,-0.106879,-0.382335,-0.917822,0.126914,0.054698,-0.115030,-29.532578,-11.865776,-38.031837,,,,,,,
1512178910.883178,-0.125317,0.380273,-2.522314,-0.518095,-0.338545,0.600825,-0.116061,-0.371174,-0.921281,0.128985,0.060292,-0.173033,-29.601349,-10.515877,-37.730583,,,,,,,
1512178910.903167,-0.135157,0.368776,-2.512217,-0.436423,-0.323385,0.562620,-0.125687,-0.360474,-0.924262,0.126664,0.064759,-0.186532,-29.973907,-9.991432,-37.577141,,,,,,,
1512178910.923156,-0.142983,0.362201,-2.502512,-0.125315,-0.154048,0.516543,-0.133251,-0.354333,-0.925577,0.102688,0.030099,-0.113425,-30.122040,-9.616661,-37.200691,,,,,,,
1512178910.943176,-0.145177,0.360847,-2.492190,0.078173,0.190174,0.540943,-0.135351,-0.353067,-0.925756,0.086095,-0.007956,-0.053431,-30.120575,-9.316658,-36.975563,,,,,,,
1512178910.963165,-0.142328,0.359676,-2.480268,-0.036016,0.424845,0.625394,-0.132772,-0.351971,-0.926546,0.090657,-0.030949,-0.071561,-30.271362,-9.466881,-37.199348,,,,,,,
1512178910.983154,-0.138765,0.353076,-2.467200,-0.355222,0.368630,0.714385,-0.129787,-0.345786,-0.929294,0.131893,-0.025643,-0.156018,-29.817047,-8.491203,-37.352730,,,,,,,
1512178911.003173,-0.140041,0.341426,-2.452673,-0.518353,0.087213,0.831507,-0.131526,-0.334831,-0.933054,0.167232,-0.008431,-0.182623,-29.512772,-7.515755,-37.579826,,,,,,,
1512178911.023126,-0.146094,0.329198,-2.435216,-0.440198,-0.021958,0.999630,-0.137758,-0.323284,-0.936221,0.162264,-0.006275,-0.101911,-29.735489,-6.991081,-37.727669,,,,,,,
1512178911.043115,-0.151930,0.319159,-2.414244,-0.292994,0.123288,1.131263,-0.143703,-0.313768,-0.938562,0.139370,0.025163,-0.000601,-29.880981,-6.016304,-37.500954,,,,,,,
1512178911.063104,-0.153148,0.309689,-2.391777,-0.339089,0.406231,1.160363,-0.145293,-0.304762,-0.941281,0.119109,0.057066,0.026196,-29.652679,-5.265953,-37.652519,,,,,,,
1512178911.083124,-0.149323,0.297467,-2.370395,-0.492816,0.531065,1.114861,-0.142235,-0.293099,-0.945443,0.149178,0.077767,-0.018028,-29.801071,-4.891182,-37.801064,,,,,,,
1512178911.103113,-0.145125,0.283589,-2.349818,-0.550444,0.454067,1.114825,-0.138840,-0.279803,-0.949965,0.175339,0.094622,-0.050020,-29.495560,-3.615715,-38.253029,,,,,,,
1512178911.123102,-0.144339,0.270086,-2.329442,-0.493602,0.249120,1.084019,-0.138624,-0.266815,-0.953726,0.167540,0.112533,-0.013941,-28.889481,-2.264809,-38.257500,,,,,,,
1512178911.143122,-0.146703,0.259772,-2.310520,-0.268718,0.082024,0.950242,-0.141273,-0.256860,-0.956068,0.133979,0.106744,0.060651,-28.660873,-1.439476,-38.484032,,,,,,,
1512178911.163111,-0.149734,0.257549,-2.294853,0.197080,0.086310,0.759781,-0.144255,-0.254712,-0.956197,0.125654,0.088650,0.178228,-28.657837,-0.764473,-38.483727,,,,,,,
1512178911.183100,-0.149842,0.264996,-2.280358,0.618285,0.269872,0.633268,-0.144071,-0.261906,-0.954279,0.111784,0.037449,0.291941,-28.582840,-0.764351,-38.484367,,,,,,,
1512178911.203089,-0.145694,0.278230,-2.265872,0.826353,0.482760,0.631691,-0.139596,-0.274655,-0.951356,0.086404,-0.005146,0.350709,-27.908554,-0.913338,-38.565163,,,,,,,
1512178911.223108,-0.138550,0.292581,-2.250367,0.775494,0.640668,0.684805,-0.132238,-0.288425,-0.948327,0.052206,-0.033825,0.335504,-27.384384,-1.062553,-38.869698,,,,,,,
1512178911.243097,-0.130598,0.303125,-2.234716,0.529941,0.606075,0.705649,-0.124290,-0.298504,-0.946281,0.023002,-0.042789,0.242973,-27.011948,-1.586998,-39.248116,,,,,,,
1512178911.263086,-0.125697,0.309037,-2.219667,0.312331,0.389967,0.702808,-0.119428,-0.304141,-0.945111,0.012418,-0.060758,0.123319,-26.636414,-1.436424,-39.551247,,,,,,,
1512178911.283106,-0.127049,0.311097,-2.204592,0.119149,0.028502,0.763782,-0.120625,-0.306104,-0.944325,0.010350,-0.105624,0.019871,-26.784393,-0.986656,-39.549767,,,,,,,
1512178911.303095,-0.137358,0.308459,-2.187356,-0.099169,-0.399427,0.923303,-0.130464,-0.303591,-0.943828,-0.027800,-0.128340,-0.013325,-27.079742,-0.012093,-39.021751,,,,,,,
1512178911.323084,-0.155217,0.300882,-2.167855,-0.331689,-0.682032,1.045811,-0.147649,-0.296363,-0.943594,-0.123500,-0.136147,-0.011698,-27.154022,0.137794,-38.946053,,,,,,,
1512178911.343103,-0.177022,0.286093,-2.148533,-0.725452,-0.874933,1.060759,-0.168941,-0.282206,-0.944361,-0.215855,-0.129735,-0.070913,-28.047607,1.486458,-38.262779,,,,,,,
1512178911.363092,-0.201147,0.263978,-2.132977,-1.042851,-1.017184,0.907485,-0.192872,-0.260923,-0.945896,-0.268813,-0.084826,-0.113598,-28.717209,2.610451,-37.581520,,,,,,,
1512178911.383081,-0.221677,0.239463,-2.123173,-1.079998,-0.781734,0.649777,-0.213592,-0.237181,-0.947694,-0.296433,-0.038698,-0.157042,-29.463150,3.434334,-36.899788,,,,,,,
1512178911.403070,-0.233037,0.219365,-2.119359,-0.808502,-0.350148,0.304480,-0.225399,-0.217610,-0.949653,-0.279911,0.013142,-0.211403,-29.608276,4.484108,-36.598015,,,,,,,
1512178911.423090,-0.234296,0.209248,-2.121986,-0.313444,0.068106,-0.152761,-0.227094,-0.207724,-0.951461,-0.253024,0.023596,-0.231339,-29.455917,5.009346,-36.599052,,,,,,,
1512178911.443079,-0.227318,0.212210,-2.131552,0.231854,0.366831,-0.623547,-0.220310,-0.210620,-0.952419,-0.248989,-0.064938,-0.169453,-29.232300,4.709679,-36.676094,,,,,,,
1512178911.463068,-0.212288,0.222009,-2.147152,0.293270,0.718913,-0.905006,-0.205526,-0.220190,-0.953559,-0.199153,-0.160303,-0.149895,-28.934479,4.260124,-36.978859,,,,,,,
1512178911.483087,-0.191667,0.226022,-2.166591,-0.200879,0.841052,-0.928795,-0.185651,-0.224103,-0.956719,-0.089923,-0.193057,-0.265067,-28.714996,3.060448,-37.206322,,,,,,,
1512178911.503076,-0.173201,0.218607,-2.186125,-0.683328,0.607146,-0.774556,-0.168234,-0.216870,-0.961595,0.009253,-0.088061,-0.396529,-27.740158,3.061913,-37.514610,,,,,,,
1512178911.523065,-0.162512,0.206216,-2.202740,-0.721501,0.201916,-0.613415,-0.158370,-0.204757,-0.965916,0.050261,0.058135,-0.442318,-27.438385,3.437370,-37.366982,,,,,,,
1512178911.543054,-0.160966,0.198180,-2.217541,-0.338314,-0.203315,-0.661508,-0.157135,-0.196885,-0.967753,0.023117,0.175004,-0.282888,-27.513351,3.437248,-37.291344,,,,,,,
1512178911.563074,-0.163248,0.201123,-2.235168,0.216704,-0.257420,-0.963880,-0.159248,-0.199769,-0.966816,-0.039468,0.160310,-0.024014,-28.037659,3.586464,-37.286812,,,,,,,
1512178911.583063,-0.159274,0.214693,-2.256872,0.658083,0.151782,-1.204453,-0.154960,-0.213047,-0.964675,-0.034081,0.094761,0.156310,-27.819061,2.161797,-37.214378,,,,,,,
