timestamp(unix),attitude_roll(radians),attitude_pitch(radians),attitude_yaw(radians),rotation_rate_x(radians/s),rotation_rate_y(radians/s),rotation_rate_z(radians/s),gravity_x(G),gravity_y(G),gravity_z(G),user_acc_x(G),user_acc_y(G),user_acc_z(G),magnetic_field_x(microteslas),magnetic_field_y(microteslas),magnetic_field_z(microteslas),latitude(degree),longitude(degree),altitude(meter),speed(m/s),course(degree),timestamp(unix),User Mark
1512178752.706804,-0.048808,0.419263,2.717340,0.277491,0.437077,1.129927,-0.044563,-0.407087,-0.912302,0.153968,0.038511,-0.112860,-21.732193,-28.429085,-38.181419,,,,,,,
1512178752.726793,-0.051010,0.425223,2.742982,0.386655,0.435026,1.167744,-0.046447,-0.412524,-0.909762,0.136154,0.034457,-0.039243,-21.958328,-28.654411,-38.404610,,,,,,,
1512178752.746782,-0.051315,0.431625,2.768981,0.366498,0.597360,1.170150,-0.046588,-0.418348,-0.907091,0.110843,0.023481,0.028536,-22.031967,-28.354530,-38.403831,,,,,,,
1512178752.766802,-0.047232,0.436753,2.795678,0.277468,0.867389,1.216707,-0.042783,-0.423000,-0.905119,0.084805,0.014385,0.046171,-21.881485,-28.279305,-38.105080,,,,,,,
1512178752.786791,-0.039685,0.439766,2.822637,0.153857,0.966538,1.218460,-0.035900,-0.425728,-0.904139,0.078396,0.044090,-0.002020,-21.805283,-27.979179,-38.405571,,,,,,,
1512178752.806780,-0.033552,0.440359,2.849699,0.030854,0.815697,1.235340,-0.030345,-0.426264,-0.904090,0.077312,0.069422,-0.055795,-21.500824,-27.003731,-38.257668,,,,,,,
1512178752.826799,-0.031734,0.439451,2.876617,-0.006170,0.584971,1.207352,-0.028714,-0.425443,-0.904530,0.058056,0.108640,-0.068233,-21.724243,-26.629066,-38.480598,,,,,,,
1512178752.846788,-0.033064,0.439634,2.902556,0.089342,0.450606,1.161358,-0.029914,-0.425608,-0.904413,0.016914,0.116999,-0.040762,-21.496689,-26.028725,-38.782219,,,,,,,
1512178752.866777,-0.034334,0.441981,2.927334,0.188407,0.509629,1.105436,-0.031029,-0.427731,-0.903373,-0.022056,0.097424,0.029625,-21.719894,-25.654060,-38.555138,,,,,,,
1512178752.886797,-0.032025,0.445779,2.952048,0.247904,0.736130,1.128406,-0.028891,-0.431161,-0.901812,-0.057978,0.060693,0.070834,-21.644928,-25.653938,-38.630775,,,,,,,
1512178752.906742,-0.025931,0.450054,2.977456,0.230546,0.921914,1.155451,-0.023346,-0.435014,-0.900121,-0.069092,0.044526,0.067067,-21.794403,-25.504173,-38.929436,,,,,,,
1512178752.926731,-0.018217,0.452492,3.003637,0.089133,0.972886,1.200488,-0.016383,-0.437208,-0.899211,-0.065999,0.026335,0.031215,-21.267044,-24.978386,-38.933662,,,,,,,
1512178752.946720,-0.011571,0.452027,3.030903,-0.061158,0.894560,1.259869,-0.010409,-0.436790,-0.899503,-0.050459,0.031913,-0.019534,-21.117569,-25.053154,-39.309959,,,,,,,
1512178752.966739,-0.008079,0.448799,3.060010,-0.204692,0.764892,1.359681,-0.007279,-0.433883,-0.900940,-0.037582,0.042083,-0.061661,-21.411682,-23.778603,-39.006813,,,,,,,
1512178752.986728,-0.007607,0.442972,3.091249,-0.319277,0.667327,1.450426,-0.006873,-0.428626,-0.903456,-0.040170,0.057655,-0.092516,-20.882141,-22.727806,-39.385796,,,,,,,
1512178753.006717,-0.009233,0.435850,3.123935,-0.348068,0.595596,1.512659,-0.008369,-0.422181,-0.906473,-0.043129,0.085679,-0.117285,-21.254257,-22.053368,-39.682289,,,,,,,
1512178753.026737,-0.011847,0.429127,-3.125893,-0.288625,0.556136,1.526176,-0.010773,-0.416077,-0.909265,-0.048355,0.119874,-0.127951,-21.474411,-21.003685,-39.454903,,,,,,,
1512178753.046726,-0.015155,0.424853,-3.092991,-0.126127,0.494489,1.495267,-0.013807,-0.412187,-0.910995,-0.059648,0.140351,-0.114976,-21.924911,-21.079369,-39.751106,,,,,,,
1512178753.066715,-0.018996,0.424304,-3.061439,0.064886,0.452206,1.416866,-0.017310,-0.411687,-0.911161,-0.074364,0.137242,-0.055422,-21.998627,-20.779472,-39.900337,,,,,,,
1512178753.086735,-0.021822,0.426452,-3.031674,0.161197,0.509137,1.333176,-0.019866,-0.413643,-0.910222,-0.087281,0.104775,0.032003,-22.065796,-19.054573,-39.748894,,,,,,,
1512178753.106724,-0.022038,0.429103,-3.003264,0.152467,0.632057,1.286570,-0.020039,-0.416056,-0.909118,-0.084102,0.067987,0.090316,-21.991577,-19.204475,-39.974602,,,,,,,
1512178753.126713,-0.019932,0.430795,-2.975187,0.080994,0.729140,1.294402,-0.018110,-0.417593,-0.908454,-0.070101,0.037054,0.101065,-22.139862,-18.829689,-39.898155,,,,,,,
1512178753.146732,-0.016775,0.430625,-2.946643,-0.030161,0.766317,1.313174,-0.015243,-0.417439,-0.908577,-0.057328,0.034764,0.082924,-22.136856,-18.154686,-39.972847,,,,,,,
1512178753.166721,-0.013925,0.428043,-2.918191,-0.153770,0.717005,1.308016,-0.012668,-0.415091,-0.909692,-0.044033,0.034461,0.051156,-22.286255,-18.004906,-40.121498,,,,,,,
1512178753.186710,-0.012622,0.423524,-2.889468,-0.236417,0.633497,1.337441,-0.011507,-0.410976,-0.911574,-0.031859,0.022380,0.026213,-22.132690,-17.179680,-40.422401,,,,,,,
1512178753.206699,-0.012797,0.418020,-2.859809,-0.265032,0.597031,1.390203,-0.011695,-0.405952,-0.913820,-0.036203,0.015663,0.021806,-21.904022,-16.354332,-40.498924,,,,,,,
1512178753.226719,-0.012702,0.412246,-2.829377,-0.272865,0.640766,1.414761,-0.011638,-0.400668,-0.916149,-0.047643,0.015505,0.019818,-22.052032,-15.904564,-40.572441,,,,,,,
1512178753.246708,-0.011965,0.406606,-2.799278,-0.259572,0.633369,1.384012,-0.010990,-0.395494,-0.918403,-0.051816,0.024797,-0.003289,-22.123474,-15.079659,-40.871422,,,,,,,
1512178753.266697,-0.011893,0.401296,-2.770498,-0.244650,0.536329,1.315667,-0.010948,-0.390611,-0.920490,-0.041695,0.026094,-0.027828,-22.043930,-14.029549,-41.246574,,,,,,,
1512178753.286716,-0.012827,0.396570,-2.743135,-0.198782,0.469237,1.245736,-0.011831,-0.386257,-0.922315,-0.041102,0.026607,-0.023562,-21.891266,-13.429314,-41.322578,,,,,,,
1512178753.306705,-0.014311,0.392678,-2.717397,-0.172180,0.394628,1.179764,-0.013221,-0.382664,-0.923793,-0.034219,0.020069,-0.014455,-22.037521,-12.604530,-41.245903,,,,,,,
1512178753.326694,-0.016564,0.389329,-2.692931,-0.143757,0.349899,1.135247,-0.015324,-0.379568,-0.925037,-0.035915,-0.007700,-0.002835,-22.109222,-11.854652,-41.394936,,,,,,,
1512178753.346714,-0.018670,0.385743,-2.669497,-0.165268,0.339290,1.081596,-0.017298,-0.376247,-0.926358,-0.036947,-0.016697,0.019864,-21.958878,-11.779411,-41.396172,,,,,,,
1512178753.366703,-0.020316,0.382311,-2.646775,-0.134232,0.356438,1.074641,-0.018848,-0.373065,-0.927614,-0.042660,-0.044568,0.034852,-22.481888,-11.330208,-41.466499,,,,,,,
1512178753.386692,-0.021875,0.379489,-2.624214,-0.114725,0.342621,1.054620,-0.020317,-0.370446,-0.928632,-0.039132,-0.043052,0.043469,-22.330200,-10.954979,-41.467598,,,,,,,
1512178753.406681,-0.022730,0.376828,-2.602741,-0.104121,0.371599,0.995176,-0.021133,-0.367973,-0.929596,-0.049866,-0.045556,0.050583,-22.551193,-9.980309,-42.215248,,,,,,,
1512178753.426700,-0.022270,0.374697,-2.582403,-0.067020,0.418755,0.945774,-0.020723,-0.365991,-0.930388,-0.053602,-0.061683,0.047148,-21.873184,-9.379280,-41.620689,,,,,,,
1512178753.446689,-0.021401,0.374021,-2.562755,0.018523,0.390079,0.928791,-0.019920,-0.365361,-0.930653,-0.041847,-0.075664,0.023243,-22.096207,-8.929619,-41.693581,,,,,,,
1512178753.466678,-0.021881,0.374374,-2.543503,0.041323,0.302576,0.898965,-0.020364,-0.365690,-0.930514,-0.040106,-0.078982,0.018252,-21.945038,-8.629402,-42.069710,,,,,,,
1512178753.486698,-0.022969,0.375006,-2.525030,0.054684,0.305871,0.865058,-0.021371,-0.366278,-0.930260,-0.058891,-0.091394,0.038124,-21.944366,-8.479393,-42.069649,,,,,,,
1512178753.506687,-0.022134,0.375468,-2.507351,0.026744,0.413807,0.819188,-0.020591,-0.366708,-0.930108,-0.067788,-0.096350,0.042215,-21.864151,-7.279274,-42.444725,,,,,,,
1512178753.526676,-0.019351,0.375615,-2.491119,0.014716,0.473700,0.776583,-0.018001,-0.366845,-0.930108,-0.063252,-0.092735,0.023339,-21.642273,-7.953941,-42.596947,,,,,,,
1512178753.546695,-0.016199,0.375722,-2.475009,0.010720,0.454492,0.758331,-0.015069,-0.366945,-0.930121,-0.046623,-0.086180,-0.012872,-21.412125,-6.828590,-42.448341,,,,,,,
1512178753.566684,-0.014015,0.375981,-2.459028,0.023398,0.393618,0.762569,-0.013035,-0.367185,-0.930056,-0.048305,-0.091982,-0.035337,-21.412308,-6.828590,-42.823341,,,,,,,
1512178753.586673,-0.012095,0.376533,-2.443545,0.029500,0.395856,0.715758,-0.011247,-0.367699,-0.929877,-0.046691,-0.087807,-0.034738,-21.335220,-6.378487,-42.673775,,,,,,,
1512178753.606663,-0.009656,0.377528,-2.429313,0.065756,0.402451,0.651278,-0.008976,-0.368624,-0.929535,-0.046154,-0.076841,-0.044265,-21.109650,-6.228142,-42.900612,,,,,,,
1512178753.626682,-0.006744,0.379714,-2.416566,0.134018,0.372780,0.582869,-0.006264,-0.370655,-0.928749,-0.043526,-0.080639,-0.059105,-20.883270,-5.927803,-42.827385,,,,,,,
1512178753.646671,-0.005157,0.383634,-2.405189,0.222402,0.270490,0.518762,-0.004782,-0.374292,-0.927298,-0.044046,-0.091146,-0.059350,-21.034607,-6.228035,-42.826256,,,,,,,
1512178753.666660,-0.003820,0.388438,-2.395382,0.241715,0.263187,0.446526,-0.003535,-0.378743,-0.925495,-0.047948,-0.095576,-0.030270,-20.884842,-6.227806,-43.277519,,,,,,,
1512178753.686680,-0.001872,0.392664,-2.386925,0.185103,0.263212,0.388137,-0.001730,-0.382651,-0.923891,-0.045633,-0.103662,-0.014295,-20.810516,-6.377693,-43.278236,,,,,,,
1512178753.706669,0.001148,0.394905,-2.379493,0.063174,0.330399,0.351426,0.001060,-0.384720,-0.923033,-0.040733,-0.101654,0.007627,-20.582169,-5.627357,-43.354805,,,,,,,
1512178753.726658,0.005728,0.394254,-2.372609,-0.096263,0.392161,0.325877,0.005288,-0.384120,-0.923268,-0.035287,-0.080785,0.011937,-20.959808,-6.152916,-43.876854,,,,,,,
1512178753.746677,0.011574,0.390491,-2.366251,-0.245038,0.445399,0.300457,0.010702,-0.380642,-0.924660,-0.034842,-0.062977,-0.003837,-20.355453,-5.177010,-43.956505,,,,,,,
1512178753.766666,0.018710,0.384549,-2.360294,-0.336382,0.499770,0.282264,0.017343,-0.375141,-0.926805,-0.023721,-0.040798,-0.032301,-20.355118,-5.102013,-43.956474,,,,,,,
1512178753.786655,0.026785,0.377873,-2.354441,-0.352384,0.551012,0.285408,0.024893,-0.368944,-0.929118,0.017328,-0.005568,-0.086400,-19.829880,-5.026222,-44.185890,,,,,,,
1512178753.806644,0.035086,0.371612,-2.348158,-0.314304,0.520059,0.301842,0.032685,-0.363118,-0.931170,0.053100,0.039601,-0.161268,-19.826355,-4.201210,-44.560509,,,,,,,
1512178753.826664,0.041012,0.366914,-2.342142,-0.195823,0.337613,0.283735,0.038272,-0.358736,-0.932654,0.093549,0.098101,-0.207437,-19.824417,-3.751213,-44.710304,,,,,,,
1512178753.846653,0.041792,0.365867,-2.336170,0.028589,0.032418,0.300849,0.039015,-0.357759,-0.932999,0.119021,0.132768,-0.201508,-19.823029,-3.451210,-44.635155,,,,,,,
1512178753.866642,0.036815,0.370142,-2.330216,0.296817,-0.205407,0.314569,0.034314,-0.361748,-0.931644,0.110812,0.147713,-0.109036,-19.973694,-3.601433,-44.633949,,,,,,,
1512178753.886661,0.029989,0.378256,-2.323845,0.434049,-0.181731,0.333698,0.027865,-0.369300,-0.928892,0.088926,0.133903,0.019987,-20.125381,-3.976662,-44.632851,,,,,,,
1512178753.906634,0.025572,0.387209,-2.316892,0.423796,-0.018410,0.381022,0.023677,-0.377605,-0.925664,0.091710,0.110042,0.092915,-20.650009,-3.902458,-44.553352,,,,,,,
1512178753.926623,0.023230,0.394769,-2.307830,0.328302,0.092327,0.488764,0.021442,-0.384595,-0.922836,0.103207,0.097745,0.090698,-20.950058,-3.902901,-44.625801,,,,,,,
1512178753.946643,0.020545,0.399995,-2.296539,0.205393,0.068475,0.571118,0.018922,-0.389413,-0.920869,0.109267,0.101907,0.065400,-21.325089,-3.903465,-44.697624,,,,,,,
1512178753.966632,0.016179,0.402797,-2.284458,0.080527,0.009522,0.576566,0.014883,-0.391993,-0.919848,0.097391,0.117152,0.067553,-21.401108,-4.128578,-44.697090,,,,,,,
1512178753.986621,0.010208,0.403665,-2.272296,0.015386,-0.068561,0.579615,0.009388,-0.392791,-0.919580,0.084179,0.087432,0.064996,-21.623398,-3.528908,-44.694893,,,,,,,
1512178754.006640,0.005496,0.403580,-2.260291,-0.011859,0.064965,0.557297,0.005054,-0.392713,-0.919647,0.081234,0.098997,0.094192,-22.072052,-3.229576,-44.690941,,,,,,,
1512178754.026629,0.004025,0.403690,-2.249828,0.012032,0.184806,0.471708,0.003702,-0.392815,-0.919610,0.076148,0.086906,0.085031,-22.522537,-3.380257,-44.312187,,,,,,,
1512178754.046618,0.004350,0.404292,-2.240740,0.040525,0.198827,0.425263,0.003999,-0.393368,-0.919372,0.091979,0.073650,0.050934,-22.746338,-3.080589,-44.610115,,,,,,,
1512178754.066607,0.003480,0.405767,-2.232247,0.089702,0.083568,0.411718,0.003197,-0.394723,-0.918794,0.101859,0.049447,0.031709,-22.822723,-3.380714,-44.684624,,,,,,,
1512178754.086627,-0.000038,0.407801,-2.223755,0.095894,-0.040348,0.417771,-0.000035,-0.396591,-0.917995,0.103093,0.031006,0.051540,-22.820251,-2.855705,-44.459389,,,,,,,
1512178754.106616,-0.005228,0.409067,-2.215177,0.038376,-0.088495,0.412506,-0.004797,-0.397754,-0.917480,0.083227,0.018588,0.099334,-23.195251,-2.856270,-44.456200,,,,,,,
1512178754.126605,-0.008522,0.407910,-2.207428,-0.122643,0.048098,0.357346,-0.007822,-0.396692,-0.917918,0.056193,-0.022131,0.137965,-23.569092,-2.631828,-44.152916,,,,,,,
1512178754.146625,-0.010179,0.403310,-2.200483,-0.278169,0.075648,0.351993,-0.009362,-0.392465,-0.919719,0.059304,-0.042655,0.117839,-23.570114,-2.856834,-44.153023,,,,,,,
1512178754.166614,-0.012547,0.397011,-2.192671,-0.312213,0.024209,0.409954,-0.011571,-0.386664,-0.922148,0.066213,-0.058115,0.084044,-23.791992,-2.182167,-44.000786,,,,,,,
1512178754.186603,-0.016578,0.391516,-2.183998,-0.230633,-0.059040,0.436431,-0.015323,-0.381590,-0.924204,0.065143,-0.050203,0.066798,-24.468872,-2.558174,-44.370216,,,,,,,
1512178754.206622,-0.022120,0.388090,-2.175338,-0.127030,-0.107993,0.421769,-0.020473,-0.378421,-0.925407,0.053920,-0.063153,0.071388,-25.138550,-1.434181,-43.838966,,,,,,,
1512178754.226611,-0.026796,0.386089,-2.167523,-0.076009,-0.042644,0.370503,-0.024821,-0.376568,-0.926056,0.035303,-0.068241,0.090912,-25.062729,-1.284065,-43.539543,,,,,,,
1512178754.246600,-0.029198,0.384336,-2.161206,-0.085246,0.027999,0.286392,-0.027064,-0.374943,-0.926652,0.024882,-0.073985,0.076433,-25.362717,-1.284523,-43.536995,,,,,,,
1512178754.266589,-0.030866,0.382700,-2.157244,-0.066538,-0.031591,0.183046,-0.028628,-0.373427,-0.927218,0.045062,-0.080751,0.038073,-25.587723,-1.284859,-43.535088,,,,,,,
1512178754.286609,-0.033846,0.382449,-2.154535,0.013941,-0.122187,0.147655,-0.031395,-0.373193,-0.927222,0.053871,-0.100485,0.026694,-25.587646,-1.284859,-43.385078,,,,,,,
1512178754.306598,-0.037553,0.383925,-2.152259,0.088838,-0.132721,0.130580,-0.034811,-0.374563,-0.926548,0.038458,-0.113780,0.030826,-26.113251,-1.435646,-43.230690,,,,,,,
1512178754.326587,-0.041324,0.386409,-2.150320,0.112574,-0.145468,0.112757,-0.038266,-0.376865,-0.925478,0.036633,-0.124890,0.025514,-26.415207,-1.886101,-43.078346,,,,,,,
1512178754.346606,-0.045025,0.389062,-2.148459,0.117739,-0.154025,0.122396,-0.041646,-0.379320,-0.924328,0.037801,-0.131422,0.010433,-26.562607,-1.361320,-42.626823,,,,,,,
1512178754.366595,-0.048741,0.391964,-2.145768,0.139337,-0.114568,0.171884,-0.045026,-0.382004,-0.923063,0.026639,-0.118942,-0.011995,-26.638474,-1.586433,-42.326302,,,,,,,
1512178754.386584,-0.051287,0.395193,-2.142741,0.150343,-0.046153,0.154158,-0.047313,-0.384986,-0.921709,0.016856,-0.073876,-0.054640,-27.238708,-1.662331,-42.096230,,,,,,,
1512178754.406604,-0.053613,0.398313,-2.140725,0.146001,-0.095172,0.092094,-0.049392,-0.387864,-0.920392,0.007919,-0.053283,-0.117007,-27.388672,-1.662560,-42.019966,,,,,,,
1512178754.426593,-0.057957,0.401527,-2.140627,0.172149,-0.267973,-0.015803,-0.053317,-0.390825,-0.918920,0.003680,-0.028044,-0.143901,-27.694931,-3.013023,-42.393044,,,,,,,
1512178754.446582,-0.063776,0.405681,-2.142860,0.219738,-0.323229,-0.124042,-0.058560,-0.394645,-0.916966,-0.019412,-0.042413,-0.109066,-27.841446,-2.338234,-41.491447,,,,,,,
1512178754.466571,-0.067602,0.410400,-2.146938,0.226334,-0.198102,-0.194938,-0.061942,-0.398976,-0.914867,-0.044702,-0.071162,-0.068806,-28.370819,-3.314034,-41.487434,,,,,,,
1512178754.486590,-0.067239,0.414980,-2.152419,0.201922,-0.011078,-0.256470,-0.061486,-0.403172,-0.913056,-0.064201,-0.090419,-0.067535,-28.221268,-3.463814,-41.038780,,,,,,,
1512178754.506579,-0.063426,0.418940,-2.160036,0.158304,0.102207,-0.321741,-0.057902,-0.406792,-0.911684,-0.071233,-0.095787,-0.081404,-27.928055,-4.963371,-41.117027,,,,,,,
1512178754.526568,-0.057142,0.421093,-2.168623,0.028330,0.179052,-0.387318,-0.052122,-0.408758,-0.911153,-0.074679,-0.092325,-0.091868,-28.227829,-4.963814,-40.664482,,,,,,,
1512178754.546588,-0.048974,0.419415,-2.178438,-0.196076,0.246065,-0.415920,-0.044712,-0.407226,-0.912232,-0.041317,-0.070588,-0.111556,-27.627914,-4.962914,-40.819572,,,,,,,
1512178754.566577,-0.039123,0.412898,-2.188488,-0.416865,0.346115,-0.403845,-0.035826,-0.401265,-0.915261,-0.007280,-0.013957,-0.143791,-27.480652,-5.562706,-40.896126,,,,,,,
1512178754.586566,-0.028784,0.404739,-2.197952,-0.391850,0.298021,-0.371669,-0.026455,-0.393779,-0.918824,0.042019,0.072688,-0.187880,-27.028702,-5.112022,-41.049751,,,,,,,
1512178754.606585,-0.022919,0.400136,-2.206693,-0.111884,0.017488,-0.361128,-0.021107,-0.389543,-0.920766,0.067219,0.156023,-0.163401,-27.180618,-5.562248,-40.823677,,,,,,,
1512178754.626574,-0.024188,0.403332,-2.215923,0.303458,-0.349224,-0.418217,-0.022245,-0.392486,-0.919489,0.031568,0.171096,-0.055898,-27.480545,-5.562706,-40.671135,,,,,,,
1512178754.646564,-0.029029,0.412974,-2.226150,0.540715,-0.439580,-0.458804,-0.026584,-0.401335,-0.915545,-0.031109,0.139357,0.131701,-27.785416,-6.688164,-40.294106,,,,,,,
1512178754.666553,-0.032092,0.424334,-2.236363,0.536304,-0.251615,-0.440088,-0.029241,-0.411714,-0.910844,-0.087092,0.084596,0.281373,-27.938248,-7.363380,-39.918144,,,,,,,
1512178754.686572,-0.028927,0.433446,-2.245627,0.370178,0.129329,-0.368681,-0.026248,-0.420000,-0.907144,-0.138470,0.032671,0.335031,-27.716309,-8.038063,-39.920372,,,,,,,
1512178754.706561,-0.018551,0.438222,-2.253418,0.147451,0.486686,-0.290708,-0.016797,-0.424330,-0.905352,-0.126635,0.017622,0.281908,-27.268448,-8.487389,-40.149391,,,,,,,
1512178754.726550,-0.005417,0.438527,-2.258622,-0.071352,0.573643,-0.142199,-0.004904,-0.424606,-0.905365,-0.092538,0.034576,0.175506,-26.894485,-8.711815,-40.227684,,,,,,,
1512178754.746570,0.005589,0.433982,-2.261235,-0.325401,0.457741,-0.062059,0.005071,-0.420487,-0.907284,-0.091543,0.067323,0.081448,-25.920578,-8.935356,-40.386070,,,,,,,
1512178754.766559,0.012616,0.424409,-2.263583,-0.562858,0.235245,-0.089728,0.011496,-0.411782,-0.911210,-0.103629,0.105645,0.022996,-25.768997,-8.560143,-40.612175,,,,,,,
1512178754.786548,0.015501,0.411509,-2.267020,-0.667472,0.018375,-0.155960,0.014207,-0.399993,-0.916408,-0.104066,0.123199,0.006114,-25.393326,-8.409569,-40.615288,,,,,,,
1512178754.806567,0.015530,0.398690,-2.271116,-0.612212,-0.099053,-0.151304,0.014312,-0.388211,-0.921459,-0.104567,0.097958,0.022091,-25.315369,-7.734459,-40.765617,,,,,,,
1512178754.826556,0.015105,0.387222,-2.274715,-0.549496,-0.045579,-0.138486,0.013986,-0.377618,-0.925856,-0.122461,0.087731,0.069075,-25.389389,-7.509560,-40.839867,,,,,,,
1512178754.846545,0.016935,0.376703,-2.278774,-0.508298,0.083807,-0.173684,0.015747,-0.367857,-0.929749,-0.132797,0.066435,0.092545,-25.238037,-7.209328,-40.841011,,,,,,,
1512178754.866565,0.021776,0.367092,-2.283206,-0.453796,0.215281,-0.175636,0.020323,-0.358903,-0.933154,-0.124785,0.029939,0.086855,-24.785706,-6.683662,-40.919594,,,,,,,
1512178754.886554,0.027519,0.359041,-2.287406,-0.359140,0.223945,-0.161441,0.025761,-0.351377,-0.935880,-0.092030,0.018125,0.063626,-24.637177,-6.983437,-41.146004,,,,,,,
1512178754.906531,0.033018,0.353469,-2.290545,-0.216358,0.253935,-0.091040,0.030971,-0.346154,-0.937666,-0.082393,-0.015159,0.068037,-24.337921,-7.132988,-41.298622,,,,,,,
1512178754.926520,0.039691,0.350791,-2.291973,-0.096487,0.346839,0.013359,0.037264,-0.343641,-0.938362,-0.067721,-0.054552,0.085334,-23.587250,-6.981865,-41.304924,,,,,,,
1512178754.946539,0.048194,0.347948,-2.294127,-0.162180,0.310733,-0.141228,0.045288,-0.340970,-0.938983,-0.120224,0.032620,0.057864,-23.213104,-7.131294,-41.683189,,,,,,,
1512178754.966528,0.052474,0.345470,-2.300596,-0.068988,0.066591,-0.309163,0.049351,-0.338638,-0.939621,-0.139255,-0.161484,0.041672,-22.987015,-6.905952,-41.534996,,,,,,,
1512178754.986517,0.056060,0.343996,-2.307773,-0.075543,0.068697,-0.299657,0.052748,-0.337252,-0.939936,-0.060240,-0.048658,0.067316,-22.612350,-6.980400,-41.538216,,,,,,,
1512178755.006537,0.057490,0.341749,-2.314067,-0.100126,-0.047903,-0.237525,0.054136,-0.335135,-0.940613,-0.052030,-0.110177,0.016434,-22.386749,-6.830055,-41.690056,,,,,,,
1512178755.026526,0.057868,0.341497,-2.317866,0.067914,-0.003085,-0.081419,0.054496,-0.334898,-0.940677,-0.047309,-0.128114,-0.027539,-22.313065,-7.129951,-41.615837,,,,,,,
1512178755.046515,0.057083,0.345271,-2.318206,0.182611,0.016013,0.075957,0.053685,-0.338452,-0.939451,-0.032506,-0.139652,-0.035143,-22.314758,-7.504951,-41.616005,,,,,,,
1512178755.066534,0.057711,0.349666,-2.316095,0.187564,0.160033,0.169271,0.054188,-0.342584,-0.937923,-0.057805,-0.128425,-0.055805,-22.316223,-7.804955,-41.841148,,,,,,,
1512178755.086523,0.062145,0.353601,-2.313445,0.146423,0.362964,0.153393,0.058263,-0.346279,-0.936321,-0.069447,-0.104390,-0.089161,-21.565170,-7.578819,-41.772423,,,,,,,
1512178755.106512,0.069390,0.354479,-2.311546,-0.047035,0.414007,0.121986,0.065024,-0.347102,-0.935571,-0.028891,-0.091344,-0.172202,-21.338776,-7.278481,-41.699196,,,,,,,
1512178755.126501,0.074968,0.352407,-2.308827,-0.124821,0.289862,0.177992,0.070295,-0.345158,-0.935908,0.017412,-0.065929,-0.261357,-20.963547,-7.202919,-41.927345,,,,,,,
1512178755.146521,0.077092,0.352210,-2.305865,0.066176,0.090441,0.157678,0.072288,-0.344973,-0.935825,0.021630,-0.026503,-0.286129,-20.290009,-7.501915,-42.158211,,,,,,,
1512178755.166510,0.076684,0.358223,-2.304936,0.409973,-0.046626,0.054511,0.071745,-0.350611,-0.933769,0.001146,-0.043478,-0.235710,-20.440018,-7.502144,-42.156944,,,,,,,
1512178755.186499,0.076063,0.367028,-2.307375,0.447617,-0.055886,-0.095290,0.070928,-0.358843,-0.930699,0.006449,-0.022779,-0.151485,-19.989975,-7.501457,-42.085777,,,,,,,
1512178755.206519,0.078811,0.377371,-2.310684,0.547325,0.195211,-0.052461,0.073190,-0.368477,-0.926751,-0.009195,-0.117591,-0.073234,-20.218384,-8.251808,-42.159203,,,,,,,
1512178755.226508,0.084384,0.384503,-2.311975,0.205767,0.305593,0.043185,0.078130,-0.375098,-0.923687,0.015162,-0.121621,-0.094853,-19.770142,-8.626137,-42.313194,,,,,,,
1512178755.246497,0.089749,0.383438,-2.309870,-0.221953,0.322813,0.187362,0.083120,-0.374111,-0.923651,0.060984,-0.103184,-0.133996,-19.395554,-8.700569,-42.466423,,,,,,,
1512178755.266516,0.093016,0.376197,-2.303569,-0.443152,0.259143,0.345979,0.086386,-0.367386,-0.926048,0.114984,-0.031158,-0.181237,-19.094589,-8.475121,-42.543861,,,,,,,
1512178755.286505,0.092496,0.369684,-2.295432,-0.235129,0.075631,0.392058,0.086124,-0.361320,-0.928456,0.134258,0.083641,-0.200512,-18.867935,-8.099785,-42.620598,,,,,,,
1512178755.306494,0.089298,0.372570,-2.288383,0.327072,-0.091154,0.360179,0.083061,-0.364010,-0.927684,0.131447,0.135983,-0.154058,-18.714554,-7.349541,-42.621529,,,,,,,
1512178755.326483,0.082908,0.385961,-2.283115,0.811490,-0.260187,0.326100,0.076721,-0.376449,-0.923255,0.081909,0.143890,-0.028100,-18.940567,-7.574883,-42.619728,,,,,,,
1512178755.346503,0.076251,0.406273,-2.278492,1.052361,-0.187196,0.333042,0.069977,-0.395188,-0.915931,0.038697,0.109162,0.139808,-19.091583,-7.800117,-42.618553,,,,,,,
1512178755.366492,0.073531,0.426936,-2.273693,0.960107,0.097901,0.316704,0.066871,-0.414084,-0.907779,-0.001594,0.105017,0.244190,-19.169769,-8.550240,-42.243263,,,,,,,
1512178755.386481,0.077977,0.444015,-2.269572,0.753243,0.452322,0.273369,0.070345,-0.429568,-0.900290,-0.022905,0.083148,0.241233,-19.172653,-9.150246,-42.618538,,,,,,,
1512178755.406500,0.086056,0.455968,-2.264617,0.461326,0.510509,0.329038,0.077169,-0.440332,-0.894513,0.019633,0.062295,0.117581,-19.100693,-9.825127,-42.619484,,,,,,,
1512178755.426489,0.089556,0.462939,-2.256536,0.242095,0.264181,0.489182,0.080022,-0.446580,-0.891158,0.069331,0.071793,0.010574,-18.200317,-9.748772,-42.552101,,,,,,,
1512178755.446478,0.083346,0.467348,-2.244116,0.129931,-0.213841,0.673519,0.074322,-0.450520,-0.889667,0.077045,0.062001,-0.057644,-17.974564,-9.598442,-42.403954,,,,,,,
1512178755.466498,0.065164,0.469849,-2.227607,0.023591,-0.664024,0.829254,0.058062,-0.452752,-0.889744,0.058424,0.051384,-0.008205,-17.900360,-9.748329,-42.629646,,,,,,,
1512178755.486487,0.040933,0.469316,-2.207557,-0.143070,-0.740416,0.975819,0.036497,-0.452276,-0.891131,-0.006544,0.026663,0.088473,-19.469696,-8.550682,-42.090721,,,,,,,
1512178755.506476,0.017897,0.463644,-2.186127,-0.425057,-0.528362,1.019378,0.016007,-0.447210,-0.894286,-0.047974,0.040411,0.155455,-20.518982,-8.402260,-42.006721,,,,,,,
1512178755.526465,0.002040,0.451500,-2.164892,-0.735745,-0.194322,0.935020,0.001836,-0.436316,-0.899792,-0.061940,0.054419,0.151287,-20.813995,-7.277702,-42.153648,,,,,,,
1512178755.546484,-0.006416,0.433475,-2.147353,-0.985195,0.048143,0.753154,-0.005822,-0.420027,-0.907493,-0.046775,0.067945,0.144783,-20.810028,-6.377693,-42.303246,,,,,,,
1512178755.566473,-0.009303,0.411178,-2.134733,-1.175293,0.157268,0.520511,-0.008527,-0.399689,-0.916611,-0.016528,0.083222,0.168274,-20.803909,-5.027687,-42.227623,,,,,,,
1512178755.586462,-0.006870,0.386888,-2.131318,-1.218338,0.235205,-0.033126,-0.006362,-0.377308,-0.926066,0.028258,0.167439,0.210047,-20.421936,-3.452110,-42.455070,,,,,,,
1512178755.606482,-0.001427,0.364143,-2.139364,-1.071526,0.046160,-0.477273,-0.001334,-0.356149,-0.934428,0.013327,0.037271,0.185710,-20.271255,-3.301888,-42.456276,,,,,,,
1512178755.626471,-0.003552,0.346137,-2.151872,-0.786801,-0.549266,-0.576496,-0.003341,-0.339267,-0.940684,0.065582,-0.029508,0.159801,-20.716461,-2.252556,-42.301964,,,,,,,
1512178755.646460,-0.016106,0.334596,-2.165662,-0.464498,-0.968490,-0.618058,-0.015212,-0.328388,-0.944420,0.091903,-0.032849,0.175469,-21.541504,-2.253792,-42.369957,,,,,,,
1512178755.666479,-0.030783,0.328135,-2.175850,-0.277931,-0.739200,-0.284078,-0.029136,-0.322278,-0.946196,0.010658,-0.143923,0.252303,-21.841843,-2.404243,-41.692482,,,,,,,
1512178755.686468,-0.037502,0.323625,-2.176889,-0.202126,-0.097907,0.128620,-0.035546,-0.318005,-0.947422,-0.009284,-0.160998,0.286946,-22.440598,-2.105141,-41.912239,,,,,,,
1512178755.706458,-0.034194,0.320898,-2.173245,-0.075256,0.353961,0.214114,-0.032442,-0.315419,-0.948398,-0.006514,-0.092784,0.188754,-22.289322,-1.804909,-42.063377,,,,,,,
1512178755.726447,-0.028812,0.320832,-2.170177,0.054625,0.297662,0.158236,-0.027338,-0.315356,-0.948580,0.001337,-0.076551,0.027681,-21.837753,-1.429237,-42.292030,,,,,,,
1512178755.746466,-0.024613,0.323390,-2.168331,0.173090,0.242440,0.081934,-0.023335,-0.317782,-0.947876,0.055821,-0.086637,-0.020095,-21.389099,-1.728554,-42.295998,,,,,,,
1512178755.766455,-0.019372,0.327592,-2.167755,0.216332,0.292782,0.048624,-0.018341,-0.321764,-0.946642,0.022095,-0.119688,-0.053251,-21.539932,-1.878792,-42.594780,,,,,,,
1512178755.786444,-0.016378,0.329498,-2.167500,0.007807,0.098116,0.012942,-0.015496,-0.323568,-0.946078,-0.017753,-0.100123,-0.135251,-21.090042,-1.878120,-42.823601,,,,,,,
1512178755.806464,-0.013542,0.328853,-2.170685,-0.038776,0.117698,-0.198741,-0.012816,-0.322958,-0.946326,-0.025652,-0.114420,-0.128030,-21.164780,-1.803230,-42.972939,,,,,,,
1512178755.826453,-0.007483,0.328532,-2.177617,-0.006454,0.249416,-0.342801,-0.007082,-0.322654,-0.946491,-0.055250,-0.127633,-0.145077,-21.090530,-1.953117,-43.123634,,,,,,,
1512178755.846442,-0.002196,0.328982,-2.185631,0.043252,0.029419,-0.328986,-0.002079,-0.323080,-0.946369,-0.026577,-0.145304,-0.210201,-21.164551,-1.728218,-43.197899,,,,,,,
1512178755.866461,-0.003581,0.330843,-2.192182,0.127014,-0.283589,-0.252106,-0.003386,-0.324841,-0.945763,-0.020997,-0.133640,-0.172005,-21.691162,-2.104012,-43.043602,,,,,,,
1512178755.886450,-0.009654,0.335160,-2.197873,0.282433,-0.410484,-0.244966,-0.009117,-0.328920,-0.944314,-0.081337,-0.154189,-0.107795,-22.067886,-2.479576,-43.115593,,,,,,,
1512178755.906415,-0.016110,0.342665,-2.204636,0.394929,-0.434682,-0.344696,-0.015173,-0.335999,-0.941740,-0.133066,-0.149109,-0.110079,-22.368378,-2.630028,-42.738106,,,,,,,
1512178755.926435,-0.017028,0.349861,-2.217266,0.308884,-0.100767,-0.734959,-0.015996,-0.342767,-0.939284,-0.144664,-0.035590,-0.069703,-22.446045,-3.230141,-42.662758,,,,,,,
1512178755.946424,-0.008836,0.353816,-2.238667,0.081250,0.150585,-1.076390,-0.008289,-0.346480,-0.938021,-0.099743,0.011046,-0.135100,-22.302597,-4.654930,-42.964684,,,,,,,
1512178755.966413,0.002437,0.352352,-2.261255,-0.121927,0.140455,-0.974897,0.002287,-0.345106,-0.938561,-0.009581,0.026609,-0.139274,-22.301285,-4.354927,-43.039543,,,,,,,
1512178755.986402,0.011597,0.351129,-2.280682,0.016486,0.153216,-0.833189,0.010889,-0.343958,-0.938922,0.039098,0.078623,-0.110410,-22.301773,-4.429924,-43.339577,,,,,,,
1512178756.006421,0.020048,0.354785,-2.296789,0.310690,0.147938,-0.638121,0.018798,-0.347389,-0.937533,0.036988,0.073463,-0.091993,-22.078094,-4.729591,-43.266624,,,,,,,
1512178756.026410,0.025948,0.364327,-2.306102,0.577973,0.140063,-0.233441,0.024242,-0.356321,-0.934049,0.027775,0.045881,-0.039568,-22.156799,-5.554710,-43.266380,,,,,,,
1512178756.046399,0.028399,0.378265,-2.307398,0.765705,0.044668,0.079172,0.026388,-0.369308,-0.928932,-0.004766,0.085373,-0.018822,-21.635178,-6.303932,-43.271187,,,,,,,
1512178756.066419,0.027792,0.394755,-2.307870,0.852950,-0.015850,-0.043440,0.025651,-0.384582,-0.922734,-0.080323,0.140289,0.005986,-22.015610,-7.504509,-43.343559,,,,,,,
1512178756.086408,0.031539,0.410912,-2.313615,0.819863,0.160843,-0.290629,0.028909,-0.399446,-0.916301,-0.079736,0.183656,0.017421,-22.015884,-7.579506,-43.193581,,,,,,,
1512178756.106397,0.041035,0.425977,-2.320804,0.722927,0.390221,-0.218741,0.037358,-0.413211,-0.909869,-0.015721,0.067080,0.043124,-21.869171,-8.329277,-43.045204,,,,,,,
1512178756.126416,0.047988,0.436082,-2.324967,0.402949,0.167291,-0.090897,0.043480,-0.422392,-0.905370,0.018241,0.068708,0.047292,-21.271347,-8.778389,-43.350517,,,,,,,
1512178756.146405,0.047774,0.438875,-2.327678,0.015096,-0.115253,-0.115620,0.043230,-0.424921,-0.904197,-0.026155,0.119425,0.078117,-21.350067,-9.603508,-43.350258,,,,,,,
1512178756.166394,0.045261,0.434071,-2.331825,-0.368382,-0.217146,-0.203617,0.041049,-0.420568,-0.906332,-0.000613,0.187581,0.079275,-21.573044,-9.153831,-43.348137,,,,,,,
1512178756.186383,0.038764,0.424199,-2.336663,-0.528386,-0.542102,-0.213461,0.035320,-0.411591,-0.910684,0.027058,0.171372,0.052789,-21.871872,-8.929283,-43.045479,,,,,,,
1512178756.206403,0.026593,0.412035,-2.341016,-0.656181,-0.782736,-0.169247,0.024365,-0.400475,-0.915984,0.027164,0.149498,0.065932,-22.319778,-8.479958,-42.891457,,,,,,,
1512178756.226392,0.010645,0.397717,-2.344473,-0.727395,-0.873733,-0.121555,0.009814,-0.387314,-0.921895,0.049314,0.141053,0.132619,-22.916702,-7.805855,-42.811043,,,,,,,
1512178756.246381,-0.004788,0.383502,-2.346596,-0.692176,-0.710382,-0.051182,-0.004440,-0.374171,-0.927349,0.014496,0.088404,0.208111,-23.890579,-7.582314,-42.577660,,,,,,,
1512178756.266401,-0.013827,0.370991,-2.348215,-0.569434,-0.313913,-0.040561,-0.012886,-0.362539,-0.931879,0.000633,0.029821,0.239252,-24.562469,-6.908318,-42.421608,,,,,,,
1512178756.286390,-0.015544,0.362711,-2.350635,-0.304884,-0.003615,-0.100680,-0.014532,-0.354810,-0.934826,-0.000269,0.021176,0.217800,-24.788040,-7.058662,-42.194771,,,,,,,
1512178756.306379,-0.011151,0.360754,-2.353663,0.019561,0.285310,-0.108833,-0.010433,-0.352980,-0.935573,0.025829,0.016691,0.219264,-24.936768,-6.758888,-42.343346,,,,,,,
1512178756.326398,-0.000904,0.365175,-2.356152,0.342182,0.598714,-0.068952,-0.000844,-0.357113,-0.934061,0.042562,0.008754,0.266382,-24.486420,-6.683205,-42.347145,,,,,,,
1512178756.346387,0.014261,0.374474,-2.357578,0.493750,0.802843,-0.006348,0.013272,-0.365783,-0.930605,0.061404,0.038498,0.243258,-24.186310,-6.607750,-42.799644,,,,,,,
1512178756.366376,0.028640,0.384321,-2.358649,0.463929,0.669288,-0.014708,0.026547,-0.374930,-0.926673,0.048893,0.063467,0.252280,-23.442566,-7.956642,-43.181648,,,,,,,
1512178756.386365,0.042563,0.392139,-2.360362,0.354839,0.676689,-0.056770,0.039320,-0.382166,-0.923257,0.077364,0.031275,0.310586,-22.768356,-8.105629,-43.412453,,,,,,,
1512178756.406385,0.058493,0.397409,-2.364855,0.201000,0.791079,-0.225975,0.053904,-0.387030,-0.920490,0.065099,0.065482,0.377567,-22.471283,-8.705177,-43.865273,,,,,,,
1512178756.426374,0.079942,0.397467,-2.371595,-0.090227,1.077116,-0.329408,0.073632,-0.387084,-0.919100,0.119636,0.181640,0.423311,-21.645416,-8.478951,-44.172188,,,,,,,
1512178756.446363,0.109745,0.392450,-2.380641,-0.272160,1.413588,-0.464130,0.101199,-0.382453,-0.918416,0.181348,0.185706,0.386541,-19.395554,-8.400566,-45.166267,,,,,,,
1512178756.466382,0.142890,0.384601,-2.393523,-0.329178,1.413951,-0.690958,0.132002,-0.375189,-0.917501,0.238131,0.326270,0.342657,-18.195938,-8.398766,-45.926460,,,,,,,
1512178756.486371,0.179444,0.375434,-2.410483,-0.343463,1.711191,-0.844710,0.166051,-0.366677,-0.915410,0.268275,0.371407,0.459538,-16.322495,-8.695961,-46.392540,,,,,,,
1512178756.506360,0.232349,0.363716,-2.428206,-0.482855,2.790045,-0.936787,0.215200,-0.355750,-0.909467,0.316431,0.431449,0.684187,-13.320541,-8.166466,-47.242790,,,,,,,
1512178756.526380,0.311707,0.343999,-2.446939,-0.903428,4.180762,-1.223746,0.288717,-0.337254,-0.896048,0.322245,0.583256,0.703940,-9.794113,-7.711174,-48.472527,,,,,,,
1512178756.546369,0.417994,0.308366,-2.468567,-1.546934,5.333452,-1.772748,0.386781,-0.303502,-0.870797,0.416213,0.608770,0.474297,-4.238846,-6.427834,-49.494118,,,,,,,
1512178756.566358,0.528893,0.257215,-2.488395,-2.004852,5.072704,-2.073456,0.487978,-0.254388,-0.834964,0.587507,0.621301,0.010302,1.017654,-4.919945,-50.063042,,,,,,,
1512178756.586347,0.622036,0.200820,-2.500628,-2.031981,4.228554,-1.956321,0.570981,-0.199473,-0.796362,0.674915,0.702570,-0.161799,5.752762,-2.662849,-50.177162,,,,,,,
1512178756.606366,0.702744,0.147531,-2.507441,-1.839836,3.871879,-1.859899,0.639293,-0.146996,-0.754783,0.598348,0.665948,-0.111901,9.662750,-0.481987,-49.834312,,,,,,,
1512178756.626355,0.777859,0.095188,-2.510853,-1.885678,3.660321,-1.870897,0.698579,-0.095044,-0.709193,0.529296,0.652005,-0.047018,13.648483,1.848991,-49.342018,,,,,,,
1512178756.646344,0.846911,0.039973,-2.505966,-2.270205,3.339088,-1.776309,0.748639,-0.039962,-0.661772,0.507220,0.646590,-0.045687,17.110825,4.479195,-48.320122,,,,,,,
1512178756.666364,0.908657,-0.019555,-2.487703,-2.849272,2.953415,-1.652779,0.788528,0.019554,-0.614688,0.440903,0.648461,-0.057309,19.600159,7.557930,-47.364754,,,,,,,
1512178756.686353,0.965832,-0.083830,-2.456194,-3.375260,2.665235,-1.642218,0.819634,0.083732,-0.566736,0.338646,0.636208,-0.108984,22.165009,10.711769,-46.034981,,,,,,,
1512178756.706342,1.021252,-0.149089,-2.414893,-3.570485,2.478942,-1.578534,0.843303,0.148538,-0.516505,0.258046,0.584449,-0.214178,24.286957,15.364952,-44.025688,,,,,,,
1512178756.726361,1.078474,-0.211842,-2.368060,-3.585103,2.382705,-1.536435,0.861537,0.210262,-0.462107,0.185627,0.497166,-0.311117,26.029816,19.117577,-42.088631,,,,,,,
1512178756.746351,1.136024,-0.270764,-2.315035,-3.707378,2.125960,-1.438889,0.873922,0.267467,-0.405859,0.135615,0.450733,-0.393763,27.174240,23.169289,-39.696327,,,,,,,
1512178756.766340,1.192651,-0.327290,-2.253469,-3.924149,1.814767,-1.432453,0.880018,0.321478,-0.349600,0.082857,0.426203,-0.444620,28.242813,26.995872,-37.003502,,,,,,,
1512178756.786329,1.251992,-0.382849,-2.185462,-3.953804,1.768003,-1.575898,0.880863,0.373565,-0.290740,0.064648,0.391862,-0.484254,28.711182,30.746574,-34.005608,,,,,,,
1512178756.806348,1.315455,-0.436551,-2.118778,-3.551935,1.960056,-1.694138,0.876833,0.422816,-0.228888,0.103361,0.326345,-0.566034,28.577423,33.971382,-30.552849,,,,,,,
1512178756.826337,1.383356,-0.481017,-2.058510,-2.904894,2.053580,-1.492548,0.870997,0.462681,-0.165199,0.198019,0.193553,-0.710778,29.043137,37.122078,-27.480232,,,,,,,
1512178756.846326,1.446152,-0.516411,-2.007115,-2.321000,1.760454,-1.359314,0.862850,0.493762,-0.108110,0.222370,0.137936,-0.806120,29.053223,39.072090,-24.854347,,,,,,,
1512178756.866346,1.498144,-0.548309,-1.964187,-1.857330,1.343664,-1.439326,0.851156,0.521245,-0.061947,0.186411,0.019755,-0.808109,28.538422,41.021324,-21.999001,,,,,,,
1512178756.886335,1.540435,-0.579987,-1.927588,-1.539414,0.991828,-1.536158,0.836084,0.548013,-0.025393,0.173681,-0.131432,-0.775877,27.647156,42.744987,-20.040550,,,,,,,
1512178756.906291,1.573709,-0.611540,-1.895455,-1.293180,0.595936,-1.554224,0.818761,0.574129,0.002385,0.228434,-0.259401,-0.760335,26.529022,44.093300,-18.455376,,,,,,,
1512178756.926310,1.598858,-0.641013,-1.866347,-1.112939,0.277674,-1.445047,0.801175,0.598008,0.022488,0.295413,-0.356400,-0.708157,25.634644,45.216972,-17.322227,,,,,,,
1512178756.946299,1.618625,-0.667431,-1.840403,-0.936289,0.147349,-1.302218,0.784516,0.618970,0.037551,0.349349,-0.418302,-0.641586,24.440567,46.415169,-16.261467,,,,,,,
1512178756.966288,1.635593,-0.690114,-1.818000,-0.771157,0.102340,-1.104897,0.769555,0.636625,0.049935,0.417365,-0.447736,-0.616127,23.020355,47.388039,-15.423912,,,,,,,
1512178756.986277,1.648355,-0.708431,-1.798585,-0.618140,-0.046331,-0.887852,0.757101,0.650643,0.058837,0.470469,-0.485162,-0.620285,22.050537,48.511589,-15.190102,,,,,,,
1512178757.006297,1.655435,-0.723107,-1.783277,-0.452697,-0.215195,-0.714406,0.747069,0.661718,0.063383,0.494569,-0.524297,-0.619535,21.376465,48.660576,-14.659294,,,,,,,
1512178757.026286,1.655717,-0.734488,-1.772929,-0.282195,-0.422540,-0.527166,0.739499,0.670207,0.062950,0.521533,-0.563060,-0.610801,20.703308,49.034569,-14.353386,,,,,,,
1512178757.046275,1.647559,-0.741764,-1.767734,-0.087141,-0.673760,-0.278955,0.735107,0.675589,0.056540,0.547166,-0.603598,-0.588507,20.328537,49.109001,-14.575172,,,,,,,
1512178757.066294,1.631632,-0.743835,-1.769369,0.168311,-0.754031,0.000579,0.734516,0.677115,0.044740,0.574109,-0.584281,-0.516099,20.101730,48.808662,-15.473396,,,,,,,
1512178757.086283,1.610034,-0.742011,-1.779190,0.473817,-0.738923,0.157502,0.736543,0.675772,0.028915,0.588988,-0.516165,-0.461182,20.328827,49.334007,-16.000053,,,,,,,
1512178757.106272,1.585139,-0.738211,-1.797417,0.779680,-0.529252,0.237283,0.739597,0.672966,0.010608,0.620525,-0.468605,-0.380161,20.703278,49.334572,-17.128242,,,,,,,
1512178757.126292,1.561281,-0.732303,-1.823312,1.074625,-0.203198,0.339705,0.743602,0.668584,-0.007076,0.666142,-0.404928,-0.342854,20.924606,48.659904,-18.405464,,,,,,,
1512178757.146281,1.538059,-0.721470,-1.858025,1.462046,0.109769,0.652370,0.750433,0.660489,-0.024576,0.681879,-0.455044,-0.363562,21.445129,47.835686,-19.910301,,,,,,,
1512178757.166270,1.514956,-0.701014,-1.901808,1.831671,0.350792,1.134024,0.762997,0.644993,-0.042650,0.668079,-0.428486,-0.376173,22.488831,46.637245,-21.719765,,,,,,,
1512178757.186289,1.491909,-0.670086,-1.950558,2.062262,0.404761,1.569305,0.781331,0.621053,-0.061765,0.617855,-0.286184,-0.364947,24.430176,44.915154,-23.537132,,,,,,,
1512178757.206278,1.470083,-0.631270,-2.001339,2.269988,0.477183,1.841216,0.803188,0.590170,-0.081166,0.548481,-0.157263,-0.335200,26.293564,42.517952,-25.204170,,,,,,,
1512178757.226267,1.450151,-0.586792,-2.054182,2.472270,0.533681,2.053287,0.826669,0.553692,-0.100220,0.491141,-0.053936,-0.320236,28.306305,39.970970,-26.797539,,,,,,,
1512178757.246256,1.431416,-0.536753,-2.107600,2.613612,0.435196,2.269270,0.851040,0.511348,-0.119392,0.435826,0.043049,-0.304390,31.725525,33.451103,-29.679878,,,,,,,
1512178757.266276,1.412440,-0.481796,-2.160199,2.670341,0.253355,2.441097,0.875076,0.463372,-0.139744,0.351685,0.104591,-0.259883,31.725525,33.451103,-29.679878,,,,,,,
1512178757.286265,1.395621,-0.422235,-2.208883,2.588127,0.229206,2.706336,0.898215,0.409801,-0.158974,0.369164,0.129323,-0.122657,33.360031,30.153557,-30.970406,,,,,,,
1512178757.306254,1.382159,-0.357397,-2.251824,2.422045,0.104694,2.880462,0.920192,0.349837,-0.175671,0.266301,0.233445,-0.126911,34.541321,26.105324,-31.957481,,,,,,,
1512178757.326274,1.371990,-0.291027,-2.287980,2.194746,0.013404,2.954674,0.939081,0.286937,-0.189195,0.270316,0.351888,-0.067885,35.500244,22.581779,-32.417397,,,,,,,
1512178757.346263,1.363423,-0.224449,-2.318306,2.004422,-0.091630,2.983531,0.954029,0.222569,-0.200726,0.247936,0.490169,-0.051731,36.609085,19.058434,-33.028572,,,,,,,
1512178757.366252,1.355312,-0.158299,-2.344833,1.886514,-0.196434,2.952675,0.964659,0.157639,-0.211147,0.196199,0.616989,-0.018009,37.494690,15.909767,-33.487679,,,,,,,
1512178757.386271,1.347755,-0.094149,-2.368683,1.764917,-0.255115,2.824915,0.970910,0.094010,-0.220217,0.114783,0.686355,0.012285,37.703781,12.385078,-33.566231,,,,,,,
1512178757.406260,1.340687,-0.033750,-2.390233,1.641044,-0.304077,2.641722,0.973087,0.033743,-0.227954,0.031613,0.701608,0.042056,37.687317,8.785057,-34.092888,,,,,,,
1512178757.426249,1.333784,0.022651,-2.409666,1.513937,-0.356259,2.459532,0.971794,-0.022649,-0.234740,-0.048775,0.705404,0.067931,37.602829,6.684929,-34.168205,,,,,,,
1512178757.446238,1.327728,0.074773,-2.427297,1.402249,-0.322906,2.252281,0.967892,-0.074704,-0.240009,-0.121319,0.698758,0.102100,37.816666,4.210243,-34.246269,,,,,,,
1512178757.466258,1.324391,0.122639,-2.444917,1.340594,-0.197624,2.054606,0.962512,-0.122332,-0.242087,-0.162463,0.691897,0.119437,36.970459,-0.516014,-34.091438,,,,,,,
1512178757.486247,1.324825,0.166701,-2.462400,1.352367,-0.025258,1.865615,0.956456,-0.165930,-0.240123,-0.190892,0.722510,0.125682,36.812317,-2.316261,-34.165993,,,,,,,
1512178757.506236,1.330577,0.208037,-2.481683,1.406762,0.195112,1.745639,0.950343,-0.206539,-0.232785,-0.205150,0.737164,0.144284,36.728317,-4.341393,-33.941292,,,,,,,
1512178757.526255,1.341777,0.247217,-2.502855,1.431379,0.409037,1.620946,0.944281,-0.244706,-0.220121,-0.225775,0.772065,0.155545,36.643463,-6.591515,-33.416695,,,,,,,
1512178757.546244,1.358212,0.283118,-2.525508,1.417247,0.606961,1.452991,0.938574,-0.279351,-0.202587,-0.251959,0.809304,0.166256,36.787262,-8.016304,-32.968636,,,,,,,
1512178757.566233,1.378787,0.314365,-2.548352,1.299540,0.739684,1.227876,0.933516,-0.309213,-0.181479,-0.285231,0.830041,0.165229,37.005905,-9.515968,-32.221245,,,,,,,
1512178757.586253,1.399779,0.339610,-2.569206,1.075773,0.684323,0.960058,0.929130,-0.333120,-0.160465,-0.320792,0.834401,0.144047,36.697647,-11.466438,-31.169594,,,,,,,
1512178757.606242,1.415980,0.356326,-2.586649,0.823909,0.400687,0.510878,0.925976,-0.348833,-0.144512,-0.365048,0.844194,0.135372,36.618515,-12.441551,-30.644402,,,,,,,
1512178757.626231,1.425520,0.360884,-2.602128,0.680649,0.142142,-0.124274,0.925730,-0.353101,-0.135440,-0.387628,0.835111,0.184848,36.694275,-12.291435,-30.494972,,,,,,,
1512178757.646220,1.434702,0.352810,-2.618016,0.631703,0.266059,-0.705554,0.929728,-0.345536,-0.127318,-0.343058,0.795609,0.269515,36.692703,-12.666435,-30.270149,,,,,,,
1512178757.666239,1.448739,0.335135,-2.632424,0.422979,0.602984,-1.090119,0.937339,-0.328897,-0.114981,-0.257286,0.795923,0.333685,37.447510,-11.690315,-29.451088,,,,,,,
1512178757.686228,1.465741,0.310079,-2.637615,-0.192549,0.839750,-1.376454,0.947059,-0.305133,-0.099861,-0.181938,0.837345,0.331948,38.125397,-11.089287,-29.081535,,,,,,,
1512178757.706217,1.477284,0.276318,-2.625542,-1.148296,0.672488,-1.803450,0.957863,-0.272815,-0.089834,-0.147591,0.878711,0.251867,39.108459,-9.362816,-28.489037,,,,,,,
1512178757.726237,1.479272,0.229955,-2.594398,-2.078086,0.392359,-2.386100,0.969601,-0.227933,-0.088991,-0.091962,0.874662,0.148637,39.566147,-7.637123,-28.642067,,,,,,,
1512178757.746226,1.474786,0.170900,-2.549254,-2.740899,0.146736,-2.931719,0.980894,-0.170069,-0.094466,-0.019193,0.814234,0.045119,40.109100,-3.661308,-28.494698,,,,,,,
1512178757.766215,1.467749,0.101670,-2.496354,-3.092087,-0.054962,-3.302102,0.989559,-0.101495,-0.102334,0.091557,0.744287,-0.039374,40.573441,-0.435616,-28.872017,,,,,,,
1512178757.786234,1.461896,0.027003,-2.442747,-3.033683,-0.132488,-3.485954,0.993714,-0.027000,-0.108645,0.212173,0.686210,-0.110959,40.068420,3.988625,-28.715523,,,,,,,
1512178757.806224,1.460249,-0.049860,-2.395632,-2.630066,-0.079331,-3.587594,0.992661,0.049839,-0.110186,0.313385,0.627834,-0.140684,39.711502,7.963097,-28.335503,,,,,,,
1512178757.826213,1.464100,-0.125614,-2.359193,-2.016747,0.129799,-3.533206,0.986479,0.125284,-0.105655,0.362947,0.504553,-0.126081,39.054276,11.862099,-27.877953,,,,,,,
1512178757.846202,1.475593,-0.197427,-2.334810,-1.355739,0.539645,-3.386812,0.976134,0.196147,-0.093213,0.343950,0.352528,-0.097949,38.389999,14.186104,-27.346153,,,,,,,
1512178757.866221,1.494863,-0.264394,-2.321281,-0.776483,0.936453,-3.197945,0.962470,0.261325,-0.073225,0.296213,0.165479,-0.098864,37.880264,17.485344,-26.515175,,,,,,,
1512178757.886210,1.518317,-0.326118,-2.314974,-0.442118,1.120252,-2.971785,0.945989,0.320368,-0.049691,0.246562,0.005086,-0.112876,37.216644,19.884346,-25.308327,,,,,,,
1512178757.906198,1.542602,-0.382987,-2.308871,-0.485376,1.037486,-2.744563,0.927184,0.373693,-0.026149,0.212358,-0.114690,-0.125661,36.625702,21.833458,-24.777336,,,,,,,
1512178757.926218,1.565119,-0.435153,-2.295779,-0.831790,0.697860,-2.506639,0.906791,0.421549,-0.005149,0.213921,-0.197916,-0.157983,35.958633,23.482460,-23.720833,,,,,,,
1512178757.946207,1.583745,-0.482703,-2.271541,-1.286232,0.163768,-2.319992,0.885669,0.464175,0.011469,0.235318,-0.208239,-0.208887,34.919815,25.880898,-22.960808,,,,,,,
1512178757.966196,1.598238,-0.526721,-2.236739,-1.626735,-0.292062,-2.185787,0.864135,0.502701,0.023719,0.241670,-0.225998,-0.234016,33.278625,27.753426,-22.195915,,,,,,,
1512178757.986215,1.610540,-0.567540,-2.195572,-1.760528,-0.573500,-2.038393,0.842560,0.537559,0.033504,0.245926,-0.265465,-0.258693,32.088516,29.851646,-21.284767,,,,,,,
1512178758.006204,1.621585,-0.604693,-2.152757,-1.697167,-0.689083,-1.877967,0.821616,0.568509,0.041765,0.240380,-0.334745,-0.270341,30.745911,31.424629,-20.672554,,,,,,,
1512178758.026193,1.631338,-0.637957,-2.112365,-1.506413,-0.720157,-1.681289,0.801842,0.595556,0.048604,0.253608,-0.394246,-0.278066,29.102692,32.847160,-19.907875,,,,,,,
1512178758.046182,1.640051,-0.667658,-2.076047,-1.306426,-0.664620,-1.523622,0.783391,0.619149,0.054341,0.277720,-0.412789,-0.255207,27.534439,34.269814,-19.218849,,,,,,,
1512178758.066202,1.649482,-0.694716,-2.043030,-1.164430,-0.556755,-1.401790,0.765859,0.640167,0.060387,0.344447,-0.391876,-0.229484,26.414001,35.243126,-18.833824,,,,,,,
1512178758.086191,1.659882,-0.720141,-2.012504,-1.026492,-0.458351,-1.356804,0.748732,0.659491,0.066878,0.435533,-0.335989,-0.229583,25.294449,36.366447,-18.073753,,,,,,,
1512178758.106180,1.670810,-0.745306,-1.986018,-0.805932,-0.310636,-1.343503,0.731208,0.678197,0.073375,0.509087,-0.352223,-0.233730,23.724731,37.489098,-17.609840,,,,,,,
1512178758.126199,1.681725,-0.770195,-1.965216,-0.560394,-0.130908,-1.291348,0.713363,0.696275,0.079459,0.589081,-0.408326,-0.237418,23.126816,37.938210,-17.454536,,,,,,,
1512178758.146188,1.691885,-0.793054,-1.950342,-0.346429,-0.003773,-1.137494,0.696535,0.712499,0.084757,0.661894,-0.469625,-0.252131,21.778473,38.236183,-16.842934,,,,,,,
1512178758.166177,1.700151,-0.812640,-1.941122,-0.156732,0.084782,-0.935083,0.681839,0.726105,0.088694,0.733414,-0.540497,-0.270594,20.956619,38.909950,-16.610603,,,,,,,
1512178758.186197,1.706115,-0.827669,-1.937684,0.017608,0.165657,-0.642306,0.670409,0.736356,0.091276,0.829011,-0.532407,-0.263289,19.831680,38.908257,-16.451042,,,,,,,
1512178758.206186,1.706594,-0.835335,-1.941149,0.216981,0.076421,-0.195180,0.664752,0.741521,0.090831,0.900784,-0.496267,-0.267574,19.384460,39.507591,-16.296944,,,,,,,
1512178758.226175,1.698653,-0.834547,-1.952301,0.406699,-0.077990,0.252646,0.666032,0.740992,0.085624,0.951217,-0.436915,-0.251731,19.608643,39.357918,-16.598930,,,,,,,
1512178758.246164,1.681787,-0.825449,-1.970810,0.618061,-0.262244,0.678289,0.674054,0.734852,0.075123,0.941989,-0.363499,-0.213627,19.830902,38.758263,-16.676109,,,,,,,
1512178758.266183,1.656886,-0.807977,-1.996673,0.854647,-0.358917,1.130189,0.688403,0.722891,0.059412,0.814984,-0.428595,-0.160348,20.127869,38.158699,-17.353935,,,,,,,
1512178758.286172,1.628244,-0.780691,-2.029033,1.090760,-0.253774,1.621164,0.709256,0.703770,0.040790,0.638507,-0.514897,-0.098560,20.497513,37.034264,-17.957634,,,,,,,
1512178758.306161,1.601711,-0.744179,-2.065281,1.250730,-0.002216,2.017734,0.735293,0.677368,0.022739,0.487150,-0.456955,-0.048343,21.845078,36.586281,-18.794319,,,,,,,
1512178758.326181,1.581800,-0.701148,-2.101934,1.315379,0.299730,2.249992,0.764056,0.645095,0.008407,0.373441,-0.325668,-0.031082,23.411224,34.713631,-19.633568,,,,,,,
1512178758.346170,1.569388,-0.654898,-2.137128,1.330985,0.538830,2.349125,0.793109,0.609078,-0.001117,0.300442,-0.181985,-0.053021,25.280197,33.441429,-20.250084,,,,,,,
1512178758.366159,1.562600,-0.607399,-2.171220,1.371191,0.695869,2.375842,0.821108,0.570734,-0.006731,0.259276,-0.064935,-0.097685,26.322876,31.867989,-20.709740,,,,,,,
1512178758.386179,1.559117,-0.559408,-2.205376,1.443488,0.754698,2.389884,0.847512,0.530684,-0.009899,0.240211,0.028215,-0.146199,28.338547,29.846016,-21.177895,,,,,,,
1512178758.406168,1.556383,-0.510720,-2.240275,1.530151,0.702407,2.433603,0.872302,0.488805,-0.012573,0.217755,0.088709,-0.168793,29.528610,27.672798,-21.489082,,,,,,,
1512178758.426157,1.552926,-0.461070,-2.275803,1.599769,0.600956,2.473703,0.895434,0.444907,-0.016004,0.177610,0.135767,-0.169528,31.549225,26.700829,-21.506752,,,,,,,
1512178758.446176,1.549991,-0.410445,-2.311183,1.611921,0.582737,2.511126,0.916745,0.399018,-0.019076,0.144825,0.189621,-0.133985,34.603729,22.205437,-22.059959,,,,,,,
1512178758.466165,1.549549,-0.359194,-2.345225,1.515393,0.584652,2.545977,0.935969,0.351520,-0.019890,0.126943,0.265118,-0.110207,35.568787,20.031883,-22.369255,,,,,,,
1512178758.486154,1.551080,-0.307328,-2.374577,1.331454,0.518083,2.578263,0.952960,0.302513,-0.018791,0.101285,0.339485,-0.103859,36.908432,17.708885,-22.156792,,,,,,,
1512178758.506143,1.553492,-0.255157,-2.399309,1.122199,0.407714,2.591905,0.967479,0.252397,-0.016743,0.067739,0.405928,-0.105220,37.650681,15.985008,-22.163963,,,,,,,
1512178758.526163,1.555160,-0.202689,-2.420085,0.965041,0.249342,2.611465,0.979409,0.201304,-0.015316,0.015952,0.454824,-0.114582,38.616653,13.961449,-22.023186,,,,,,,
1512178758.546152,1.555450,-0.150457,-2.438189,0.861980,0.126392,2.583956,0.988586,0.149890,-0.015173,-0.057892,0.492261,-0.109919,38.980179,11.411995,-22.027550,,,,,,,
1512178758.566141,1.554844,-0.099758,-2.454273,0.769826,0.030322,2.478880,0.994902,0.099592,-0.015872,-0.134276,0.528566,-0.101590,39.423004,9.837654,-22.182106,,,,,,,
1512178758.586160,1.553217,-0.052002,-2.468404,0.675644,-0.066682,2.302343,0.998494,0.051979,-0.017555,-0.205983,0.569756,-0.092461,39.788483,7.738213,-22.336266,,,,,,,
1512178758.606149,1.550824,-0.008551,-2.480728,0.599497,-0.114403,2.069742,0.999764,0.008551,-0.019970,-0.266228,0.591867,-0.073963,40.004898,5.863533,-22.639046,,,,,,,
1512178758.626138,1.549007,0.029686,-2.491874,0.548599,-0.073353,1.796234,0.999322,-0.029682,-0.021778,-0.305017,0.624912,-0.057202,39.923630,4.438408,-22.339058,,,,,,,
1512178758.646158,1.548869,0.062074,-2.502272,0.513269,-0.001224,1.485751,0.997834,-0.062034,-0.021883,-0.328538,0.665764,-0.048231,40.367859,3.164070,-22.418480,,,,,,,
1512178758.666147,1.550501,0.087523,-2.512572,0.514964,0.074257,1.127841,0.995967,-0.087412,-0.020216,-0.337154,0.698206,-0.049807,40.439484,2.414177,-22.419456,,,,,,,
1512178758.686136,1.553752,0.105974,-2.523503,0.538783,0.132659,0.786188,0.994246,-0.105775,-0.016948,-0.335936,0.709489,-0.052114,40.209641,1.288841,-21.968071,,,,,,,
1512178758.706125,1.557871,0.118319,-2.534420,0.503807,0.141680,0.514931,0.992926,-0.118044,-0.012834,-0.312582,0.710024,-0.046156,40.283630,1.063942,-21.968803,,,,,,,
1512178758.726144,1.560887,0.125408,-2.543617,0.378168,0.065113,0.243131,0.992098,-0.125080,-0.009831,-0.313921,0.716785,-0.034343,40.129135,0.088722,-22.192986,,,,,,,
1512178758.746133,1.561884,0.126109,-2.550108,0.252765,-0.009161,-0.107546,0.992019,-0.125775,-0.008841,-0.314514,0.706662,-0.007104,40.279648,0.163948,-21.819221,,,,,,,
1512178758.766122,1.562345,0.118800,-2.555000,0.195791,0.024702,-0.529345,0.992916,-0.118521,-0.008391,-0.271434,0.731314,0.031417,40.733704,1.064629,-21.822639,,,,,,,
1512178758.786142,1.565017,0.103172,-2.558933,0.132088,0.178141,-0.925241,0.994665,-0.102989,-0.005748,-0.184897,0.783821,0.069972,40.809799,1.289742,-21.673164,,,,,,,
1512178758.806131,1.570658,0.079382,-2.559465,-0.118034,0.310888,-1.266344,0.996850,-0.079299,-0.000138,-0.125909,0.827941,0.093919,40.887985,1.964851,-21.373497,,,,,,,
1512178758.826120,1.575349,0.046683,-2.552032,-0.579777,0.157125,-1.653086,0.998900,-0.046666,0.004547,-0.142897,0.797811,0.062210,40.819519,3.389748,-21.147209,,,,,,,
1512178758.846139,1.574455,0.006136,-2.535669,-0.954704,-0.150261,-2.076420,0.999974,-0.006136,0.003659,-0.188222,0.629213,0.030063,40.824844,4.589760,-21.296654,,,,,,,
1512178758.866129,1.570764,-0.040949,-2.516044,-1.005189,-0.219042,-2.444113,0.999162,0.040938,-0.000032,-0.179154,0.436479,0.026125,40.537399,7.364326,-21.142815,,,,,,,
1512178758.886118,1.567869,-0.092825,-2.497487,-0.935570,-0.208901,-2.657347,0.995691,0.092692,-0.002914,-0.098718,0.345922,0.050384,39.796585,9.388222,-20.985512,,,,,,,
1512178758.906076,1.565641,-0.146354,-2.479319,-0.965381,-0.231366,-2.659986,0.989296,0.145832,-0.005100,0.021827,0.330105,0.093159,39.281738,11.637444,-20.905006,,,,,,,
1512178758.926095,1.564516,-0.198919,-2.459167,-1.084706,-0.237015,-2.600973,0.980261,0.197610,-0.006157,0.119287,0.338629,0.111290,38.542313,13.961342,-20.672554,,,,,,,
1512178758.946084,1.565385,-0.250867,-2.436400,-1.192563,-0.195545,-2.587466,0.968683,0.248244,-0.005242,0.187414,0.339830,0.093087,37.726883,16.060112,-20.439583,,,,,,,
1512178758.966073,1.568793,-0.302363,-2.411615,-1.254886,-0.177538,-2.556322,0.954634,0.297777,-0.001912,0.218904,0.286543,0.033757,36.687500,18.383553,-20.129585,,,,,,,
1512178758.986093,1.572656,-0.352705,-2.384780,-1.325458,-0.308108,-2.485308,0.938440,0.345437,0.001745,0.201437,0.173178,-0.044546,35.720520,20.107109,-19.595497,,,,,,,
1512178759.006082,1.574838,-0.400746,-2.356549,-1.326771,-0.484630,-2.349485,0.920763,0.390105,0.003721,0.159346,0.028748,-0.087080,34.456467,22.505211,-19.283562,,,,,,,
1512178759.026071,1.575042,-0.445188,-2.329421,-1.207538,-0.596999,-2.150927,0.902521,0.430628,0.003832,0.109243,-0.115229,-0.107897,33.338287,24.003532,-19.123314,,,,,,,
1512178759.046090,1.573703,-0.485231,-2.305306,-1.034487,-0.619635,-1.915033,0.884563,0.466413,0.002571,0.072117,-0.215299,-0.088616,31.995819,25.651512,-18.886070,,,,,,,
1512178759.066079,1.572825,-0.520626,-2.284218,-0.904844,-0.526951,-1.692161,0.867506,0.497423,0.001760,0.047945,-0.256685,-0.053395,30.503052,27.224266,-18.572594,,,,,,,
1512178759.086068,1.574456,-0.552451,-2.265129,-0.809021,-0.352969,-1.546247,0.851235,0.524775,0.003115,0.037223,-0.261912,-0.028109,29.457855,28.272697,-18.413185,,,,,,,
1512178759.106057,1.579518,-0.582208,-2.248311,-0.671584,-0.136071,-1.465677,0.835219,0.549869,0.007285,0.040621,-0.274815,-0.036109,28.862717,29.321800,-18.107597,,,,,,,
1512178759.126077,1.586778,-0.610732,-2.235618,-0.448529,0.053222,-1.407420,0.819124,0.573467,0.013092,0.079680,-0.295162,-0.062012,28.041702,30.145576,-17.575218,,,,,,,
1512178759.146066,1.593520,-0.637191,-2.227857,-0.260938,0.086360,-1.274528,0.803563,0.594940,0.018263,0.129085,-0.327514,-0.095412,26.994461,30.743996,-17.416008,,,,,,,
1512178759.166055,1.597840,-0.660785,-2.221230,-0.292050,-0.074181,-1.141214,0.789222,0.613736,0.021349,0.163857,-0.328489,-0.096925,26.248962,31.717888,-17.184196,,,,,,,
1512178759.186074,1.600623,-0.682769,-2.210635,-0.488983,-0.291397,-1.104312,0.775483,0.630944,0.023137,0.195495,-0.294244,-0.075704,25.351822,32.316536,-16.876259,,,,,,,
1512178759.206063,1.603775,-0.704517,-2.194484,-0.678791,-0.425204,-1.107526,0.761510,0.647666,0.025123,0.256144,-0.281470,-0.054984,24.828537,32.690758,-16.796623,,,,,,,
1512178759.226052,1.608048,-0.725879,-2.174273,-0.784700,-0.495908,-1.089054,0.747397,0.663793,0.027855,0.325128,-0.265325,-0.060691,23.632065,33.438957,-16.486076,,,,,,,
1512178759.246072,1.613029,-0.746812,-2.151960,-0.814842,-0.531233,-1.072554,0.733204,0.679303,0.030984,0.409054,-0.243680,-0.067056,22.886002,34.262840,-16.029335,,,,,,,
1512178759.266061,1.618626,-0.766988,-2.129830,-0.751622,-0.475682,-1.024537,0.719180,0.693970,0.034424,0.477612,-0.243180,-0.065949,21.764191,34.936165,-15.719460,,,,,,,
1512178759.286050,1.624380,-0.785471,-2.110617,-0.598827,-0.365648,-0.911071,0.706040,0.707158,0.037868,0.536254,-0.290960,-0.078960,20.794250,35.984703,-15.035698,,,,,,,
1512178759.306039,1.628766,-0.800794,-2.096457,-0.400523,-0.286691,-0.714969,0.694968,0.717909,0.040332,0.582727,-0.348738,-0.098956,20.420670,36.284142,-14.882362,,,,,,,
1512178759.326058,1.629740,-0.811861,-2.088249,-0.197516,-0.249449,-0.481627,0.686954,0.725569,0.040538,0.611950,-0.400023,-0.113491,19.597122,36.582909,-14.650215,,,,,,,
1512178759.346047,1.628129,-0.818291,-2.086319,0.010586,-0.132124,-0.230878,0.682347,0.729979,0.039164,0.673427,-0.393690,-0.100733,19.147842,36.732231,-14.571312,,,,,,,
1512178759.366036,1.624204,-0.819741,-2.090646,0.192868,-0.023415,0.033324,0.681438,0.730969,0.036429,0.766758,-0.314099,-0.088629,18.923141,36.806892,-14.644371,,,,,,,
1512178759.386056,1.618342,-0.816114,-2.099524,0.315416,0.009367,0.296397,0.684283,0.728489,0.032559,0.851453,-0.185398,-0.075879,18.698105,36.806557,-14.717461,,,,,,,
1512178759.406045,1.608964,-0.806346,-2.112181,0.447035,-0.060564,0.650927,0.691636,0.721763,0.026411,0.830306,-0.187706,-0.076292,18.919800,36.131889,-15.244682,,,,,,,
1512178759.426034,1.595584,-0.787872,-2.129250,0.598018,-0.085839,1.126357,0.705138,0.708854,0.017482,0.709184,-0.320320,-0.068797,19.971008,36.433464,-15.553459,,,,,,,
1512178759.446054,1.581267,-0.759531,-2.149187,0.658489,-0.038614,1.598594,0.725119,0.688581,0.007593,0.565835,-0.340910,-0.055322,21.166840,35.535255,-15.789085,,,,,,,
1512178759.466043,1.569721,-0.723446,-2.167708,0.648058,0.066503,1.913297,0.749529,0.661971,-0.000806,0.469206,-0.254089,-0.045046,22.437195,34.562172,-16.325356,,,,,,,
1512178759.486032,1.561197,-0.681965,-2.185251,0.670575,0.151487,2.167639,0.776300,0.630320,-0.007452,0.387152,-0.171412,-0.060160,23.857025,33.439293,-16.562996,,,,,,,
1512178759.506051,1.554198,-0.635226,-2.202458,0.692064,0.143558,2.416317,0.804826,0.593360,-0.013360,0.308791,-0.089240,-0.096626,25.578049,32.616875,-17.103035,,,,,,,
1512178759.526040,1.546668,-0.584220,-2.218561,0.684654,0.017137,2.601265,0.833900,0.551549,-0.020125,0.218987,0.008494,-0.121904,27.296494,31.194450,-17.418358,,,,,,,
1512178759.546029,1.537536,-0.530854,-2.233699,0.710192,-0.114337,2.661941,0.861898,0.506270,-0.028678,0.117975,0.083025,-0.121530,28.566544,30.146355,-17.879662,,,,,,,
1512178759.566018,1.527441,-0.477412,-2.249221,0.792764,-0.144059,2.631053,0.887352,0.459482,-0.038495,0.032661,0.135107,-0.103152,29.984421,28.648491,-18.642464,,,,,,,
1512178759.586038,1.517992,-0.424657,-2.265741,0.873621,-0.109648,2.577975,0.909910,0.412009,-0.048092,-0.018339,0.201090,-0.083027,31.401733,27.000618,-19.180351,,,,,,,
1512178759.606027,1.509755,-0.372955,-2.282432,0.900227,-0.093465,2.516584,0.929520,0.364369,-0.056810,-0.057069,0.265529,-0.068739,32.593491,25.202400,-19.491371,,,,,,,
1512178759.626016,1.502575,-0.322566,-2.298341,0.872808,-0.098681,2.434084,0.946219,0.317001,-0.064653,-0.090216,0.331406,-0.053588,33.486862,23.778755,-19.949669,,,,,,,
1512178759.646035,1.495955,-0.273976,-2.312462,0.789072,-0.156305,2.336722,0.960008,0.270561,-0.071983,-0.136598,0.377556,-0.034829,34.828537,21.980766,-20.411980,,,,,,,
