timestamp(unix),attitude_roll(radians),attitude_pitch(radians),attitude_yaw(radians),rotation_rate_x(radians/s),rotation_rate_y(radians/s),rotation_rate_z(radians/s),gravity_x(G),gravity_y(G),gravity_z(G),user_acc_x(G),user_acc_y(G),user_acc_z(G),magnetic_field_x(microteslas),magnetic_field_y(microteslas),magnetic_field_z(microteslas),latitude(degree),longitude(degree),altitude(meter),speed(m/s),course(degree),timestamp(unix),User Mark
1512178125.618200,-0.084546,0.380482,0.332847,0.104293,0.077123,-0.072578,-0.078406,-0.371368,-0.925169,0.001502,0.000458,-0.014772,30.573841,12.210251,-23.421967,,,,,,,
1512178125.638189,-0.084363,0.384576,0.332319,0.248263,-0.047741,-0.016555,-0.078109,-0.375167,-0.923661,0.037978,-0.000993,-0.045913,30.195469,11.459686,-23.419113,,,,,,,
1512178125.658209,-0.086899,0.389949,0.333140,0.272150,-0.123619,0.017639,-0.080275,-0.380141,-0.921438,-0.007357,0.008696,-0.002359,29.968281,11.009354,-23.717407,,,,,,,
1512178125.678198,-0.089391,0.394926,0.333290,0.224204,-0.094721,-0.046917,-0.082401,-0.384740,-0.919339,-0.013318,0.017308,0.045591,29.968662,11.084351,-23.642380,,,,,,,
1512178125.698187,-0.089237,0.398431,0.331873,0.139779,0.014200,-0.093601,-0.082138,-0.387972,-0.918003,-0.018692,0.000765,0.044148,29.965473,10.409348,-23.942688,,,,,,,
1512178125.718206,-0.087681,0.400426,0.329883,0.069548,0.049361,-0.098757,-0.080641,-0.389811,-0.917357,-0.010896,0.001887,0.041457,29.813419,9.959122,-24.016617,,,,,,,
1512178125.738195,-0.085411,0.401192,0.327961,0.024618,0.080243,-0.088643,-0.078533,-0.390516,-0.917240,0.008495,-0.008562,0.022663,29.735004,9.209000,-24.091324,,,,,,,
1512178125.758215,-0.083617,0.402311,0.326677,0.076082,0.064204,-0.043182,-0.076851,-0.391546,-0.916943,0.009118,-0.004343,0.015347,30.040394,10.334457,-23.418365,,,,,,,
1512178125.778204,-0.082671,0.404783,0.326697,0.149962,0.050345,0.001550,-0.075903,-0.393819,-0.916049,0.001349,0.012807,0.014132,30.190327,10.334686,-23.569626,,,,,,,
1512178125.798193,-0.081380,0.408456,0.326913,0.194002,0.075021,-0.016913,-0.074603,-0.397193,-0.914698,-0.000943,0.030341,0.012537,30.413609,9.960022,-23.646729,,,,,,,
1512178125.818212,-0.079419,0.412223,0.326063,0.176857,0.083656,-0.075764,-0.072690,-0.400647,-0.913344,-0.002201,0.027234,0.000472,30.340366,10.334900,-23.495911,,,,,,,
1512178125.838201,-0.076950,0.415947,0.324154,0.183895,0.089087,-0.114020,-0.070319,-0.404057,-0.912027,-0.013452,0.016178,0.022363,30.714359,10.110458,-23.499207,,,,,,,
1512178125.858221,-0.072884,0.419293,0.322318,0.133188,0.224580,-0.071644,-0.066512,-0.407115,-0.910952,-0.028474,-0.021184,0.070742,30.563938,9.960236,-22.972992,,,,,,,
1512178125.878210,-0.066339,0.420160,0.321816,-0.021274,0.363083,-0.007305,-0.060525,-0.407906,-0.911015,-0.023795,-0.020347,0.058797,31.165180,10.261139,-23.202957,,,,,,,
1512178125.898229,-0.058530,0.417719,0.321172,-0.165686,0.357588,-0.042465,-0.053467,-0.405676,-0.912452,0.001785,0.003439,0.014029,31.462925,9.736588,-22.980743,,,,,,,
1512178125.918218,-0.053917,0.413520,0.317682,-0.250721,0.064147,-0.265390,-0.049348,-0.401835,-0.914381,-0.011855,0.023265,0.015593,31.465595,10.336594,-23.055481,,,,,,,
1512178125.938207,-0.049783,0.407106,0.308442,-0.408618,0.003389,-0.455518,-0.045696,-0.395954,-0.917133,0.029506,0.005283,-0.007260,31.540409,10.336700,-23.431107,,,,,,,
1512178125.958227,-0.046937,0.397850,0.298590,-0.532002,-0.063114,-0.410629,-0.043255,-0.387437,-0.920881,-0.006305,-0.021148,0.026868,31.772785,11.912048,-22.832306,,,,,,,
1512178125.978216,-0.043793,0.385572,0.289644,-0.716973,0.057229,-0.372382,-0.040565,-0.376089,-0.925695,-0.026146,-0.030176,0.069158,31.778049,13.112061,-23.131744,,,,,,,
1512178125.998236,-0.037702,0.369203,0.281847,-0.890858,0.206362,-0.292292,-0.035153,-0.360872,-0.931952,0.042599,-0.032988,0.023276,31.629169,13.336838,-22.905365,,,,,,,
1512178126.018225,-0.032209,0.351854,0.277754,-0.841494,0.183533,-0.054993,-0.030231,-0.344639,-0.938248,0.061404,-0.034816,-0.055770,31.709721,14.536957,-22.605453,,,,,,,
1512178126.038214,-0.030591,0.338978,0.279734,-0.503378,0.086366,0.188366,-0.028845,-0.332523,-0.942654,0.013907,-0.014035,-0.049122,31.860355,14.687180,-22.681656,,,,,,,
1512178126.058233,-0.029967,0.335504,0.283739,0.015137,0.128862,0.165109,-0.028292,-0.329245,-0.943821,0.000780,0.021658,-0.025204,32.160023,14.612640,-22.684250,,,,,,,
1512178126.078222,-0.026832,0.341563,0.285988,0.427292,0.235441,0.065912,-0.025279,-0.334960,-0.941893,-0.011556,0.037444,-0.054780,32.461491,14.913086,-22.461655,,,,,,,
1512178126.098242,-0.024219,0.352994,0.287181,0.634396,0.036057,0.038368,-0.022723,-0.345708,-0.938067,0.017444,0.031728,-0.096617,32.534382,14.463196,-22.612503,,,,,,,
1512178126.118231,-0.025910,0.366564,0.288177,0.692078,-0.097353,0.024881,-0.024186,-0.358410,-0.933251,0.015076,0.027477,-0.058174,32.230030,13.487732,-22.535400,,,,,,,
1512178126.138250,-0.028337,0.379931,0.288721,0.650982,-0.124062,-0.005657,-0.026313,-0.370856,-0.928317,-0.011834,0.016333,-0.012692,31.926655,12.737289,-22.533203,,,,,,,
1512178126.158239,-0.032001,0.391526,0.288628,0.553288,-0.235246,-0.034110,-0.029574,-0.381600,-0.923854,-0.002164,0.016884,-0.037282,32.149220,12.212616,-22.685349,,,,,,,
1512178126.178228,-0.038338,0.401777,0.287503,0.497633,-0.377291,-0.092981,-0.035277,-0.391054,-0.919691,0.004668,0.021364,-0.003435,31.548252,11.986710,-22.605347,,,,,,,
1512178126.198248,-0.043720,0.410008,0.285205,0.372698,-0.252406,-0.138061,-0.040083,-0.398617,-0.916241,-0.001100,-0.001011,0.047696,31.397709,11.911499,-22.979111,,,,,,,
1512178126.218237,-0.046464,0.417016,0.282494,0.354479,-0.174481,-0.129530,-0.042467,-0.405034,-0.913315,-0.003371,-0.009975,0.046631,31.019001,11.085922,-22.976303,,,,,,,
1512178126.238256,-0.048392,0.424477,0.280701,0.396357,-0.104014,-0.079639,-0.044080,-0.411844,-0.910187,-0.018877,-0.000738,0.047364,31.093555,11.011032,-23.201965,,,,,,,
1512178126.258245,-0.048832,0.432637,0.279723,0.417394,-0.020700,-0.057720,-0.044315,-0.419266,-0.906781,-0.014645,0.002548,0.037930,30.640934,10.410355,-23.048431,,,,,,,
1512178126.278234,-0.049300,0.440059,0.279262,0.325129,-0.057226,-0.024004,-0.044585,-0.425993,-0.903627,0.011458,-0.014086,0.020784,31.015659,10.335922,-22.901642,,,,,,,
1512178126.298254,-0.051684,0.444224,0.279319,0.146817,-0.135504,-0.010869,-0.046647,-0.429758,-0.901738,0.044983,-0.018591,0.017919,30.640598,10.335358,-23.048462,,,,,,,
1512178126.318243,-0.053766,0.446476,0.279217,0.112558,-0.096057,-0.000569,-0.048472,-0.431790,-0.900671,0.014308,-0.005130,0.021474,30.788456,9.885574,-23.274948,,,,,,,
1512178126.338262,-0.055357,0.449547,0.280026,0.186548,-0.043685,0.040128,-0.049831,-0.434558,-0.899264,-0.020115,0.013034,0.000033,30.562595,9.660233,-22.973129,,,,,,,
1512178126.358251,-0.056901,0.454089,0.280874,0.244683,-0.059544,0.005739,-0.051107,-0.438644,-0.897206,-0.013926,0.023483,-0.004619,30.563114,9.810242,-23.273071,,,,,,,
1512178126.378240,-0.058134,0.458808,0.280426,0.215573,-0.093678,-0.040642,-0.052092,-0.442879,-0.895066,0.016051,0.004784,-0.005111,30.561420,9.435242,-23.273239,,,,,,,
1512178126.398237,-0.059870,0.461942,0.280257,0.118876,-0.084306,0.004894,-0.053563,-0.445687,-0.893585,0.014714,-0.015617,0.003311,30.332233,8.534897,-23.571732,,,,,,,
1512178126.418226,-0.061242,0.463905,0.280727,0.105978,-0.027727,0.014500,-0.054735,-0.447444,-0.892635,-0.018354,0.001231,0.008663,30.412144,9.585007,-23.196884,,,,,,,
1512178126.438246,-0.061450,0.466591,0.281108,0.164854,0.008708,0.001622,-0.054846,-0.449845,-0.891421,-0.024301,0.017304,0.004931,30.410343,9.210007,-23.422073,,,,,,,
1512178126.458235,-0.061159,0.470064,0.280712,0.176279,-0.012548,-0.046261,-0.054491,-0.452943,-0.889872,-0.008299,0.011629,0.002177,30.334660,9.059891,-23.421509,,,,,,,
1512178126.478254,-0.061521,0.473096,0.279620,0.124107,-0.059616,-0.052511,-0.054729,-0.455645,-0.888477,0.000103,-0.015943,0.009876,30.033421,8.759445,-23.194077,,,,,,,
1512178126.498243,-0.062839,0.474955,0.279149,0.080791,-0.075787,-0.012686,-0.055847,-0.457298,-0.887558,-0.004685,-0.016258,0.012756,30.109776,9.059555,-23.194580,,,,,,,
1512178126.518232,-0.064293,0.476729,0.279104,0.103136,-0.058666,-0.009104,-0.057085,-0.458876,-0.886665,-0.005049,-0.000765,0.004554,29.883427,8.759216,-23.192810,,,,,,,
1512178126.538252,-0.064877,0.478860,0.278983,0.103294,-0.014862,-0.017482,-0.057539,-0.460768,-0.885653,-0.010530,-0.001131,0.025119,30.182346,8.534668,-23.345459,,,,,,,
1512178126.558241,-0.064651,0.479876,0.278509,-0.004164,-0.000047,-0.029647,-0.057309,-0.461669,-0.885199,-0.010150,-0.008301,0.031973,29.958729,8.834335,-23.268417,,,,,,,
1512178126.578260,-0.064662,0.478290,0.277306,-0.120904,-0.049292,-0.063490,-0.057366,-0.460261,-0.885928,0.001382,0.005733,0.015124,29.806293,8.309097,-23.417389,,,,,,,
1512178126.598249,-0.065154,0.476270,0.275381,-0.079063,-0.065215,-0.079994,-0.057862,-0.458467,-0.886825,-0.006927,0.003481,0.002487,29.733646,8.834000,-23.416504,,,,,,,
1512178126.618238,-0.065410,0.476222,0.273910,0.035685,-0.036252,-0.055847,-0.058091,-0.458425,-0.886832,-0.002014,0.000265,-0.000360,30.033466,8.759445,-23.119080,,,,,,,
1512178126.638258,-0.065554,0.478141,0.273044,0.110050,-0.022279,-0.038727,-0.058160,-0.460129,-0.885945,0.004434,0.002228,-0.004070,29.883015,8.684219,-23.342850,,,,,,,
1512178126.658247,-0.065792,0.480491,0.272550,0.110914,-0.013755,-0.025891,-0.058300,-0.462215,-0.884849,0.000820,-0.004247,0.001335,29.731358,8.308990,-23.266754,,,,,,,
1512178126.678266,-0.065749,0.482204,0.272197,0.063919,0.003249,-0.020118,-0.058210,-0.463733,-0.884060,-0.004443,-0.006894,0.004605,29.656406,8.308884,-23.191101,,,,,,,
1512178126.698255,-0.065726,0.483033,0.271692,0.034223,-0.034163,-0.031340,-0.058165,-0.464468,-0.883678,0.009199,0.001226,-0.014546,29.729633,7.933990,-23.341919,,,,,,,
1512178126.718275,-0.066670,0.483845,0.271066,0.041568,-0.071549,-0.026033,-0.058973,-0.465187,-0.883246,0.011244,-0.000283,-0.000116,29.730991,8.233994,-23.341782,,,,,,,
1512178126.738264,-0.067902,0.484561,0.270437,0.027810,-0.076900,-0.032648,-0.060039,-0.465820,-0.882840,0.002666,-0.012864,0.008573,29.204044,7.783203,-23.187515,,,,,,,
1512178126.758253,-0.068830,0.485164,0.269606,0.032212,-0.062989,-0.039997,-0.060839,-0.466353,-0.882504,0.014727,-0.014268,0.005246,29.581776,8.383759,-23.115433,,,,,,,
1512178126.778272,-0.069373,0.486176,0.269140,0.055167,-0.026695,-0.007555,-0.061285,-0.467248,-0.881999,0.004736,-0.018790,0.017955,29.431629,8.383545,-23.414169,,,,,,,
1512178126.798261,-0.069467,0.487149,0.269313,0.045378,0.004237,0.005201,-0.061337,-0.468109,-0.881539,0.003064,-0.013535,0.018701,29.655643,8.158875,-23.341171,,,,,,,
1512178126.818281,-0.069261,0.487912,0.269201,0.027576,0.008520,-0.014231,-0.061130,-0.468783,-0.881195,0.015888,-0.003553,0.010529,29.431065,8.233536,-23.189224,,,,,,,
1512178126.838270,-0.068897,0.488333,0.269006,0.015668,0.014891,-0.002654,-0.060796,-0.469154,-0.881021,0.001562,-0.006142,0.016717,29.731022,8.233994,-23.266785,,,,,,,
1512178126.858259,-0.068612,0.488751,0.269348,0.022683,0.024462,0.025200,-0.060532,-0.469523,-0.880842,0.003693,-0.008214,0.019240,29.431065,8.233536,-23.189224,,,,,,,
1512178126.878278,-0.068358,0.489307,0.270346,0.033989,0.038312,0.050995,-0.060290,-0.470014,-0.880597,-0.001722,0.005476,0.006513,29.581364,8.308762,-23.265472,,,,,,,
1512178126.898267,-0.068527,0.490441,0.271605,0.075526,0.009536,0.052566,-0.060402,-0.471015,-0.880055,-0.003746,0.019187,0.001088,29.807346,8.534103,-23.342270,,,,,,,
1512178126.918287,-0.069070,0.491990,0.272444,0.071823,-0.021383,0.016155,-0.060830,-0.472381,-0.879293,-0.001884,0.024688,0.002309,29.656513,8.308884,-22.966110,,,,,,,
1512178126.938276,-0.069728,0.493022,0.272266,0.033005,-0.039526,-0.022850,-0.061374,-0.473290,-0.878766,-0.008084,0.014580,0.012372,29.429447,7.858536,-23.039413,,,,,,,
1512178126.958296,-0.069907,0.493228,0.271570,-0.005128,-0.012851,-0.036101,-0.061525,-0.473472,-0.878658,-0.010207,0.006690,0.018306,29.429371,7.858536,-23.189407,,,,,,,
1512178126.978285,-0.069499,0.493245,0.270609,0.007811,-0.004268,-0.044411,-0.061166,-0.473486,-0.878675,0.003610,0.004080,0.000272,29.430882,8.158539,-22.889267,,,,,,,
1512178126.998274,-0.069391,0.493761,0.269782,0.040669,-0.026673,-0.034420,-0.061054,-0.473941,-0.878437,0.005832,0.001590,0.007130,29.654377,7.858871,-23.191315,,,,,,,
1512178127.018293,-0.070027,0.494649,0.269363,0.043511,-0.052347,-0.014214,-0.061583,-0.474723,-0.877978,0.001113,-0.003259,0.014865,29.579151,7.783768,-22.965714,,,,,,,
1512178127.038282,-0.071246,0.495231,0.269240,0.015732,-0.058802,-0.010373,-0.062634,-0.475235,-0.877626,-0.004032,0.002594,0.021242,29.654377,7.858871,-23.191315,,,,,,,
1512178127.058302,-0.071623,0.495304,0.268716,0.003352,-0.025661,-0.033891,-0.062962,-0.475300,-0.877568,-0.006008,0.011951,0.011418,29.654758,7.933884,-23.116287,,,,,,,
1512178127.078291,-0.071435,0.495991,0.267808,0.056825,-0.009540,-0.043722,-0.062773,-0.475904,-0.877254,-0.002153,0.021909,-0.014149,29.429722,7.933533,-23.189362,,,,,,,
1512178127.098280,-0.071519,0.498132,0.266909,0.121847,-0.027597,-0.043907,-0.062774,-0.477786,-0.876231,-0.007019,0.015933,0.000575,29.503025,7.558655,-23.190170,,,,,,,
1512178127.118299,-0.071321,0.500273,0.266115,0.075995,0.005445,-0.041257,-0.062527,-0.479665,-0.875221,-0.009250,-0.003230,0.018501,29.277424,7.408310,-23.038345,,,,,,,
1512178127.138288,-0.070375,0.500505,0.265180,-0.029545,0.024507,-0.040589,-0.061692,-0.479868,-0.875169,-0.000183,-0.015432,0.009324,29.730503,8.083984,-22.966843,,,,,,,
1512178127.158308,-0.070465,0.499372,0.264440,-0.060875,-0.046085,-0.018901,-0.061809,-0.478874,-0.875705,0.011592,-0.011757,-0.003583,29.052235,7.407974,-23.411423,,,,,,,
1512178127.178297,-0.071539,0.498334,0.264352,-0.035794,-0.047177,0.011307,-0.062785,-0.477963,-0.876133,0.002055,-0.015155,0.015186,29.204746,7.933197,-23.112457,,,,,,,
1512178127.198316,-0.072211,0.497974,0.264904,-0.007284,0.000903,0.031079,-0.063386,-0.477646,-0.876263,0.004701,-0.018676,0.024349,29.204380,7.858200,-23.187485,,,,,,,
1512178127.218305,-0.071780,0.497978,0.265897,0.002065,0.068173,0.048503,-0.063008,-0.477650,-0.876288,0.003453,-0.012066,0.017798,29.204044,7.783203,-23.187515,,,,,,,
1512178127.238294,-0.070985,0.497985,0.266975,-0.002167,0.056424,0.046270,-0.062311,-0.477656,-0.876334,0.010309,-0.003469,0.002143,29.353031,7.558426,-23.188904,,,,,,,
1512178127.258314,-0.070844,0.497652,0.267986,-0.022435,0.011530,0.044753,-0.062199,-0.477364,-0.876502,0.004704,-0.000328,-0.005319,29.279758,7.933319,-23.113098,,,,,,,
1512178127.278303,-0.071132,0.497040,0.268838,-0.042522,0.010454,0.034866,-0.062472,-0.476826,-0.876775,0.000659,0.005207,0.005361,29.431812,8.383545,-23.039169,,,,,,,
1512178127.298322,-0.071148,0.496240,0.269334,-0.039154,0.014749,0.024267,-0.062514,-0.476122,-0.877154,0.006529,-0.000089,-0.008542,29.879795,7.934219,-23.043198,,,,,,,
1512178127.318311,-0.071562,0.495873,0.270023,-0.001004,-0.018332,0.036431,-0.062889,-0.475800,-0.877302,-0.001534,0.013016,-0.014833,29.730503,8.083984,-22.966843,,,,,,,
1512178127.338300,-0.072116,0.496415,0.270491,0.042181,-0.013927,0.004025,-0.063356,-0.476276,-0.877010,-0.008085,0.016377,-0.002079,29.578617,7.708755,-23.340744,,,,,,,
1512178127.358320,-0.071925,0.497175,0.270120,0.024624,0.016019,-0.029175,-0.063163,-0.476945,-0.876661,-0.010507,0.007477,0.015546,29.429493,7.858536,-22.964401,,,,,,,
1512178127.378309,-0.071228,0.496988,0.269373,-0.031821,0.012739,-0.032133,-0.062558,-0.476781,-0.876794,-0.004977,-0.003414,0.013314,29.201633,7.258194,-23.262772,,,,,,,
1512178127.398294,-0.070920,0.496097,0.268688,-0.040602,-0.009739,-0.018482,-0.062318,-0.475997,-0.877236,0.005418,-0.008790,0.004174,29.279713,7.933319,-23.188095,,,,,,,
1512178127.418283,-0.071054,0.495635,0.268849,-0.002907,0.001988,0.023682,-0.062452,-0.475590,-0.877447,-0.004061,-0.004833,0.011557,29.580082,8.008759,-23.115616,,,,,,,
1512178127.438302,-0.071297,0.495832,0.269822,0.012733,0.017988,0.045283,-0.062658,-0.475764,-0.877338,0.000341,0.007319,0.007633,29.507420,8.533661,-23.189728,,,,,,,
1512178127.458291,-0.071398,0.495643,0.270510,-0.023079,0.005174,0.019138,-0.062753,-0.475597,-0.877422,-0.002585,0.003261,-0.002568,29.505497,8.083649,-22.964935,,,,,,,
1512178127.478280,-0.071738,0.494923,0.270657,-0.042160,-0.026884,0.011288,-0.063076,-0.474964,-0.877742,0.003353,0.008243,-0.002644,29.580204,8.008759,-22.890610,,,,,,,
1512178127.498300,-0.072621,0.494364,0.270873,-0.016595,-0.037531,0.011620,-0.063870,-0.474472,-0.877950,0.002087,0.010910,0.004125,29.504444,7.858643,-23.040039,,,,,,,
1512178127.518289,-0.073356,0.494550,0.271125,0.023906,-0.027860,0.012239,-0.064509,-0.474635,-0.877815,-0.007421,0.007426,-0.001777,29.654408,7.858871,-23.116318,,,,,,,
1512178127.538308,-0.073811,0.495180,0.271403,0.034697,-0.011807,0.004988,-0.064886,-0.475190,-0.877487,-0.008051,0.013093,0.000321,29.654408,7.858871,-23.116318,,,,,,,
1512178127.558297,-0.073998,0.495673,0.271163,0.018082,-0.012848,-0.021908,-0.065033,-0.475624,-0.877242,0.000305,0.012794,0.005553,29.730396,8.083984,-23.191849,,,,,,,
1512178127.578286,-0.073563,0.495710,0.270503,-0.009480,0.014901,-0.029672,-0.064650,-0.475656,-0.877252,-0.004914,0.002771,0.019113,29.654789,7.933884,-23.041290,,,,,,,
1512178127.598306,-0.072825,0.495140,0.269948,-0.039596,0.024429,-0.014089,-0.064022,-0.475155,-0.877570,0.010494,-0.010121,0.007010,29.727985,7.558990,-23.267090,,,,,,,
1512178127.618295,-0.072717,0.494058,0.270092,-0.058260,0.001912,0.018615,-0.063964,-0.474203,-0.878089,0.013412,-0.004481,0.003928,29.579334,7.858765,-23.265686,,,,,,,
1512178127.638314,-0.072975,0.492853,0.270390,-0.055032,-0.004488,0.016507,-0.064233,-0.473141,-0.878642,0.004769,-0.004062,-0.002477,29.506397,8.308655,-23.189835,,,,,,,
1512178127.658303,-0.073403,0.492458,0.270593,0.008018,-0.018257,0.006713,-0.064623,-0.472793,-0.878801,0.007982,0.005370,-0.012007,29.732121,8.459000,-23.116669,,,,,,,
1512178127.678323,-0.073822,0.493406,0.270893,0.063370,-0.005369,0.011822,-0.064958,-0.473629,-0.878326,0.002260,0.000072,0.001785,29.505085,8.008652,-23.114975,,,,,,,
1512178127.698312,-0.074222,0.494825,0.271625,0.069296,-0.009678,0.041749,-0.065259,-0.474878,-0.877629,0.013303,-0.009894,0.000508,29.430424,8.083542,-23.114304,,,,,,,
1512178127.718301,-0.074955,0.495473,0.272939,0.012493,-0.009808,0.059044,-0.065879,-0.475448,-0.877274,-0.006325,-0.003526,0.016403,29.576267,7.183762,-23.340988,,,,,,,
1512178127.738320,-0.075376,0.494837,0.273833,-0.047757,0.004046,0.028369,-0.066272,-0.474888,-0.877547,-0.001584,0.006154,0.018706,29.054935,8.007980,-23.411148,,,,,,,
1512178127.758309,-0.075010,0.493637,0.273932,-0.062310,0.025431,0.006912,-0.065993,-0.473832,-0.878139,0.000152,-0.001724,0.015423,29.280155,8.008316,-22.963058,,,,,,,
1512178127.778329,-0.074549,0.492760,0.274309,-0.027531,0.033975,0.030896,-0.065619,-0.473059,-0.878584,-0.006723,0.003867,0.010908,29.428410,7.633530,-23.114502,,,,,,,
1512178127.798318,-0.073835,0.492686,0.275108,0.008801,0.063949,0.027263,-0.064994,-0.472994,-0.878665,-0.004876,0.019427,0.007648,29.504490,7.858643,-22.965042,,,,,,,
1512178127.818307,-0.072462,0.493042,0.275198,0.017898,0.070441,-0.006696,-0.063776,-0.473308,-0.878585,0.010095,0.009318,-0.014603,29.578739,7.708755,-23.115753,,,,,,,
1512178127.838326,-0.072039,0.493596,0.275353,0.033390,-0.006497,0.019913,-0.063385,-0.473796,-0.878351,0.020508,-0.005300,-0.018836,29.581516,8.308762,-22.965469,,,,,,,
1512178127.858315,-0.073456,0.494373,0.276577,0.043336,-0.053560,0.061472,-0.064602,-0.474480,-0.877893,0.009442,-0.001030,0.001962,29.804722,7.934097,-23.192551,,,,,,,
1512178127.878335,-0.074954,0.495192,0.278015,0.048800,-0.024701,0.054186,-0.065889,-0.475201,-0.877407,-0.004439,0.001339,0.020718,29.654819,7.933884,-22.966278,,,,,,,
1512178127.898324,-0.075827,0.496484,0.279295,0.094637,-0.016086,0.054881,-0.066608,-0.476337,-0.876736,0.003680,0.009617,-0.001499,29.426792,7.258530,-22.964676,,,,,,,
1512178127.918313,-0.077072,0.499163,0.280854,0.172396,-0.040545,0.056986,-0.067601,-0.478691,-0.875377,-0.000896,0.007087,-0.004658,29.052052,7.332977,-23.111465,,,,,,,
1512178127.938333,-0.078324,0.502541,0.282217,0.153415,-0.013843,0.046145,-0.068570,-0.481654,-0.873675,-0.015979,0.000437,0.023089,29.428776,7.708542,-23.039474,,,,,,,
1512178127.958322,-0.078594,0.503806,0.283112,0.009885,0.021228,0.023931,-0.068758,-0.482762,-0.873048,-0.008696,0.005223,0.020875,29.426868,7.258530,-22.814682,,,,,,,
1512178127.978341,-0.078284,0.502146,0.283098,-0.126126,0.006120,-0.003678,-0.068550,-0.481308,-0.873867,-0.009377,0.006745,0.004391,29.427158,7.333542,-22.889648,,,,,,,
1512178127.998330,-0.078404,0.499347,0.282384,-0.125738,-0.039761,-0.029417,-0.068760,-0.478852,-0.875199,-0.009045,0.013093,-0.002304,29.426792,7.258530,-22.964676,,,,,,,
1512178128.018350,-0.078298,0.498336,0.281588,-0.005220,0.013838,-0.029614,-0.068705,-0.477965,-0.875688,-0.009389,0.007765,0.017183,29.652531,7.408875,-22.816528,,,,,,,
1512178128.038339,-0.077039,0.499874,0.281465,0.115853,0.091934,0.001192,-0.067546,-0.479315,-0.875040,-0.005269,-0.005258,0.007089,29.351749,7.258423,-23.039047,,,,,,,
1512178128.058328,-0.075454,0.502760,0.282370,0.152514,0.095119,0.041180,-0.066054,-0.481846,-0.873763,-0.006944,-0.003689,0.001906,29.576527,7.183762,-22.815994,,,,,,,
1512178128.078347,-0.074487,0.504890,0.283552,0.072681,0.068309,0.032467,-0.065133,-0.483711,-0.872801,-0.001731,0.003273,0.013716,29.577915,7.483765,-22.740860,,,,,,,
1512178128.098336,-0.073678,0.504869,0.283654,-0.035413,0.022293,-0.008703,-0.064427,-0.483693,-0.872863,0.010167,-0.003536,0.002532,29.575886,7.033752,-22.741074,,,,,,,
1512178128.118356,-0.074405,0.503641,0.283623,-0.062516,-0.077134,0.014013,-0.065106,-0.482618,-0.873408,0.002087,-0.006533,-0.013143,29.651905,7.258865,-22.741608,,,,,,,
1512178128.138345,-0.076472,0.502978,0.284225,-0.005301,-0.067480,0.035128,-0.066936,-0.482037,-0.873590,-0.006871,-0.005222,0.006845,29.277576,7.408310,-22.738342,,,,,,,
1512178128.158334,-0.077124,0.504057,0.285000,0.094081,0.018150,0.025140,-0.067465,-0.482982,-0.873027,-0.008463,0.001308,0.016231,29.202244,7.333191,-22.737747,,,,,,,
1512178128.178353,-0.076674,0.506865,0.285937,0.158912,0.045999,0.038971,-0.066968,-0.485439,-0.871702,-0.000369,-0.005742,0.012113,29.502201,7.333649,-22.815292,,,,,,,
1512178128.198342,-0.076420,0.509495,0.287507,0.106186,0.056540,0.069159,-0.066649,-0.487737,-0.870443,0.001143,-0.015178,0.018652,29.275852,7.033310,-22.813507,,,,,,,
1512178128.218362,-0.076313,0.510203,0.289083,0.002961,0.035042,0.056928,-0.066530,-0.488354,-0.870106,-0.002074,-0.004291,0.013416,29.651234,7.108871,-22.741669,,,,,,,
1512178128.238351,-0.076408,0.509186,0.289778,-0.072100,-0.001311,0.017337,-0.066650,-0.487467,-0.870594,-0.015717,0.014353,0.004460,29.575657,6.958755,-22.516098,,,,,,,
1512178128.258370,-0.076628,0.507761,0.289365,-0.061777,-0.026845,-0.028444,-0.066895,-0.486222,-0.871271,-0.003356,0.010468,-0.005880,29.275547,6.958313,-22.738556,,,,,,,
1512178128.278359,-0.076743,0.507752,0.288522,0.032146,-0.026691,-0.035613,-0.066995,-0.486214,-0.871268,-0.001700,0.007058,-0.011713,29.651234,7.108871,-22.741669,,,,,,,
1512178128.298348,-0.077189,0.509786,0.288220,0.130937,-0.030851,-0.013939,-0.067307,-0.487990,-0.870250,-0.004547,-0.000932,-0.012547,29.725895,7.033981,-22.742340,,,,,,,
1512178128.318368,-0.077902,0.512781,0.288309,0.146848,-0.029771,-0.009443,-0.067814,-0.490603,-0.868741,0.005512,0.001650,-0.001972,29.425846,7.033524,-22.814789,,,,,,,
1512178128.338357,-0.078642,0.515108,0.287948,0.094980,-0.053302,-0.032662,-0.068367,-0.492629,-0.867550,0.004692,-0.011476,0.007763,29.425663,6.958527,-22.514832,,,,,,,
1512178128.358377,-0.079172,0.516192,0.287419,0.041529,-0.041650,-0.022734,-0.068785,-0.493572,-0.866981,-0.009478,-0.010792,0.005012,29.650669,6.958862,-22.516739,,,,,,,
1512178128.378366,-0.080210,0.516887,0.287238,0.035959,-0.061980,-0.009026,-0.069657,-0.494176,-0.866566,0.003541,0.000799,0.006993,29.046726,6.132965,-22.962006,,,,,,,
1512178128.398361,-0.080962,0.517346,0.287092,0.010267,-0.018242,-0.000718,-0.070290,-0.494575,-0.866288,0.002480,-0.018365,0.022248,28.973637,6.507858,-22.511215,,,,,,,
1512178128.418380,-0.081284,0.517302,0.287546,-0.000966,-0.007648,0.034335,-0.070571,-0.494537,-0.866287,0.000777,-0.013733,0.008819,29.423969,6.583527,-22.514999,,,,,,,
1512178128.438369,-0.082381,0.518073,0.288724,0.075491,-0.033201,0.051345,-0.071489,-0.495207,-0.865829,-0.004011,0.011610,-0.002167,29.198566,6.508194,-22.663132,,,,,,,
1512178128.458389,-0.083187,0.520567,0.289648,0.146538,0.003302,0.010923,-0.072084,-0.497372,-0.864537,-0.017653,0.020291,0.018742,28.972507,6.282852,-22.736313,,,,,,,
1512178128.478378,-0.082242,0.523282,0.289435,0.108939,0.059950,-0.033131,-0.071156,-0.499726,-0.863256,-0.016017,0.009201,0.025274,29.347813,6.358414,-22.814468,,,,,,,
1512178128.498397,-0.080687,0.524496,0.288650,0.023770,0.042745,-0.040821,-0.069765,-0.500777,-0.862760,0.000734,0.006423,0.002409,29.269367,5.608292,-22.964172,,,,,,,
1512178128.518386,-0.080156,0.524829,0.287534,0.018651,-0.017055,-0.057096,-0.069294,-0.501065,-0.862631,0.017307,0.013562,0.003531,29.272556,6.283295,-22.663864,,,,,,,
1512178128.538375,-0.079784,0.525531,0.286227,0.041063,-0.011674,-0.057817,-0.068945,-0.501672,-0.862306,0.000295,0.005792,0.024125,29.422520,6.283524,-22.740143,,,,,,,
1512178128.558395,-0.079756,0.526602,0.285365,0.052354,-0.014916,-0.032081,-0.068877,-0.502599,-0.861772,0.003936,-0.000835,0.020951,29.647282,6.208862,-22.517090,,,,,,,
1512178128.578384,-0.079683,0.527735,0.285252,0.058135,0.012789,0.006477,-0.068769,-0.503578,-0.861209,0.002424,-0.003502,0.017199,29.572254,6.208755,-22.591446,,,,,,,
1512178128.598403,-0.079502,0.528870,0.285887,0.060921,0.022358,0.032137,-0.068568,-0.504558,-0.860650,0.011104,-0.000309,0.009729,29.197895,6.358185,-22.663193,,,,,,,
1512178128.618392,-0.079476,0.529656,0.287013,0.030778,0.032961,0.050928,-0.068514,-0.505237,-0.860257,0.003649,-0.004285,0.015057,29.420872,5.908524,-22.665314,,,,,,,
1512178128.638381,-0.079265,0.529662,0.288173,-0.018194,0.043573,0.047056,-0.068332,-0.505242,-0.860268,0.002750,0.003045,0.013360,29.421207,5.983521,-22.665283,,,,,,,
1512178128.658401,-0.078849,0.528667,0.288744,-0.059311,0.023274,0.018673,-0.068014,-0.504383,-0.860797,0.004721,0.001759,-0.007519,29.345570,5.833405,-22.589706,,,,,,,
1512178128.678390,-0.078882,0.527668,0.288835,-0.035678,-0.014051,0.006094,-0.068082,-0.503519,-0.861297,0.003583,0.008219,-0.008728,29.421314,5.983521,-22.440277,,,,,,,
1512178128.698409,-0.079426,0.527626,0.288896,0.011271,-0.022523,0.002478,-0.068552,-0.503484,-0.861281,-0.005895,0.000585,0.004240,29.196156,5.983185,-22.738358,,,,,,,
1512178128.718398,-0.079518,0.528198,0.289059,0.029333,0.015950,0.008204,-0.068609,-0.503978,-0.860987,-0.007685,-0.003347,0.013408,28.969578,5.607849,-22.511627,,,,,,,
1512178128.738418,-0.079122,0.528365,0.289418,-0.004912,0.027628,0.016275,-0.068261,-0.504122,-0.860930,-0.013251,-0.002210,0.003768,29.570896,5.908752,-22.591583,,,,,,,
1512178128.758407,-0.078776,0.527758,0.289438,-0.037638,0.001981,-0.004543,-0.067987,-0.503598,-0.861259,-0.005682,0.004163,-0.014763,29.497181,6.208633,-22.740814,,,,,,,
1512178128.778396,-0.079005,0.527033,0.288977,-0.031968,-0.034278,-0.025904,-0.068213,-0.502971,-0.861607,-0.005258,0.011577,-0.011226,29.345493,5.833405,-22.739716,,,,,,,
1512178128.798415,-0.079180,0.527000,0.288217,0.012962,-0.012831,-0.034775,-0.068366,-0.502943,-0.861612,-0.010461,0.001249,0.004754,29.421497,6.058533,-22.740234,,,,,,,
1512178128.818404,-0.078714,0.527829,0.287575,0.048082,0.021392,-0.029885,-0.067931,-0.503659,-0.861228,-0.014360,0.000012,0.007712,29.497181,6.208633,-22.740814,,,,,,,
1512178128.838424,-0.078060,0.528760,0.287024,0.044899,0.002167,-0.031061,-0.067331,-0.504463,-0.860804,0.001535,0.003289,-0.003408,29.421955,6.133530,-22.515213,,,,,,,
1512178128.858413,-0.078156,0.529379,0.286308,0.019352,-0.023502,-0.034719,-0.067389,-0.504998,-0.860486,0.004370,-0.004051,0.021634,29.422626,6.283524,-22.515137,,,,,,,
1512178128.878402,-0.077866,0.529159,0.285800,-0.032197,0.020165,-0.009729,-0.067148,-0.504808,-0.860616,0.004908,-0.016722,0.035161,29.647556,6.283859,-22.667053,,,,,,,
1512178128.898422,-0.077216,0.527765,0.285849,-0.092312,0.044586,0.016134,-0.066644,-0.503604,-0.861360,0.005563,-0.012525,0.023760,29.795933,5.909088,-22.518494,,,,,,,
1512178128.918411,-0.076728,0.525708,0.286074,-0.101883,0.016806,0.013768,-0.066302,-0.501826,-0.862424,0.008715,0.000163,0.003461,29.646503,6.058868,-22.742157,,,,,,,
1512178128.938430,-0.076788,0.524203,0.286229,-0.053956,-0.009827,0.015437,-0.066412,-0.500523,-0.863172,0.008261,0.002797,-0.006762,29.721836,6.133972,-22.742752,,,,,,,
1512178128.958419,-0.077315,0.524245,0.286868,0.026700,-0.005480,0.036873,-0.066865,-0.500560,-0.863116,0.001710,0.002299,0.004763,29.496571,6.058640,-22.590881,,,,,,,
1512178128.978439,-0.077404,0.525123,0.287808,0.036457,0.034079,0.029692,-0.066908,-0.501320,-0.862671,-0.013766,0.008644,0.014069,29.497288,6.208633,-22.515808,,,,,,,
1512178128.998428,-0.076247,0.525109,0.287781,-0.028778,0.067190,-0.021244,-0.065910,-0.501307,-0.862755,-0.010307,0.009623,0.009606,29.797291,6.209091,-22.518356,,,,,,,
1512178129.018417,-0.074442,0.523535,0.286614,-0.113548,0.051099,-0.053445,-0.064411,-0.499945,-0.863659,-0.007992,0.012182,0.000347,29.571842,6.133743,-22.741486,,,,,,,
1512178129.038436,-0.073012,0.520630,0.284848,-0.163349,0.013677,-0.073485,-0.063282,-0.497427,-0.865195,-0.014904,0.004065,-0.001871,29.645710,5.908859,-22.967209,,,,,,,
1512178129.058425,-0.071708,0.517567,0.282856,-0.149471,0.025448,-0.074310,-0.062262,-0.494767,-0.866792,-0.004449,0.006547,-0.002288,30.099689,6.734543,-22.445663,,,,,,,
1512178129.078445,-0.070624,0.515859,0.281389,-0.044381,0.017012,-0.047230,-0.061382,-0.493282,-0.867701,0.010037,0.000469,-0.017217,29.874958,6.809204,-22.593719,,,,,,,
1512178129.098434,-0.070617,0.516388,0.281210,0.056976,-0.016063,0.010623,-0.061358,-0.493742,-0.867441,0.003725,-0.003984,-0.004675,29.723225,6.433975,-22.667618,,,,,,,
1512178129.118423,-0.071266,0.517669,0.281843,0.058990,-0.011794,0.019201,-0.061876,-0.494856,-0.866769,-0.001906,-0.005373,0.013559,29.948292,6.434311,-22.519531,,,,,,,
1512178129.138442,-0.071311,0.518216,0.281848,0.012644,0.001017,-0.014475,-0.061895,-0.495331,-0.866496,-0.006998,-0.000259,0.013209,29.948856,6.584320,-22.744461,,,,,,,
1512178129.158431,-0.070897,0.518015,0.281215,-0.022285,0.007399,-0.029886,-0.061544,-0.495157,-0.866621,-0.004176,0.000543,0.012404,29.645115,5.758865,-22.817291,,,,,,,
1512178129.178451,-0.070410,0.517350,0.280540,-0.038403,0.005221,-0.022666,-0.061145,-0.494578,-0.866979,-0.001767,-0.005376,0.005010,30.099873,6.809540,-22.745636,,,,,,,
1512178129.198440,-0.069995,0.516820,0.280114,-0.023604,0.013778,-0.013891,-0.060803,-0.494118,-0.867266,0.011029,-0.004860,0.007220,30.099506,6.734543,-22.820663,,,,,,,
1512178129.218459,-0.069552,0.516745,0.280190,0.010012,0.030855,0.016503,-0.060422,-0.494052,-0.867330,0.009015,-0.011990,0.002859,30.024235,6.659424,-22.670074,,,,,,,
1512178129.238448,-0.069495,0.517407,0.281086,0.043659,0.016969,0.044662,-0.060350,-0.494628,-0.867007,0.006914,0.001266,0.006899,30.396763,6.134995,-22.898483,,,,,,,
1512178129.258437,-0.070105,0.517842,0.282091,0.006459,-0.021530,0.035458,-0.060864,-0.495006,-0.866755,0.003644,0.004344,-0.001439,30.099949,6.809540,-22.595627,,,,,,,
1512178129.278457,-0.071038,0.517661,0.282543,-0.014573,-0.030068,0.018069,-0.061678,-0.494849,-0.866787,-0.001081,0.003668,0.010434,30.098682,6.509537,-22.445770,,,,,,,
1512178129.298446,-0.071357,0.517331,0.283162,-0.015841,0.009424,0.032046,-0.061967,-0.494562,-0.866930,-0.010497,0.009729,0.007021,30.099506,6.734543,-22.820663,,,,,,,
1512178129.318466,-0.071217,0.517342,0.283421,0.010271,0.011657,-0.000619,-0.061845,-0.494572,-0.866934,0.003251,0.017841,-0.007349,30.174885,6.809662,-22.746277,,,,,,,
1512178129.338455,-0.071254,0.517927,0.283187,0.042412,-0.018175,-0.010914,-0.061857,-0.495080,-0.866642,0.010755,0.002969,-0.002926,29.649876,6.808868,-22.741806,,,,,,,
1512178129.358444,-0.071832,0.519063,0.283544,0.063098,-0.018219,0.027764,-0.062317,-0.496067,-0.866045,0.003250,-0.008771,0.007540,30.022892,6.359421,-22.670212,,,,,,,
1512178129.378463,-0.072701,0.519984,0.284473,0.033123,-0.024690,0.034769,-0.063037,-0.496866,-0.865535,0.003192,-0.004080,0.010188,30.098530,6.509537,-22.745773,,,,,,,
1512178129.398431,-0.073784,0.519833,0.285013,-0.026315,-0.050383,0.017828,-0.063979,-0.496735,-0.865541,0.001448,-0.005188,0.010637,29.649570,6.733871,-22.666840,,,,,,,
1512178129.418451,-0.074760,0.518703,0.285248,-0.067848,-0.038690,0.016202,-0.064866,-0.495754,-0.866037,0.001084,-0.005451,0.012827,29.950886,7.034317,-22.744247,,,,,,,
1512178129.438440,-0.075395,0.517222,0.285502,-0.076380,-0.018410,0.017215,-0.065471,-0.494468,-0.866727,-0.001164,-0.000375,0.008847,29.573856,6.583755,-22.741272,,,,,,,
1512178129.458459,-0.076005,0.516030,0.285998,-0.045761,-0.022674,0.034699,-0.066044,-0.493431,-0.867274,0.005452,0.002770,-0.003164,29.498829,6.583649,-22.815628,,,,,,,
1512178129.478448,-0.077491,0.515490,0.287094,-0.015220,-0.064329,0.055251,-0.067354,-0.492961,-0.867440,0.001497,0.008418,-0.009894,29.495487,5.833633,-22.740982,,,,,,,
1512178129.498437,-0.079159,0.515365,0.288049,-0.001993,-0.054640,0.029893,-0.068805,-0.492852,-0.867388,-0.010373,0.011697,0.000079,29.648975,6.583862,-22.516907,,,,,,,
1512178129.518457,-0.080192,0.515472,0.288296,0.009118,-0.033208,0.003477,-0.069697,-0.492945,-0.867264,-0.008321,0.010798,0.004349,29.423908,6.583527,-22.665009,,,,,,,
1512178129.538446,-0.080570,0.515668,0.288546,0.011023,-0.000124,0.018543,-0.070017,-0.493116,-0.867142,-0.009741,0.001447,0.006378,29.798862,6.584091,-22.743179,,,,,,,
1512178129.558465,-0.080572,0.515570,0.288838,-0.009992,-0.002254,0.000109,-0.070023,-0.493030,-0.867190,0.000656,0.012623,-0.003370,29.499989,6.808640,-22.515533,,,,,,,
1512178129.578454,-0.080539,0.515365,0.288356,-0.004151,-0.011793,-0.030753,-0.070002,-0.492852,-0.867293,0.003275,0.008279,-0.001039,29.498859,6.583649,-22.740631,,,,,,,
1512178129.598443,-0.080970,0.515724,0.288075,0.032663,-0.035300,-0.002588,-0.070362,-0.493165,-0.867086,0.006275,-0.001418,0.002187,29.573231,6.433746,-22.666351,,,,,,,
1512178129.618463,-0.081916,0.516506,0.288341,0.033535,-0.036390,0.009148,-0.071150,-0.493845,-0.866634,0.000746,0.002146,0.016002,29.425632,6.958527,-22.589828,,,,,,,
1512178129.638452,-0.082587,0.516543,0.288277,-0.019410,-0.031084,-0.011854,-0.071731,-0.493877,-0.866568,0.000274,-0.000034,0.021277,29.649204,6.658859,-22.741882,,,,,,,
1512178129.658471,-0.082446,0.515638,0.287571,-0.054262,0.000943,-0.030371,-0.071645,-0.493090,-0.867023,0.000005,-0.002760,0.018070,29.498631,6.508636,-22.515671,,,,,,,
1512178129.678460,-0.081896,0.514717,0.286754,-0.037084,-0.002219,-0.037595,-0.071205,-0.492289,-0.867515,0.005959,0.013346,-0.002008,29.498066,6.433640,-22.965698,,,,,,,
1512178129.698480,-0.081693,0.514629,0.285776,0.004461,-0.020320,-0.037058,-0.071033,-0.492212,-0.867573,0.000949,0.000329,-0.003506,29.424763,6.808533,-22.964890,,,,,,,
1512178129.718469,-0.081993,0.514664,0.285374,-0.013137,-0.020411,-0.004265,-0.071292,-0.492243,-0.867534,-0.000287,-0.004766,-0.001149,29.346317,6.058411,-23.114594,,,,,,,
1512178129.738458,-0.082413,0.514080,0.285446,-0.044241,-0.022618,0.007003,-0.071679,-0.491734,-0.867790,0.001504,0.002766,0.002068,29.723530,6.508972,-22.742584,,,,,,,
1512178129.758477,-0.082686,0.513009,0.285467,-0.051629,-0.005528,0.003759,-0.071960,-0.490801,-0.868295,-0.005814,0.001330,0.005624,29.949497,6.734314,-22.819382,,,,,,,
1512178129.778467,-0.082619,0.512315,0.285362,-0.016327,-0.006524,-0.003193,-0.071930,-0.490197,-0.868639,-0.001800,0.007103,-0.004195,29.574497,6.733749,-22.816208,,,,,,,
1512178129.798486,-0.082890,0.512841,0.285567,0.049492,-0.005395,0.012685,-0.072144,-0.490655,-0.868362,0.000794,0.001443,-0.000305,29.650593,6.958862,-22.666748,,,,,,,
1512178129.818475,-0.082906,0.514279,0.286193,0.080179,0.027736,0.028170,-0.072099,-0.491907,-0.867657,0.000352,-0.004889,0.009457,29.495716,5.908630,-22.965942,,,,,,,
1512178129.838464,-0.082716,0.515700,0.287161,0.068345,0.028771,0.034397,-0.071876,-0.493144,-0.866973,0.009361,-0.005071,-0.004487,29.648609,6.508865,-22.591949,,,,,,,
1512178129.858484,-0.083240,0.516507,0.288075,0.020320,-0.020438,0.035664,-0.072298,-0.493846,-0.866539,0.004274,0.002925,0.003776,29.423527,6.508530,-22.740036,,,,,,,
1512178129.878473,-0.083917,0.515780,0.288432,-0.064498,-0.025855,0.006697,-0.072915,-0.493214,-0.866847,0.004021,-0.000912,0.013072,29.422398,6.283524,-22.965134,,,,,,,
1512178129.898492,-0.084243,0.514276,0.288304,-0.072973,-0.009839,0.004499,-0.073259,-0.491905,-0.867561,-0.001433,-0.001488,0.011024,29.647846,6.358871,-22.742020,,,,,,,
1512178129.918481,-0.084316,0.513604,0.288718,-0.000891,0.012650,0.030140,-0.073351,-0.491319,-0.867886,0.000292,0.004548,-0.000065,29.348194,6.433411,-22.739426,,,,,,,
1512178129.938470,-0.084357,0.514324,0.289727,0.054280,0.022319,0.046965,-0.073356,-0.491946,-0.867530,-0.000282,0.000522,0.005164,29.422779,6.358521,-22.890091,,,,,,,
1512178129.958490,-0.084392,0.515008,0.290959,0.021291,0.026553,0.044373,-0.073359,-0.492542,-0.867191,-0.009878,0.010609,0.011021,29.422474,6.283524,-22.815140,,,,,,,
1512178129.978479,-0.084354,0.514782,0.291216,-0.029084,0.000934,-0.005486,-0.073334,-0.492345,-0.867305,-0.011276,0.012869,0.005260,29.573414,6.508759,-22.966293,,,,,,,
1512178129.998498,-0.084420,0.514130,0.290952,-0.024860,-0.020428,-0.004435,-0.073419,-0.491778,-0.867620,-0.001502,0.002093,-0.005976,29.423038,6.433533,-23.040070,,,,,,,
1512178130.018487,-0.084881,0.514372,0.291164,0.035586,-0.008624,0.015672,-0.073809,-0.491988,-0.867468,-0.008268,0.002730,0.015447,29.196461,6.058182,-22.813324,,,,,,,
1512178130.038507,-0.084713,0.515239,0.291566,0.041207,0.030939,-0.000100,-0.073627,-0.492743,-0.867055,-0.013989,0.011267,0.025670,29.122700,6.358078,-23.037552,,,,,,,
1512178130.058496,-0.083605,0.515430,0.291094,-0.009403,0.041607,-0.033845,-0.072659,-0.492909,-0.867042,0.001049,0.002918,0.015663,29.045033,5.757965,-22.962189,,,,,,,
1512178130.078485,-0.083013,0.515054,0.290491,-0.014030,0.005240,-0.013785,-0.072161,-0.492582,-0.867269,0.010119,-0.001253,-0.003443,29.648182,6.433868,-22.741974,,,,,,,
1512178130.098504,-0.083050,0.515728,0.290646,0.068783,0.012807,0.007699,-0.072165,-0.493168,-0.866935,0.000158,0.009053,0.008980,29.574238,6.658752,-22.666245,,,,,,,
1512178130.118493,-0.081849,0.517758,0.290870,0.109629,0.106899,-0.008440,-0.071041,-0.494933,-0.866022,-0.012348,0.005416,0.019815,29.497929,6.358643,-22.590744,,,,,,,
1512178130.138513,-0.079245,0.519478,0.290551,0.060853,0.118604,-0.024032,-0.068719,-0.496427,-0.865354,-0.003532,-0.007418,-0.006747,29.572330,6.208755,-22.441452,,,,,,,
1512178130.158502,-0.078119,0.520094,0.290270,0.016787,-0.000064,-0.008026,-0.067720,-0.496962,-0.865126,0.012987,-0.000230,-0.021059,29.644703,5.683868,-22.967316,,,,,,,
1512178130.178491,-0.078700,0.519874,0.290332,-0.022960,-0.034336,0.009405,-0.068232,-0.496771,-0.865196,0.002528,-0.010721,-0.005349,29.572361,6.208755,-22.366455,,,,,,,
1512178130.198510,-0.079525,0.519081,0.290773,-0.046715,-0.021598,0.027223,-0.068977,-0.496083,-0.865531,-0.000024,-0.006069,0.003699,29.346470,6.058411,-22.814606,,,,,,,
1512178130.218499,-0.080084,0.518141,0.291413,-0.039268,-0.009835,0.029507,-0.069498,-0.495266,-0.865957,-0.004767,-0.000279,-0.003244,29.798420,6.509094,-22.968216,,,,,,,
1512178130.238519,-0.080299,0.517727,0.291899,-0.003823,0.006279,0.015156,-0.069701,-0.494906,-0.866146,-0.010179,0.010577,-0.002399,29.797855,6.359085,-22.743286,,,,,,,
1512178130.258508,-0.080207,0.517948,0.292125,0.009080,0.013782,0.007903,-0.069613,-0.495098,-0.866044,-0.019590,0.008068,0.001725,29.648869,6.583862,-22.741913,,,,,,,
1512178130.278528,-0.080049,0.517645,0.292008,-0.033195,-0.010802,-0.015180,-0.069488,-0.494835,-0.866204,-0.006562,0.007561,0.002587,29.647968,6.358871,-22.517014,,,,,,,
1512178130.298517,-0.080408,0.516772,0.291467,-0.044858,-0.040721,-0.020785,-0.069833,-0.494076,-0.866609,-0.000434,0.007046,0.006975,29.647556,6.283859,-22.667053,,,,,,,
1512178130.318506,-0.080890,0.516310,0.291055,-0.006622,-0.020388,-0.011634,-0.070269,-0.493675,-0.866803,-0.008909,0.004661,0.015561,29.947178,6.209320,-22.744629,,,,,,,
1512178130.338525,-0.080799,0.516835,0.290979,0.047679,0.018139,-0.005382,-0.070170,-0.494131,-0.866551,-0.006643,0.007589,0.004139,29.798527,6.509094,-22.743225,,,,,,,
1512178130.358514,-0.080521,0.518011,0.291066,0.053985,0.008521,-0.001063,-0.069882,-0.495153,-0.865991,-0.003452,0.011556,-0.000510,29.797215,6.209091,-22.668365,,,,,,,
1512178130.378534,-0.080836,0.518419,0.290789,-0.005304,-0.037445,-0.027665,-0.070138,-0.495507,-0.865767,-0.002341,0.011147,0.007079,29.646870,6.133865,-22.667130,,,,,,,
1512178130.398496,-0.081184,0.517514,0.289704,-0.069990,-0.044980,-0.048883,-0.070476,-0.494721,-0.866190,0.000698,-0.001831,0.007288,29.873142,6.434204,-22.818893,,,,,,,
1512178130.418485,-0.081219,0.516096,0.288487,-0.068975,-0.016147,-0.044505,-0.070563,-0.493489,-0.866885,-0.004892,-0.004543,0.012027,29.873493,6.509201,-22.818863,,,,,,,
1512178130.438504,-0.080858,0.515245,0.287634,-0.024516,0.000972,-0.024612,-0.070284,-0.492748,-0.867329,0.011629,-0.007664,-0.002117,29.647770,6.358871,-22.892014,,,,,,,
1512178130.458493,-0.081053,0.515308,0.287480,0.014399,-0.026797,0.006774,-0.070450,-0.492803,-0.867284,0.012299,-0.009806,-0.003138,29.798267,6.434097,-22.593262,,,,,,,
1512178130.478513,-0.082073,0.515673,0.287962,0.014092,-0.039651,0.024848,-0.071320,-0.493121,-0.867033,0.001648,-0.007841,0.016401,29.872105,6.209198,-22.893997,,,,,,,
1512178130.498502,-0.082601,0.515571,0.288459,-0.017772,-0.000169,0.019191,-0.071783,-0.493032,-0.867045,-0.000636,-0.007945,0.021494,29.724171,6.658981,-22.817505,,,,,,,
1512178130.518521,-0.082435,0.514852,0.288669,-0.044220,0.014772,0.008202,-0.071667,-0.492406,-0.867410,0.001492,0.006078,0.017770,29.648563,6.508865,-22.666946,,,,,,,
1512178130.538510,-0.081869,0.513817,0.288525,-0.055712,0.031868,-0.005766,-0.071218,-0.491505,-0.867958,-0.001215,0.003255,0.006095,29.423496,6.508530,-22.815033,,,,,,,
1512178130.558499,-0.081146,0.513079,0.288266,-0.023719,0.014827,-0.007495,-0.070620,-0.490862,-0.868371,0.003115,0.009020,-0.012641,29.647816,6.358871,-22.817017,,,,,,,
1512178130.578519,-0.081343,0.513231,0.288227,0.017658,-0.022518,0.002568,-0.070785,-0.490995,-0.868282,0.003738,0.008161,-0.010533,29.643284,5.383865,-23.117462,,,,,,,
1512178130.598508,-0.081933,0.513737,0.288400,0.024015,-0.025710,0.005852,-0.071276,-0.491435,-0.867993,-0.003064,0.003673,0.003674,29.645679,5.908859,-23.042221,,,,,,,
1512178130.618526,-0.082395,0.513950,0.288531,0.004930,-0.004366,0.000318,-0.071670,-0.491621,-0.867855,-0.009965,0.005522,0.018520,29.724201,6.658981,-22.742508,,,,,,,
1512178130.638515,-0.081709,0.513817,0.288284,-0.015118,0.040485,-0.010479,-0.071079,-0.491505,-0.867969,-0.001873,-0.001873,0.009266,29.650318,6.883865,-22.516769,,,,,,,
1512178130.658504,-0.081535,0.513411,0.288081,-0.018444,-0.014009,-0.005386,-0.070944,-0.491151,-0.868181,0.013815,-0.001937,-0.005858,29.649570,6.733871,-22.666840,,,,,,,
1512178130.678524,-0.082038,0.513133,0.288098,-0.006886,-0.030031,0.004321,-0.071392,-0.490910,-0.868280,-0.001468,0.000233,0.003000,29.645863,5.908859,-22.667221,,,,,,,
1512178130.698514,-0.082608,0.513320,0.288035,0.017862,-0.019285,-0.009142,-0.071880,-0.491072,-0.868148,-0.002583,0.001342,0.011611,29.873524,6.509201,-22.743866,,,,,,,
1512178130.718533,-0.082570,0.513928,0.287933,0.035874,0.009566,-0.001319,-0.071822,-0.491602,-0.867853,0.001449,-0.001058,0.015039,29.798634,6.509094,-22.518219,,,,,,,
1512178130.738523,-0.082469,0.514564,0.288341,0.029124,0.014857,0.020991,-0.071709,-0.492156,-0.867549,-0.000328,0.002913,0.012034,29.798679,6.509094,-22.443222,,,,,,,
1512178130.758542,-0.082411,0.514719,0.288536,-0.004618,-0.006515,-0.003028,-0.071652,-0.492290,-0.867477,-0.007740,0.013576,-0.001297,29.797520,6.284088,-22.743332,,,,,,,
1512178130.778531,-0.082547,0.514351,0.287953,-0.028604,-0.023572,-0.035413,-0.071785,-0.491970,-0.867647,-0.004387,0.013745,-0.004484,29.948521,6.509323,-22.744492,,,,,,,
1512178130.798520,-0.082460,0.513970,0.286964,-0.013626,-0.016066,-0.038368,-0.071725,-0.491638,-0.867841,0.006097,0.002945,-0.008044,29.497852,6.358643,-22.740738,,,,,,,
1512178130.818540,-0.082401,0.514448,0.286631,0.040129,0.009575,-0.000189,-0.071654,-0.492055,-0.867610,-0.001298,0.002339,0.008663,29.498524,6.508636,-22.740677,,,,,,,
1512178130.838529,-0.082159,0.515335,0.286934,0.047456,0.019182,0.008479,-0.071409,-0.492826,-0.867193,-0.003298,0.004804,0.010900,29.425327,6.883530,-22.514862,,,,,,,
1512178130.858548,-0.081890,0.515893,0.287034,0.018922,0.014896,-0.006875,-0.071153,-0.493312,-0.866938,0.003099,0.009700,0.006372,29.424198,6.658524,-22.739960,,,,,,,
1512178130.878536,-0.081467,0.515870,0.286543,-0.017006,0.004199,-0.026621,-0.070787,-0.493292,-0.866979,-0.004195,0.005514,0.012868,29.422855,6.358521,-22.740097,,,,,,,
1512178130.898525,-0.080881,0.515145,0.285652,-0.045590,0.007382,-0.038752,-0.070308,-0.492661,-0.867377,0.005809,-0.003174,0.013678,29.648640,6.508865,-22.516953,,,,,,,
1512178130.918545,-0.080360,0.514332,0.284933,-0.040635,0.008410,-0.016291,-0.069888,-0.491953,-0.867812,0.002505,-0.011923,0.011367,29.649158,6.658859,-22.816879,,,,,,,
1512178130.938534,-0.080318,0.513889,0.285031,-0.013456,0.006257,0.017147,-0.069869,-0.491568,-0.868032,0.001128,-0.005213,0.004766,29.799885,6.809097,-22.743088,,,,,,,
1512178130.958554,-0.080345,0.513732,0.285315,-0.007860,0.010570,0.001253,-0.069899,-0.491431,-0.868107,-0.002825,0.005621,0.009175,29.797855,6.359085,-22.743286,,,,,,,
1512178130.978543,-0.079522,0.513606,0.284617,-0.014552,0.034148,-0.044604,-0.069189,-0.491321,-0.868226,-0.006907,0.005023,0.007524,29.874531,6.734207,-22.743759,,,,,,,
1512178130.998563,-0.078152,0.513023,0.283607,-0.046703,0.043688,-0.034378,-0.068022,-0.490813,-0.868605,-0.004778,-0.007661,-0.000093,29.422810,6.358521,-22.815094,,,,,,,
1512178131.018552,-0.077285,0.512222,0.282810,-0.033957,0.015930,-0.033225,-0.067299,-0.490115,-0.869056,0.001931,0.005817,-0.008279,29.949909,6.809326,-22.669357,,,,,,,
1512178131.038541,-0.076583,0.512224,0.282203,0.014943,0.023468,-0.023960,-0.066689,-0.490117,-0.869102,-0.007545,0.008489,-0.002038,29.649204,6.658859,-22.741882,,,,,,,
1512178131.058560,-0.076028,0.512923,0.281807,0.039356,0.014945,-0.018307,-0.066180,-0.490726,-0.868797,-0.000516,0.002750,-0.001244,30.025959,7.034424,-22.594894,,,,,,,
1512178131.078549,-0.076110,0.513420,0.281749,0.008022,-0.011856,0.005664,-0.066233,-0.491159,-0.868548,-0.002751,0.000726,0.004794,30.024540,6.734436,-22.745026,,,,,,,
1512178131.098569,-0.076504,0.512953,0.281818,-0.036537,-0.011894,-0.006705,-0.066593,-0.490752,-0.868751,-0.013958,0.008834,0.011405,29.723560,6.508972,-22.667587,,,,,,,
1512178131.118557,-0.076028,0.512116,0.281118,-0.039244,0.019133,-0.035422,-0.066210,-0.490023,-0.869191,-0.005750,0.005679,0.008321,29.874531,6.734207,-22.743759,,,,,,,
1512178131.138546,-0.075382,0.511689,0.280372,-0.009590,0.004201,-0.024384,-0.065665,-0.489650,-0.869443,0.006278,-0.008580,0.000470,29.874348,6.659210,-22.443787,,,,,,,
1512178131.158566,-0.075204,0.511789,0.280036,0.008393,0.003146,-0.015597,-0.065506,-0.489738,-0.869405,0.000016,-0.001213,0.016424,30.176380,7.109665,-22.446121,,,,,,,
1512178131.178555,-0.074597,0.511943,0.279513,0.001214,0.033074,-0.031589,-0.064973,-0.489872,-0.869370,-0.000106,-0.006954,0.021256,29.874531,6.734207,-22.743759,,,,,,,
1512178131.198575,-0.073365,0.511707,0.278894,-0.022448,0.051170,-0.018010,-0.063910,-0.489667,-0.869564,0.004950,-0.013934,0.004971,30.174610,6.734650,-22.596298,,,,,,,
1512178131.218564,-0.072415,0.511121,0.278794,-0.031340,0.039362,0.003140,-0.063105,-0.489155,-0.869911,0.007929,-0.006374,-0.003624,30.025288,6.884430,-22.594955,,,,,,,
1512178131.238584,-0.071755,0.510777,0.278862,-0.006872,0.034050,0.005607,-0.062543,-0.488855,-0.870120,0.000638,0.001154,-0.009839,30.024647,6.734436,-22.520035,,,,,,,
1512178131.258573,-0.071668,0.511260,0.279113,0.037869,-0.010741,0.006102,-0.062450,-0.489276,-0.869890,-0.001164,0.009876,-0.010573,30.100590,6.959549,-22.670563,,,,,,,
1512178131.278562,-0.071973,0.511963,0.279229,0.024186,-0.011810,-0.004761,-0.062691,-0.489890,-0.869527,0.002647,0.003638,-0.005534,30.023869,6.584427,-22.745102,,,,,,,
1512178131.298581,-0.072115,0.512073,0.278829,-0.013936,-0.019312,-0.020263,-0.062810,-0.489985,-0.869465,-0.004634,0.002253,0.000874,30.024570,6.734436,-22.670029,,,,,,,
1512178131.318570,-0.072682,0.511369,0.278229,-0.043690,-0.059935,-0.028299,-0.063329,-0.489372,-0.869773,-0.004359,0.003349,0.001166,30.173832,6.584656,-22.821365,,,,,,,
1512178131.338590,-0.073289,0.510469,0.277336,-0.042522,-0.041770,-0.034620,-0.063889,-0.488586,-0.870173,0.002609,-0.002594,0.012385,30.028324,7.559433,-22.594650,,,,,,,
1512178131.358579,-0.073292,0.509946,0.276780,-0.014085,-0.002242,-0.010612,-0.063910,-0.488130,-0.870428,0.005026,-0.009154,0.016073,29.725285,6.883987,-22.592407,,,,,,,
1512178131.378567,-0.074032,0.510039,0.277166,0.014993,-0.055696,0.033330,-0.064551,-0.488212,-0.870335,0.014120,-0.002160,-0.011394,29.723606,6.508972,-22.592575,,,,,,,
1512178131.398549,-0.076041,0.510473,0.277874,0.031286,-0.085544,0.013206,-0.066283,-0.488590,-0.869992,0.009704,0.013568,-0.008151,29.651005,7.033875,-22.516708,,,,,,,
1512178131.418538,-0.078261,0.511259,0.277547,0.043748,-0.170880,-0.034880,-0.068184,-0.489276,-0.869460,0.022225,0.021945,-0.049425,29.649799,6.808868,-22.891800,,,,,,,
1512178131.438558,-0.084574,0.512398,0.276355,0.054587,-0.454960,-0.060234,-0.073624,-0.490269,-0.868456,-0.013809,0.010151,0.062395,29.348820,6.583420,-22.814362,,,,,,,
1512178131.458547,-0.088487,0.512874,0.275332,0.024409,-0.158105,-0.024452,-0.077001,-0.490684,-0.867929,-0.019724,-0.048989,0.066506,28.896275,6.057739,-23.185776,,,,,,,
1512178131.478566,-0.088603,0.514030,0.276688,0.088411,0.104491,0.114909,-0.077052,-0.491690,-0.867354,-0.006047,-0.032480,0.019881,28.671238,6.057404,-23.258865,,,,,,,
1512178131.498555,-0.090028,0.515473,0.280713,0.074512,-0.008883,0.176143,-0.078224,-0.492946,-0.866536,0.030006,0.002575,-0.015895,29.047993,6.432968,-23.111877,,,,,,,
1512178131.518544,-0.092106,0.514923,0.283760,-0.073609,-0.044225,0.105644,-0.080049,-0.492468,-0.866641,0.024904,0.005530,-0.025388,28.898441,6.507736,-22.885559,,,,,,,
1512178131.538564,-0.094530,0.511891,0.284865,-0.193064,-0.122250,0.041815,-0.082290,-0.489826,-0.867928,0.024429,0.001545,-0.069206,29.048374,6.507965,-23.036835,,,,,,,
1512178131.558553,-0.098197,0.508380,0.285201,-0.158722,-0.198008,0.023925,-0.085640,-0.486763,-0.869326,-0.023246,0.011162,-0.078336,28.599018,6.657288,-23.107941,,,,,,,
1512178131.578572,-0.101819,0.507474,0.285085,0.026182,-0.178451,-0.005315,-0.088833,-0.485971,-0.869448,-0.034320,0.024561,-0.007551,28.525654,7.032181,-23.182129,,,,,,,
1512178131.598561,-0.103265,0.508345,0.285639,0.020438,0.061814,0.031684,-0.090047,-0.486732,-0.868898,-0.076930,-0.000786,0.068864,28.447956,6.432068,-23.181778,,,,,,,
1512178131.618550,-0.099966,0.506938,0.285123,-0.115430,0.179296,-0.062622,-0.087248,-0.485503,-0.869870,-0.026674,0.007140,0.042447,28.299686,6.806839,-23.105331,,,,,,,
1512178131.638570,-0.094867,0.504669,0.281772,-0.077618,0.126142,-0.159266,-0.082916,-0.483517,-0.871399,0.043579,0.014249,-0.050797,28.972996,6.432846,-23.111237,,,,,,,
1512178131.658559,-0.094213,0.506185,0.279630,0.157018,-0.079887,-0.046782,-0.082277,-0.484844,-0.870722,0.030519,-0.013279,-0.034414,28.747959,6.432510,-23.184326,,,,,,,
1512178131.678579,-0.096568,0.511011,0.281422,0.274081,-0.039399,0.096842,-0.084100,-0.489059,-0.868186,-0.004004,-0.020691,0.012382,28.670490,5.907394,-23.408936,,,,,,,
1512178131.698568,-0.098131,0.515382,0.284606,0.168505,0.046949,0.103074,-0.085247,-0.492867,-0.865919,-0.003178,0.005181,0.061048,28.822514,6.357635,-23.410004,,,,,,,
1512178131.718587,-0.095997,0.515656,0.285315,-0.052217,0.140850,-0.019198,-0.083387,-0.493106,-0.865964,0.012769,0.015246,0.044095,28.747059,6.207520,-22.959427,,,,,,,
1512178131.738576,-0.092529,0.513530,0.283481,-0.125908,0.120562,-0.075767,-0.080479,-0.491255,-0.867290,0.028599,0.012220,0.032558,29.198338,6.508194,-23.113113,,,,,,,
1512178131.758565,-0.090578,0.511301,0.282816,-0.099962,0.046689,0.027758,-0.078886,-0.489312,-0.868533,0.020445,0.010125,0.000339,28.972660,6.357849,-23.111267,,,,,,,
1512178131.778585,-0.091707,0.510717,0.284238,0.018743,-0.039729,0.065423,-0.079893,-0.488803,-0.868728,0.000212,0.045703,0.001464,29.199467,6.733185,-22.888016,,,,,,,
1512178131.798574,-0.092031,0.511919,0.284987,0.063590,0.035244,0.000239,-0.080120,-0.489851,-0.868116,-0.023121,0.053252,0.026793,28.972630,6.357849,-23.186264,,,,,,,
1512178131.818593,-0.089878,0.512093,0.284331,-0.040112,0.123827,-0.042534,-0.078243,-0.490003,-0.868202,-0.029713,0.029233,0.033348,29.121616,6.133072,-23.187653,,,,,,,
1512178131.838582,-0.085616,0.510021,0.282615,-0.138657,0.186766,-0.075724,-0.074629,-0.488195,-0.869538,-0.016573,0.022345,0.022766,29.198444,6.508194,-22.888123,,,,,,,
1512178131.858571,-0.080953,0.506920,0.280537,-0.159988,0.150414,-0.077227,-0.070695,-0.485487,-0.871381,0.012285,0.025618,-0.015552,29.349506,6.733414,-22.814285,,,,,,,
1512178131.878591,-0.079663,0.505156,0.278776,-0.040911,-0.035289,-0.066552,-0.069639,-0.483944,-0.872324,0.032423,0.032924,-0.029593,29.426228,7.108536,-22.739761,,,,,,,
1512178131.898580,-0.080311,0.505900,0.277606,0.072917,-0.059710,-0.053262,-0.070176,-0.484595,-0.871919,0.018280,0.018088,0.005784,29.351307,7.108414,-22.589111,,,,,,,
1512178131.918599,-0.080243,0.508067,0.276659,0.112364,0.018324,-0.049219,-0.070032,-0.486489,-0.870875,0.011469,-0.008384,0.026759,29.349277,6.658417,-22.589325,,,,,,,
1512178131.938588,-0.078784,0.509896,0.276113,0.072454,0.075881,-0.018683,-0.068691,-0.488086,-0.870088,0.014538,-0.019467,0.025056,29.047428,6.282959,-22.886948,,,,,,,
1512178131.958608,-0.076772,0.510133,0.275969,-0.019525,0.093863,0.000302,-0.066932,-0.488293,-0.870109,0.011024,-0.017276,0.012382,29.500248,6.883636,-22.665497,,,,,,,
1512178131.978597,-0.075456,0.508406,0.275900,-0.118827,0.047768,0.008300,-0.065849,-0.486786,-0.871036,0.019417,-0.011917,-0.000165,29.500629,6.958649,-22.590469,,,,,,,
1512178131.998586,-0.075171,0.505137,0.275842,-0.180795,-0.012158,0.013590,-0.065721,-0.483927,-0.872637,0.035493,-0.008108,-0.022658,29.575962,7.033752,-22.591064,,,,,,,
1512178132.018605,-0.076265,0.502175,0.275975,-0.120254,-0.076179,0.023838,-0.066785,-0.481333,-0.873990,0.025510,0.001033,-0.032917,29.726673,7.183990,-22.517273,,,,,,,
1512178132.038594,-0.078000,0.501328,0.276663,-0.001081,-0.061069,0.038410,-0.068332,-0.480591,-0.874278,0.013095,0.005112,-0.012623,29.353062,7.483429,-22.438950,,,,,,,
1512178132.058614,-0.078848,0.502311,0.277491,0.066266,-0.000063,0.030003,-0.069036,-0.481453,-0.873749,-0.001352,0.002006,0.005600,29.353291,7.558426,-22.663910,,,,,,,
1512178132.078603,-0.078922,0.503657,0.278189,0.060928,0.010609,0.031029,-0.069050,-0.482632,-0.873097,0.006489,0.000759,0.003605,29.202045,7.258194,-22.437775,,,,,,,
1512178132.098592,-0.078877,0.504079,0.279020,0.003261,-0.002308,0.036545,-0.068995,-0.483001,-0.872897,0.005671,0.002624,-0.010236,29.500706,6.958649,-22.440460,,,,,,,
1512178132.118611,-0.079500,0.503563,0.279375,-0.030342,-0.033273,0.003969,-0.069558,-0.482549,-0.873102,0.003564,0.009985,-0.011526,29.274082,6.583298,-22.288727,,,,,,,
1512178132.138600,-0.080422,0.503232,0.279082,-0.002336,-0.056696,-0.014897,-0.070376,-0.482259,-0.873197,0.002825,0.007970,-0.005129,29.051182,7.032974,-22.136612,,,,,,,
1512178132.158620,-0.081157,0.503736,0.278846,0.041280,-0.037410,-0.007799,-0.070998,-0.482701,-0.872903,-0.005159,0.003025,-0.000449,28.901188,7.032745,-22.135330,,,,,,,
1512178132.178609,-0.081518,0.504994,0.278557,0.067105,-0.022394,-0.022300,-0.071264,-0.483802,-0.872271,-0.005167,0.015831,0.000155,28.901142,7.032745,-22.210327,,,,,,,
1512178132.198629,-0.081634,0.506053,0.277706,0.035666,-0.029848,-0.054760,-0.071323,-0.484728,-0.871752,-0.002362,0.016528,-0.003736,28.978321,7.482864,-21.910767,,,,,,,
1512178132.218618,-0.081657,0.506026,0.276053,-0.026900,-0.055545,-0.077082,-0.071344,-0.484705,-0.871763,0.000375,0.004068,-0.006136,28.524906,6.732178,-21.982285,,,,,,,
1512178132.238607,-0.082449,0.505166,0.274234,-0.054706,-0.097251,-0.073364,-0.072069,-0.483952,-0.872122,0.003191,0.010137,0.001089,28.151783,7.106628,-21.603928,,,,,,,
1512178132.258626,-0.083100,0.504173,0.272361,-0.053428,-0.055566,-0.083860,-0.072676,-0.483084,-0.872553,-0.015657,0.016531,0.013636,28.527790,7.332184,-21.607010,,,,,,,
1512178132.278615,-0.082379,0.503630,0.269859,-0.012198,-0.019102,-0.125778,-0.072069,-0.482608,-0.872866,-0.014158,0.020969,0.004244,28.452229,7.182068,-21.381439,,,,,,,
1512178132.298635,-0.081684,0.504391,0.266625,0.047889,-0.052072,-0.150606,-0.071433,-0.483274,-0.872550,0.002310,0.023359,0.001044,28.377338,7.181961,-21.155807,,,,,,,
1512178132.318624,-0.080778,0.505929,0.263202,0.072488,-0.032806,-0.155517,-0.070582,-0.484620,-0.871872,0.012217,-0.002165,0.014618,28.151447,6.956619,-20.929001,,,,,,,
1512178132.338613,-0.080149,0.507381,0.260536,0.051295,-0.035084,-0.098263,-0.069977,-0.485890,-0.871214,0.015640,-0.006237,0.005736,28.075993,6.881516,-21.153397,,,,,,,
1512178132.358632,-0.080496,0.507843,0.259237,0.003527,-0.049146,-0.046767,-0.070261,-0.486294,-0.870966,0.002939,0.020016,0.008982,28.001820,7.031403,-20.852692,,,,,,,
1512178132.378621,-0.080254,0.507214,0.257394,-0.050854,-0.018129,-0.109279,-0.070075,-0.485744,-0.871288,0.000967,0.028972,0.014156,27.627689,7.180832,-20.474426,,,,,,,
1512178132.398630,-0.078690,0.506314,0.253902,-0.048919,-0.006273,-0.161447,-0.068746,-0.484957,-0.871832,-0.006266,0.025286,0.002188,28.078251,7.331512,-20.703186,,,,,,,
1512178132.418619,-0.077219,0.506308,0.250109,0.011851,-0.031813,-0.162787,-0.067464,-0.484952,-0.871935,-0.002681,0.022626,-0.012251,27.629826,7.630844,-20.249222,,,,,,,
1512178132.438637,-0.076703,0.507599,0.246410,0.068474,-0.077635,-0.171717,-0.066966,-0.486080,-0.871345,0.017985,0.025234,-0.010079,27.927204,7.031281,-20.102051,,,,,,,
1512178132.458627,-0.076343,0.509081,0.242406,0.055815,-0.078710,-0.180435,-0.066598,-0.487375,-0.870649,0.007668,0.003794,0.002928,27.703922,7.405945,-20.024963,,,,,,,
1512178132.478616,-0.076149,0.509772,0.238811,0.006224,-0.075649,-0.147030,-0.066403,-0.487978,-0.870327,0.002271,0.004137,0.007869,27.179630,7.555161,-19.945435,,,,,,,
1512178132.498636,-0.076081,0.509297,0.235409,-0.054329,-0.070376,-0.159616,-0.066361,-0.487564,-0.870562,-0.002487,0.020050,0.012682,27.329029,7.405380,-19.796768,,,,,,,
1512178132.518625,-0.075465,0.508053,0.230833,-0.076990,-0.103426,-0.209097,-0.065871,-0.486477,-0.871207,0.003051,0.023922,-0.014093,27.030231,7.629944,-19.419128,,,,,,,
1512178132.538644,-0.075950,0.506975,0.225813,-0.057774,-0.168550,-0.214377,-0.066333,-0.485535,-0.871697,0.015582,0.017151,-0.021690,26.506351,7.854156,-19.189560,,,,,,,
1512178132.558633,-0.076682,0.506768,0.220706,-0.007407,-0.150278,-0.228505,-0.066979,-0.485354,-0.871748,-0.013267,0.013736,-0.005556,26.507374,8.079163,-19.189453,,,,,,,
1512178132.578622,-0.076608,0.507133,0.215196,-0.000549,-0.105356,-0.254904,-0.066901,-0.485673,-0.871577,-0.006677,0.018418,0.004862,26.131763,7.928589,-19.036346,,,,,,,
1512178132.598642,-0.074919,0.507607,0.208766,0.013992,-0.071069,-0.294015,-0.065411,-0.486087,-0.871459,-0.003299,0.011325,-0.010774,26.133411,8.303589,-19.111176,,,,,,,
