timestamp(unix),attitude_roll(radians),attitude_pitch(radians),attitude_yaw(radians),rotation_rate_x(radians/s),rotation_rate_y(radians/s),rotation_rate_z(radians/s),gravity_x(G),gravity_y(G),gravity_z(G),user_acc_x(G),user_acc_y(G),user_acc_z(G),magnetic_field_x(microteslas),magnetic_field_y(microteslas),magnetic_field_z(microteslas),latitude(degree),longitude(degree),altitude(meter),speed(m/s),course(degree),timestamp(unix),User Mark
1512179097.190062,-0.099221,0.442833,1.742675,-0.015941,0.239750,0.403448,-0.089503,-0.428501,-0.899097,0.071849,0.012211,-0.023892,0.746598,-14.556465,17.975845,,,,,,,
1512179097.210082,-0.097056,0.443736,1.752192,0.116969,0.345650,0.429194,-0.087519,-0.429317,-0.898904,0.058985,0.046870,0.000146,0.671220,-14.631569,17.901459,,,,,,,
1512179097.230071,-0.093107,0.445880,1.761689,0.128966,0.390566,0.415668,-0.083883,-0.431252,-0.898324,0.060720,0.055398,-0.002052,0.295655,-14.782143,18.129562,,,,,,,
1512179097.250060,-0.088674,0.446869,1.770672,0.052223,0.402200,0.415664,-0.079862,-0.432144,-0.898262,0.101987,0.052169,0.001029,0.519486,-15.006798,17.827545,,,,,,,
1512179097.270049,-0.084857,0.446214,1.780916,-0.009053,0.396575,0.510700,-0.076456,-0.431553,-0.898842,0.147852,0.042637,-0.015633,0.746217,-14.631462,17.900818,,,,,,,
1512179097.290068,-0.083183,0.444409,1.793985,-0.041272,0.323611,0.650699,-0.075016,-0.429925,-0.899743,0.166386,0.045708,-0.030494,0.448884,-14.031914,17.828644,,,,,,,
1512179097.310057,-0.083638,0.442360,1.809865,-0.019807,0.313798,0.771443,-0.075499,-0.428074,-0.900585,0.174391,0.057972,-0.012211,0.073091,-14.182472,17.606750,,,,,,,
1512179097.330046,-0.084374,0.441026,1.827833,0.034371,0.338290,0.848000,-0.076210,-0.426868,-0.901097,0.194069,0.071902,-0.009425,0.073838,-14.032478,17.756821,,,,,,,
1512179097.350036,-0.085599,0.440641,1.847389,0.075759,0.331798,0.924269,-0.077328,-0.426519,-0.901167,0.196026,0.071523,-0.000093,-0.601241,-14.033485,17.612564,,,,,,,
1512179097.370055,-0.087591,0.440339,1.868664,0.070381,0.324179,0.991326,-0.079134,-0.426246,-0.901139,0.199632,0.076636,-0.006911,-1.050704,-13.959160,17.991425,,,,,,,
1512179097.390044,-0.090786,0.439678,1.891050,0.062236,0.287767,1.030524,-0.082038,-0.425648,-0.901162,0.193931,0.074803,-0.001654,-1.801238,-14.035286,17.622757,,,,,,,
1512179097.410033,-0.094296,0.438959,1.913837,0.072633,0.298438,1.047772,-0.085230,-0.424998,-0.901173,0.193644,0.056559,0.003376,-2.468093,-12.236290,17.704330,,,,,,,
1512179097.430022,-0.098518,0.437967,1.937658,0.038527,0.267281,1.110065,-0.089075,-0.424099,-0.901224,0.188654,0.040036,0.008143,-2.318328,-12.311058,17.928024,,,,,,,
1512179097.450042,-0.103485,0.435234,1.962989,-0.043779,0.278753,1.188868,-0.093670,-0.421622,-0.901920,0.169109,0.049003,0.008473,-2.690993,-11.786613,17.856445,,,,,,,
1512179097.470031,-0.108360,0.431493,1.989183,-0.059977,0.307540,1.202591,-0.098236,-0.418227,-0.903015,0.151184,0.063964,-0.018280,-3.516036,-11.787849,17.788467,,,,,,,
1512179097.490020,-0.112764,0.427975,2.014579,-0.037784,0.315152,1.149634,-0.102376,-0.415030,-0.904030,0.152379,0.061300,-0.031685,-3.663863,-11.263069,17.414978,,,,,,,
1512179097.510039,-0.116042,0.425144,2.039235,0.009694,0.381517,1.118573,-0.105475,-0.412452,-0.904853,0.148138,0.045524,-0.029290,-4.111770,-10.813759,17.569016,,,,,,,
1512179097.530028,-0.117337,0.423919,2.063645,0.102645,0.464998,1.110617,-0.106706,-0.411336,-0.905216,0.155671,0.028829,-0.041759,-4.561538,-10.739418,17.347870,,,,,,,
1512179097.550017,-0.118090,0.424029,2.088397,0.153531,0.466106,1.127347,-0.107382,-0.411436,-0.905091,0.145758,0.012846,-0.049865,-4.632049,-9.764534,17.573959,,,,,,,
1512179097.570006,-0.119336,0.424617,2.113355,0.162129,0.437291,1.122042,-0.108481,-0.411972,-0.904716,0.133124,0.015305,-0.044610,-5.229537,-9.165428,17.204346,,,,,,,
1512179097.590026,-0.121395,0.424829,2.137878,0.128422,0.387086,1.094727,-0.110332,-0.412165,-0.904404,0.113521,0.008113,-0.028717,-5.228744,-9.015419,17.429413,,,,,,,
1512179097.610015,-0.123340,0.424115,2.161489,0.075695,0.396692,1.060951,-0.112127,-0.411514,-0.904480,0.108389,0.011109,-0.021439,-5.904754,-9.241447,17.435043,,,,,,,
1512179097.630004,-0.124675,0.422534,2.184660,0.037275,0.412645,1.063646,-0.113416,-0.410073,-0.904973,0.092694,0.014581,-0.042155,-6.427016,-8.642220,17.514771,,,,,,,
1512179097.649993,-0.126009,0.420485,2.207807,0.034176,0.405175,1.057178,-0.114728,-0.408203,-0.905653,0.072446,0.026383,-0.050798,-6.123351,-7.816765,17.437607,,,,,,,
1512179097.670012,-0.126728,0.419099,2.230650,0.088902,0.453366,1.037884,-0.115450,-0.406937,-0.906131,0.066332,0.043168,-0.049924,-6.047072,-7.516655,17.287109,,,,,,,
1512179097.690001,-0.125637,0.419588,2.253486,0.195814,0.561446,1.024885,-0.114437,-0.407384,-0.906059,0.054928,0.045293,-0.040169,-6.344329,-6.917107,17.364944,,,,,,,
1512179097.709990,-0.122675,0.421799,2.275880,0.244447,0.620343,0.987415,-0.111642,-0.409402,-0.905497,0.053033,0.044366,-0.035359,-6.118621,-6.766762,17.438095,,,,,,,
1512179097.729979,-0.119145,0.423544,2.297485,0.172277,0.626680,0.968269,-0.108360,-0.410994,-0.905175,0.076866,-0.003633,-0.005851,-6.418441,-6.692207,17.140671,,,,,,,
1512179097.749999,-0.114837,0.423074,2.319657,0.046544,0.702201,1.032805,-0.104482,-0.410565,-0.905825,0.090322,-0.012348,-0.006406,-6.265365,-6.016975,17.214722,,,,,,,
1512179097.769988,-0.109781,0.420292,2.343085,-0.044109,0.741452,1.101989,-0.100026,-0.408027,-0.907474,0.093480,0.017676,-0.042340,-6.414351,-5.792198,17.216095,,,,,,,
1512179097.789977,-0.105241,0.417256,2.367531,-0.004049,0.697667,1.126936,-0.096034,-0.405253,-0.909146,0.061305,0.055217,-0.063952,-6.412810,-5.417198,16.916260,,,,,,,
1512179097.809966,-0.102604,0.415899,2.390901,0.067690,0.545203,1.035764,-0.093692,-0.404012,-0.909943,0.021625,0.068380,-0.076874,-6.185592,-4.891853,16.614594,,,,,,,
1512179097.829985,-0.102172,0.415864,2.412818,0.114331,0.437490,0.981694,-0.093301,-0.403981,-0.909997,-0.027228,0.054036,-0.031821,-6.410598,-4.892189,16.616516,,,,,,,
1512179097.849974,-0.101337,0.416171,2.434338,0.112389,0.524027,0.974505,-0.092528,-0.404261,-0.909951,-0.068101,0.059550,0.007440,-6.632476,-4.217537,16.768738,,,,,,,
1512179097.869963,-0.097716,0.416490,2.456631,0.129229,0.712954,1.061759,-0.089220,-0.404553,-0.910152,-0.073179,0.037610,0.012706,-6.406127,-3.917183,16.766953,,,,,,,
1512179097.889952,-0.091983,0.416665,2.480002,0.089907,0.764179,1.057104,-0.083995,-0.404713,-0.910578,-0.060384,0.099858,-0.019857,-5.879073,-3.466393,16.837708,,,,,,,
1512179097.909972,-0.086141,0.416587,2.503122,0.103006,0.737531,1.036945,-0.078677,-0.404641,-0.911085,-0.062238,0.109125,-0.038531,-5.953124,-3.241508,16.688446,,,,,,,
1512179097.929961,-0.081497,0.417893,2.525535,0.186607,0.657606,1.005896,-0.074401,-0.405836,-0.910913,-0.067994,0.094602,-0.005622,-5.954894,-3.616508,16.538284,,,,,,,
1512179097.949950,-0.077742,0.420800,2.547790,0.235633,0.639520,1.005476,-0.070889,-0.408491,-0.910005,-0.076221,0.056593,0.048372,-6.255263,-3.691963,16.465805,,,,,,,
1512179097.969970,-0.074897,0.422991,2.570733,0.139874,0.588005,1.057216,-0.068233,-0.410490,-0.909309,-0.070897,0.021208,0.068946,-6.103850,-3.391731,16.614655,,,,,,,
1512179097.989959,-0.073652,0.421602,2.595110,-0.078048,0.555443,1.146690,-0.067141,-0.409223,-0.909961,-0.057523,0.016996,0.080295,-5.724486,-2.416176,16.536926,,,,,,,
1512179098.009948,-0.073122,0.415456,2.620699,-0.291209,0.536838,1.207501,-0.066842,-0.403607,-0.912488,-0.041571,0.043728,0.039044,-6.173141,-2.116844,16.540878,,,,,,,
1512179098.029937,-0.073798,0.407420,2.646443,-0.301787,0.438565,1.197410,-0.067696,-0.396242,-0.915647,-0.035347,0.062074,0.008955,-6.621490,-1.742516,16.469879,,,,,,,
1512179098.049956,-0.075823,0.401216,2.671468,-0.168926,0.376896,1.153278,-0.069735,-0.390538,-0.917942,-0.037855,0.055074,0.037479,-6.768203,-0.992729,16.321503,,,,,,,
1512179098.069945,-0.077561,0.397385,2.696114,-0.082510,0.408015,1.151443,-0.071446,-0.387009,-0.919304,-0.049083,0.014145,0.057335,-6.390151,-0.317162,16.318634,,,,,,,
1512179098.089934,-0.078656,0.393590,2.720922,-0.126249,0.418627,1.154045,-0.072567,-0.383506,-0.920683,-0.054905,-0.000558,0.051039,-6.688201,0.132393,16.171387,,,,,,,
1512179098.109923,-0.079928,0.387729,2.745069,-0.253760,0.385373,1.127564,-0.073916,-0.378087,-0.922814,-0.046171,-0.014949,0.033792,-7.132689,1.406715,15.725800,,,,,,,
1512179098.129943,-0.081013,0.380204,2.768928,-0.285934,0.405593,1.139959,-0.075145,-0.371109,-0.925544,-0.029774,-0.014785,0.016562,-7.355071,2.006386,15.577988,,,,,,,
1512179098.149932,-0.081346,0.373801,2.793500,-0.180014,0.453740,1.184306,-0.075646,-0.365157,-0.927868,-0.017982,-0.009935,-0.002598,-7.351577,2.756386,15.803329,,,,,,,
1512179098.169921,-0.081312,0.369801,2.819282,-0.065566,0.469853,1.226530,-0.075732,-0.361430,-0.929318,-0.017423,-0.002202,-0.000400,-7.649642,3.205940,15.656097,,,,,,,
1512179098.189893,-0.082179,0.366884,2.845563,-0.050833,0.391879,1.233933,-0.076623,-0.358709,-0.930299,-0.015692,0.000921,0.008882,-7.873015,3.580605,15.508179,,,,,,,
1512179098.209913,-0.085145,0.362720,2.871697,-0.139337,0.281729,1.230136,-0.079509,-0.354818,-0.931548,-0.033238,-0.001597,0.038802,-8.169387,4.405174,15.361115,,,,,,,
1512179098.229902,-0.088424,0.357392,2.897305,-0.162346,0.304177,1.204295,-0.082729,-0.349832,-0.933152,-0.041829,-0.001288,0.063356,-8.318679,4.554939,15.437454,,,,,,,
1512179098.249890,-0.090332,0.352492,2.921913,-0.127326,0.342786,1.150565,-0.084663,-0.345238,-0.934689,-0.023095,-0.011970,0.066372,-8.464324,5.529732,15.364182,,,,,,,
1512179098.269879,-0.091215,0.348004,2.945903,-0.125076,0.387670,1.146493,-0.085628,-0.341022,-0.936147,0.002269,-0.040081,0.067693,-8.541167,5.154610,15.064636,,,,,,,
1512179098.289899,-0.091386,0.343004,2.970062,-0.155098,0.396144,1.156746,-0.085943,-0.336317,-0.937819,0.027609,-0.054948,0.042952,-8.459670,6.579735,15.214661,,,,,,,
1512179098.309888,-0.092332,0.337660,2.994276,-0.164829,0.326686,1.161694,-0.086995,-0.331280,-0.939514,0.025746,-0.072636,0.028762,-8.681716,7.254402,15.066895,,,,,,,
1512179098.329877,-0.093755,0.332464,3.018353,-0.136949,0.347041,1.152573,-0.088491,-0.326373,-0.941090,0.002691,-0.075925,0.057224,-8.904235,7.779060,15.294037,,,,,,,
1512179098.349866,-0.092933,0.328563,3.042229,-0.058689,0.476456,1.132838,-0.087835,-0.322683,-0.942423,-0.013620,-0.077204,0.061960,-8.679458,7.779396,14.842133,,,,,,,
1512179098.369885,-0.089977,0.326045,3.065443,-0.014233,0.535363,1.091048,-0.085122,-0.320299,-0.943484,-0.019217,-0.091002,0.045428,-8.527129,8.304634,14.766113,,,,,,,
1512179098.389874,-0.086561,0.323723,3.087880,-0.031829,0.519374,1.057687,-0.081963,-0.318099,-0.944508,-0.036003,-0.100984,0.029667,-8.375182,8.754845,14.615036,,,,,,,
1512179098.409863,-0.083632,0.321082,3.109280,-0.052236,0.456430,0.998536,-0.079266,-0.315593,-0.945578,-0.057483,-0.110539,0.016058,-8.519485,10.029640,14.541901,,,,,,,
1512179098.429883,-0.081329,0.318080,3.129214,-0.082007,0.418072,0.927613,-0.077165,-0.312744,-0.946698,-0.074355,-0.124604,0.010831,-8.294188,10.104973,14.465027,,,,,,,
1512179098.449872,-0.078180,0.315108,-3.135433,-0.065047,0.474823,0.871555,-0.074255,-0.309919,-0.947859,-0.073908,-0.141268,-0.015001,-7.993285,10.330421,14.237579,,,,,,,
1512179098.469862,-0.073484,0.313463,-3.117487,0.018550,0.533749,0.847385,-0.069840,-0.308355,-0.948704,-0.078979,-0.143473,-0.050945,-7.989608,11.155434,14.162964,,,,,,,
1512179098.489851,-0.068348,0.313904,-3.100383,0.110159,0.506238,0.785719,-0.064958,-0.308774,-0.948915,-0.085845,-0.131503,-0.080474,-7.764678,11.155769,14.011047,,,,,,,
1512179098.509871,-0.063413,0.315121,-3.084950,0.106241,0.467948,0.698112,-0.060250,-0.309932,-0.948848,-0.087928,-0.129827,-0.092427,-7.388778,11.381340,13.782959,,,,,,,
1512179098.529860,-0.058367,0.316203,-3.071240,0.088422,0.471294,0.615781,-0.055442,-0.310960,-0.948805,-0.083627,-0.127013,-0.114489,-7.161040,11.981682,13.856339,,,,,,,
1512179098.549848,-0.052592,0.318050,-3.059312,0.158081,0.476906,0.528323,-0.049931,-0.312715,-0.948534,-0.079296,-0.135451,-0.136534,-7.463149,11.531227,13.708664,,,,,,,
1512179098.569837,-0.046411,0.322484,-3.048843,0.297795,0.481532,0.461073,-0.044003,-0.316924,-0.947430,-0.064411,-0.128846,-0.111973,-7.013259,11.531898,13.479843,,,,,,,
1512179098.589856,-0.038420,0.328921,-3.039050,0.352460,0.591665,0.448390,-0.036352,-0.323022,-0.945693,-0.036509,-0.118582,-0.111192,-6.339644,11.232918,13.398972,,,,,,,
1512179098.609845,-0.030831,0.334369,-3.029432,0.217133,0.488928,0.439675,-0.029119,-0.328173,-0.944169,-0.014262,-0.119992,-0.111770,-6.412322,11.757805,13.324844,,,,,,,
1512179098.629834,-0.025083,0.334757,-3.019325,-0.094320,0.453052,0.511791,-0.023688,-0.328540,-0.944193,0.022772,-0.105969,-0.099371,-6.342010,10.782906,12.723770,,,,,,,
1512179098.649823,-0.019187,0.328104,-3.006770,-0.443168,0.532352,0.661598,-0.018163,-0.322249,-0.946481,0.071172,-0.039583,-0.152137,-5.885482,12.208595,12.945602,,,,,,,
1512179098.669843,-0.012860,0.317591,-2.991027,-0.506256,0.574695,0.803679,-0.012216,-0.312279,-0.949912,0.096536,0.071175,-0.208688,-5.131194,13.184715,12.714676,,,,,,,
1512179098.689832,-0.006439,0.311162,-2.972997,-0.150456,0.628485,0.886844,-0.006130,-0.306165,-0.951959,0.083248,0.163114,-0.186149,-5.131347,13.184715,12.414673,,,,,,,
1512179098.709821,0.000682,0.315342,-2.955020,0.429496,0.614550,0.820575,0.000648,-0.310141,-0.950690,0.055123,0.233298,-0.134317,-4.979140,13.709953,12.113647,,,,,,,
1512179098.729810,0.007092,0.329398,-2.940642,0.816042,0.510924,0.582751,0.006711,-0.323474,-0.946213,0.030689,0.242404,-0.021942,-4.830489,13.410179,12.112244,,,,,,,
1512179098.749830,0.014263,0.346884,-2.930958,0.874134,0.536964,0.422708,0.013413,-0.339969,-0.940341,0.001114,0.150027,0.069339,-4.680602,13.410393,11.885956,,,,,,,
1512179098.769819,0.022503,0.363268,-2.923066,0.761994,0.556119,0.371044,0.021033,-0.355331,-0.934504,0.041254,0.125030,0.113642,-4.233367,12.811073,11.731857,,,,,,,
1512179098.789807,0.030669,0.376901,-2.915146,0.618586,0.537677,0.404083,0.028511,-0.368041,-0.929372,0.058021,0.097945,0.118093,-4.086974,11.986290,11.955200,,,,,,,
1512179098.809796,0.036666,0.388283,-2.905758,0.527526,0.427346,0.490864,0.033929,-0.378600,-0.924938,0.065146,0.077788,0.108441,-3.789107,11.536736,11.727448,,,,,,,
1512179098.829816,0.038947,0.399181,-2.894044,0.522339,0.293584,0.604390,0.035876,-0.388664,-0.920681,0.043393,0.068016,0.124554,-3.414077,11.537300,11.799255,,,,,,,
1512179098.849805,0.037684,0.409605,-2.880213,0.469884,0.152363,0.675632,0.034558,-0.398247,-0.916627,0.012301,0.074593,0.135560,-3.640090,11.311958,11.801071,,,,,,,
1512179098.869794,0.033393,0.418167,-2.865568,0.355582,0.031467,0.684216,0.030510,-0.406086,-0.913325,-0.016884,0.076054,0.138301,-3.790053,11.311729,11.877335,,,,,,,
1512179098.889813,0.027022,0.423813,-2.851068,0.210890,-0.031735,0.663779,0.024629,-0.411239,-0.911195,-0.016358,0.068267,0.136308,-4.165725,11.161171,11.880463,,,,,,,
1512179098.909802,0.019979,0.426851,-2.836508,0.090381,-0.067177,0.664038,0.018185,-0.414007,-0.910092,-0.011258,0.070852,0.111569,-4.689300,11.460381,12.035065,,,,,,,
1512179098.929791,0.011919,0.427255,-2.822969,-0.035109,-0.156917,0.577694,0.010848,-0.414374,-0.910042,0.005098,0.087134,0.094872,-4.912871,11.760048,12.187103,,,,,,,
1512179098.949780,0.002733,0.425506,-2.811700,-0.118961,-0.287190,0.483274,0.002489,-0.412782,-0.910827,0.035765,0.066621,0.057021,-5.136718,12.059715,11.814163,,,,,,,
1512179098.969800,-0.008863,0.423642,-2.801759,-0.044766,-0.395940,0.440266,-0.008079,-0.411083,-0.911562,0.051765,0.046062,0.085573,-5.587020,11.984047,11.892944,,,,,,,
1512179098.989789,-0.019760,0.425088,-2.792378,0.153901,-0.291993,0.421114,-0.018000,-0.412401,-0.910825,0.044413,0.024721,0.162228,-5.884994,12.358589,12.570679,,,,,,,
1512179099.009778,-0.024461,0.430279,-2.783420,0.333914,0.105729,0.385665,-0.022229,-0.417125,-0.908577,0.035184,0.000865,0.164849,-6.259276,12.508034,12.648926,,,,,,,
1512179099.029768,-0.024785,0.437806,-2.775521,0.369049,0.080268,0.322120,-0.022445,-0.423953,-0.905406,0.061446,-0.023770,0.070948,-6.785888,12.132240,12.803223,,,,,,,
1512179099.049788,-0.030724,0.441757,-2.769012,0.096638,-0.291783,0.274238,-0.027770,-0.427529,-0.903575,0.057525,-0.076332,0.069865,-7.085937,12.131783,12.730774,,,,,,,
1512179099.069777,-0.040833,0.440581,-2.763552,-0.116038,-0.417012,0.235541,-0.036923,-0.426465,-0.903750,0.057629,-0.072086,0.088168,-7.160522,12.206673,12.881439,,,,,,,
1512179099.089766,-0.050683,0.438049,-2.758670,-0.089084,-0.354985,0.220156,-0.045878,-0.424174,-0.904418,0.063563,-0.078741,0.079039,-8.059585,12.430336,12.739197,,,,,,,
1512179099.109754,-0.058101,0.437928,-2.753583,0.073873,-0.212700,0.235803,-0.052588,-0.424064,-0.904104,0.019385,-0.100518,0.044760,-8.058349,12.655327,13.189285,,,,,,,
1512179099.129773,-0.063800,0.441629,-2.748993,0.248773,-0.194139,0.168042,-0.057639,-0.427412,-0.902217,-0.004342,-0.090562,0.028545,-8.583541,12.579536,13.493713,,,,,,,
1512179099.149762,-0.069126,0.447813,-2.745698,0.335432,-0.226012,0.147866,-0.062260,-0.432995,-0.899243,0.014363,-0.005619,0.009839,-9.261458,11.903526,13.724136,,,,,,,
1512179099.169751,-0.078831,0.456391,-2.737790,0.503202,-0.439965,0.436322,-0.070689,-0.440711,-0.894861,0.027934,-0.035806,-0.058325,-9.933913,12.427513,14.105118,,,,,,,
1512179099.189720,-0.096074,0.468443,-2.725130,0.684649,-0.637515,0.542737,-0.085593,-0.451497,-0.888158,-0.014490,-0.111384,-0.089702,-10.535415,12.051613,14.485046,,,,,,,
1512179099.209740,-0.113143,0.481930,-2.712686,0.715462,-0.522938,0.425250,-0.100042,-0.463490,-0.880437,-0.071344,-0.100933,-0.089046,-10.908767,12.351067,15.088364,,,,,,,
1512179099.229729,-0.125095,0.494978,-2.705107,0.665828,-0.381454,0.145718,-0.109794,-0.475012,-0.873103,-0.085015,-0.071039,-0.127172,-11.212111,11.600609,15.165573,,,,,,,
1512179099.249718,-0.134449,0.507190,-2.703712,0.581456,-0.492178,-0.109614,-0.117170,-0.485723,-0.866224,-0.038897,-0.057368,-0.133669,-11.888152,11.299583,15.771164,,,,,,,
1512179099.269707,-0.143879,0.518677,-2.708060,0.511862,-0.630660,-0.356296,-0.124525,-0.495731,-0.859502,-0.040453,-0.128307,-0.080500,-12.494536,9.873680,15.850616,,,,,,,
1512179099.289726,-0.150959,0.527804,-2.718152,0.290673,-0.532284,-0.578767,-0.129921,-0.503637,-0.854090,-0.072425,-0.181879,-0.014745,-12.944716,9.797997,16.154404,,,,,,,
1512179099.309715,-0.154828,0.532836,-2.730319,0.094532,-0.497463,-0.513260,-0.132832,-0.507978,-0.851067,-0.062572,-0.165881,0.004768,-13.545440,9.572105,16.759384,,,,,,,
1512179099.329704,-0.158393,0.531836,-2.740811,-0.277305,-0.395727,-0.392500,-0.135945,-0.507116,-0.851089,-0.107707,-0.168283,0.020095,-13.995086,9.646431,16.763245,,,,,,,
1512179099.349693,-0.159088,0.521092,-2.749730,-0.778476,-0.179935,-0.244429,-0.137392,-0.497827,-0.856324,-0.107511,-0.060339,-0.103606,-14.220763,9.496086,16.765091,,,,,,,
1512179099.369713,-0.157931,0.501816,-2.758179,-1.108508,-0.161293,-0.206506,-0.137884,-0.481019,-0.865800,-0.079599,0.076157,-0.282470,-14.218551,10.021095,16.465332,,,,,,,
1512179099.389702,-0.157717,0.481228,-2.768028,-1.002020,-0.242061,-0.332103,-0.139226,-0.462868,-0.875425,-0.055614,0.223167,-0.341906,-14.512954,11.220650,16.843430,,,,,,,
1512179099.409691,-0.157667,0.469590,-2.781378,-0.426333,-0.350682,-0.597051,-0.140018,-0.452520,-0.880693,-0.027584,0.265295,-0.240416,-14.363524,11.070869,17.067093,,,,,,,
1512179099.429710,-0.158207,0.471296,-2.797129,0.184824,-0.380428,-0.746075,-0.140372,-0.454041,-0.879854,-0.037331,0.190629,-0.040831,-14.814879,10.770195,17.070786,,,,,,,
1512179099.449699,-0.157731,0.481212,-2.812489,0.445017,-0.296714,-0.747348,-0.139240,-0.462853,-0.875431,-0.058057,0.114541,0.122135,-15.192794,10.094627,17.298660,,,,,,,
1512179099.469688,-0.155650,0.490146,-2.827244,0.223524,-0.202088,-0.692659,-0.136771,-0.470754,-0.871598,-0.081247,0.072668,0.200227,-15.496657,9.194176,17.675797,,,,,,,
1512179099.489677,-0.151187,0.491791,-2.842008,-0.162137,-0.079943,-0.637055,-0.132762,-0.472206,-0.871433,-0.094639,0.041908,0.193287,-15.496657,9.194176,17.675797,,,,,,,
1512179099.509697,-0.143336,0.486342,-2.857125,-0.478058,0.120326,-0.605759,-0.126282,-0.467395,-0.874982,-0.070648,0.048282,0.132551,-16.023468,8.818382,17.455078,,,,,,,
1512179099.529686,-0.132783,0.476456,-2.871503,-0.616754,0.211833,-0.529626,-0.117648,-0.458633,-0.880803,-0.011395,0.064987,0.034505,-15.495498,9.494179,17.300934,,,,,,,
1512179099.549675,-0.123930,0.465049,-2.883220,-0.619150,0.145324,-0.387038,-0.110486,-0.448467,-0.886944,0.036999,0.083141,-0.037830,-15.494857,9.644173,17.225998,,,,,,,
1512179099.569664,-0.120048,0.455384,-2.891168,-0.448940,-0.062997,-0.246712,-0.107556,-0.439807,-0.891629,0.026852,0.099872,-0.041019,-15.495467,9.494179,17.375931,,,,,,,
1512179099.589684,-0.120323,0.449933,-2.896442,-0.205716,-0.147108,-0.195505,-0.108087,-0.434905,-0.893966,-0.017539,0.107681,0.029311,-15.795470,9.493721,17.378479,,,,,,,
1512179099.609673,-0.119739,0.449076,-2.901589,-0.006366,-0.015303,-0.253991,-0.107609,-0.434133,-0.894398,-0.045956,0.101766,0.118672,-16.020233,9.568382,17.155426,,,,,,,
1512179099.629662,-0.114499,0.450329,-2.908296,0.019649,0.180378,-0.335020,-0.102858,-0.435262,-0.894409,-0.053529,0.063786,0.145614,-16.098495,8.818275,17.380707,,,,,,,
1512179099.649651,-0.105852,0.450006,-2.916701,-0.114710,0.290311,-0.392019,-0.095136,-0.434970,-0.895405,-0.032366,0.034732,0.139240,-16.096848,9.193275,17.305893,,,,,,,
1512179099.669670,-0.095878,0.447118,-2.925255,-0.204076,0.290072,-0.337877,-0.086321,-0.432369,-0.897555,-0.009321,-0.000874,0.084613,-15.949706,8.593498,17.004333,,,,,,,
1512179099.689659,-0.088962,0.443824,-2.931216,-0.167029,0.190505,-0.198035,-0.080237,-0.429396,-0.899545,-0.005929,-0.017916,0.057748,-15.801009,8.293724,17.077927,,,,,,,
1512179099.709648,-0.085182,0.442043,-2.933981,-0.054074,0.091083,-0.070951,-0.076901,-0.427787,-0.900602,-0.023745,-0.021707,0.048826,-15.801131,8.293724,16.852921,,,,,,,
1512179099.729637,-0.083299,0.442073,-2.934329,0.022433,0.098518,0.009072,-0.075204,-0.427814,-0.900733,-0.049399,-0.015652,0.069052,-16.175903,8.293159,17.306107,,,,,,,
1512179099.749657,-0.080627,0.442819,-2.933986,0.044899,0.164784,0.007496,-0.072772,-0.428489,-0.900612,-0.070173,-0.004998,0.072792,-16.176346,8.218147,17.081085,,,,,,,
1512179099.769646,-0.076422,0.443983,-2.934078,0.065651,0.231095,-0.019692,-0.068945,-0.429540,-0.900412,-0.083322,-0.012675,0.045630,-16.099930,8.518272,17.230576,,,,,,,
1512179099.789635,-0.071628,0.445631,-2.934688,0.085103,0.218344,-0.035442,-0.064578,-0.431027,-0.900025,-0.060346,-0.036411,-0.004775,-15.951720,8.143486,17.004135,,,,,,,
1512179099.809624,-0.068032,0.447954,-2.934409,0.134153,0.179837,0.025897,-0.061272,-0.433122,-0.899250,-0.063179,-0.065230,-0.034328,-15.874969,8.518608,17.153671,,,,,,,
1512179099.829643,-0.065905,0.452028,-2.932506,0.238838,0.177758,0.077511,-0.059243,-0.436791,-0.897610,-0.066246,-0.067909,-0.032093,-15.806869,7.018715,16.852325,,,,,,,
1512179099.849632,-0.063750,0.457416,-2.929652,0.278904,0.214087,0.107005,-0.057158,-0.441631,-0.895374,-0.074373,-0.076252,-0.036389,-15.806533,7.093712,16.852371,,,,,,,
1512179099.869621,-0.061456,0.462816,-2.926242,0.265634,0.204397,0.135563,-0.054956,-0.446470,-0.893109,-0.084006,-0.079699,-0.046573,-15.729766,7.468819,17.001907,,,,,,,
1512179099.889641,-0.059614,0.467153,-2.922516,0.189716,0.177552,0.148229,-0.053195,-0.450346,-0.891268,-0.075879,-0.062608,-0.058226,-15.955779,7.243492,17.003708,,,,,,,
1512179099.909630,-0.058173,0.469789,-2.919237,0.118606,0.137959,0.126804,-0.051841,-0.452698,-0.890155,-0.056786,-0.053848,-0.073376,-15.881713,7.018593,17.152969,,,,,,,
1512179099.929619,-0.057508,0.472675,-2.916356,0.193430,0.061192,0.110563,-0.051175,-0.455270,-0.888882,-0.061771,-0.060019,-0.094700,-15.961135,6.043480,17.078156,,,,,,,
1512179099.949608,-0.057886,0.478930,-2.914442,0.398296,0.033885,0.033482,-0.051345,-0.460830,-0.886002,-0.072343,-0.064851,-0.048324,-16.335770,6.117912,17.156387,,,,,,,
1512179099.969627,-0.055807,0.488797,-2.913831,0.527129,0.174114,-0.014267,-0.049246,-0.469564,-0.881524,-0.071802,-0.086954,-0.017494,-16.034454,6.343361,17.753937,,,,,,,
1512179099.989616,-0.051324,0.498474,-2.913190,0.432721,0.271093,0.026278,-0.045059,-0.478086,-0.877156,-0.063065,-0.102373,-0.005366,-15.887527,5.668587,17.677353,,,,,,,
1512179100.009605,-0.045707,0.503858,-2.910807,0.163439,0.382626,0.134699,-0.040013,-0.482808,-0.874812,-0.037669,-0.054393,-0.023244,-16.189926,5.143135,17.604660,,,,,,,
1512179100.029594,-0.038670,0.502599,-2.906287,-0.194042,0.511148,0.226978,-0.033879,-0.481705,-0.875678,-0.009029,0.020096,-0.083337,-15.814178,5.293694,17.751541,,,,,,,
1512179100.049614,-0.029586,0.494435,-2.901600,-0.475158,0.477646,0.205732,-0.026039,-0.474534,-0.879852,0.053672,0.082246,-0.247956,-15.591537,4.844032,17.074417,,,,,,,
1512179100.069603,-0.026543,0.485278,-2.897622,-0.399514,0.110331,0.190625,-0.023475,-0.466454,-0.884234,0.088875,0.120461,-0.292112,-15.511809,5.894157,17.074265,,,,,,,
1512179100.089592,-0.031926,0.481319,-2.893047,-0.053665,-0.299364,0.208069,-0.028294,-0.462948,-0.885933,0.073246,0.142026,-0.182548,-15.135756,6.119713,17.146179,,,,,,,
1512179100.109581,-0.041124,0.483621,-2.888728,0.196357,-0.361930,0.170964,-0.036397,-0.464988,-0.884568,0.016607,0.130134,-0.014952,-15.585616,6.119041,17.450012,,,,,,,
1512179100.129601,-0.048299,0.487613,-2.885810,0.174529,-0.232524,0.079420,-0.042653,-0.468518,-0.882423,-0.015208,0.128690,0.097496,-15.962371,5.668480,17.977982,,,,,,,
1512179100.149590,-0.050963,0.488593,-2.885835,-0.035350,-0.085179,-0.051036,-0.044981,-0.469384,-0.881848,-0.007158,0.116280,0.137173,-15.962905,5.518471,18.277924,,,,,,,
1512179100.169579,-0.049830,0.485425,-2.888282,-0.228131,0.057799,-0.119428,-0.044055,-0.466584,-0.883379,0.020999,0.095460,0.134508,-16.266098,4.843025,17.980148,,,,,,,
1512179100.189555,-0.046014,0.480015,-2.891255,-0.288057,0.138855,-0.101892,-0.040799,-0.461793,-0.886049,0.047712,0.087403,0.089662,-15.966170,4.843468,17.827606,,,,,,,
1512179100.209574,-0.043312,0.474582,-2.892674,-0.258616,0.060751,-0.016453,-0.038513,-0.456966,-0.888650,0.057174,0.088039,0.057641,-15.515975,4.844139,18.198776,,,,,,,
1512179100.229563,-0.044736,0.470154,-2.892059,-0.200365,-0.138000,0.061521,-0.039869,-0.453023,-0.890607,0.053830,0.097021,0.062939,-15.737563,5.593819,18.276047,,,,,,,
1512179100.249552,-0.049672,0.466126,-2.890796,-0.205716,-0.238412,0.057896,-0.044354,-0.449429,-0.892214,0.022214,0.093014,0.114642,-15.663756,5.293922,18.575256,,,,,,,
1512179100.269541,-0.054086,0.461302,-2.890686,-0.265405,-0.199924,-0.005733,-0.048409,-0.445114,-0.894164,0.010689,0.077667,0.131667,-15.889892,5.068581,18.352066,,,,,,,
1512179100.289561,-0.056888,0.455096,-2.892155,-0.344153,-0.165714,-0.076044,-0.051071,-0.439548,-0.896766,0.004455,0.061817,0.142646,-15.962188,5.668480,18.352982,,,,,,,
1512179100.309550,-0.059052,0.447436,-2.895367,-0.416487,-0.189179,-0.151800,-0.053208,-0.432656,-0.899988,0.007676,0.048851,0.139291,-15.812713,5.518700,18.651642,,,,,,,
1512179100.329539,-0.060744,0.438945,-2.900425,-0.439770,-0.192270,-0.226771,-0.054951,-0.424984,-0.903531,0.020879,0.037320,0.126691,-15.737746,5.518806,18.576004,,,,,,,
1512179100.349558,-0.062005,0.431085,-2.906257,-0.380992,-0.178281,-0.235468,-0.056297,-0.417857,-0.906767,0.031440,0.004649,0.102522,-15.137069,5.669716,18.570969,,,,,,,
1512179100.369547,-0.063810,0.424750,-2.911076,-0.303101,-0.204980,-0.175797,-0.058101,-0.412093,-0.909287,0.037730,-0.024965,0.084138,-15.285384,6.044487,18.572418,,,,,,,
1512179100.389536,-0.066431,0.419373,-2.914733,-0.268551,-0.202870,-0.137979,-0.060630,-0.407188,-0.911330,0.036704,-0.021065,0.078825,-15.138350,5.369713,18.720825,,,,,,,
1512179100.409525,-0.068923,0.414463,-2.918314,-0.247921,-0.191044,-0.160026,-0.063038,-0.402699,-0.913159,0.026630,-0.024318,0.067792,-15.060317,6.044838,18.720505,,,,,,,
1512179100.429545,-0.070478,0.410364,-2.922998,-0.197813,-0.157727,-0.223147,-0.064573,-0.398943,-0.914699,0.024290,-0.031202,0.052455,-14.909713,6.195061,18.569305,,,,,,,
1512179100.449534,-0.070826,0.407567,-2.928971,-0.132747,-0.129722,-0.288201,-0.064970,-0.396377,-0.915786,0.027144,-0.051728,0.021163,-14.387069,5.670845,18.564590,,,,,,,
1512179100.469523,-0.071131,0.406582,-2.936158,-0.045430,-0.173265,-0.348918,-0.065277,-0.395472,-0.916155,0.028122,-0.061147,0.010332,-14.537078,5.670616,18.565872,,,,,,,
1512179100.489512,-0.071075,0.407086,-2.944908,0.001689,-0.173044,-0.427126,-0.065211,-0.395935,-0.915960,0.034892,-0.075561,0.010458,-14.614058,5.220497,18.641296,,,,,,,
1512179100.509531,-0.070864,0.408438,-2.954946,0.028019,-0.206025,-0.473765,-0.064980,-0.397176,-0.915439,0.045541,-0.127741,0.002246,-14.014617,5.071404,18.861130,,,,,,,
1512179100.529520,-0.070842,0.410059,-2.964458,0.028989,-0.188004,-0.402262,-0.064915,-0.398663,-0.914797,0.048725,-0.145022,-0.003004,-13.939590,5.071510,18.935501,,,,,,,
1512179100.549509,-0.070880,0.411070,-2.972232,-0.012714,-0.163647,-0.329225,-0.064921,-0.399591,-0.914392,0.027018,-0.139609,-0.050269,-14.165893,4.771172,19.012268,,,,,,,
1512179100.569498,-0.071449,0.410415,-2.979245,-0.110008,-0.171307,-0.312539,-0.065460,-0.398990,-0.914616,0.006454,-0.117169,-0.088818,-13.791533,4.621727,19.084000,,,,,,,
1512179100.589518,-0.071840,0.407383,-2.986470,-0.217534,-0.168245,-0.320480,-0.065904,-0.396208,-0.915792,-0.005889,-0.110506,-0.159922,-13.716903,4.546837,19.008331,,,,,,,
1512179100.609507,-0.073119,0.403960,-2.993702,-0.158972,-0.231186,-0.319853,-0.067174,-0.393062,-0.917055,-0.020533,-0.106465,-0.202254,-13.566894,4.547066,19.082062,,,,,,,
1512179100.629496,-0.075504,0.403819,-3.001181,0.050740,-0.284181,-0.369237,-0.069365,-0.392933,-0.916947,-0.039217,-0.114009,-0.175918,-13.342605,4.397408,19.005081,,,,,,,
1512179100.649485,-0.076764,0.407066,-3.009995,0.149955,-0.178147,-0.432458,-0.070422,-0.395917,-0.915582,-0.055905,-0.161517,-0.099692,-13.191466,4.622627,19.228912,,,,,,,
1512179100.669505,-0.074473,0.409048,-3.018834,-0.025556,0.018038,-0.381012,-0.068266,-0.397736,-0.914956,-0.046419,-0.172424,-0.080191,-13.193160,4.247627,19.228729,,,,,,,
1512179100.689494,-0.069283,0.403252,-3.025381,-0.498360,0.177207,-0.211410,-0.063675,-0.392411,-0.917583,-0.026688,-0.109633,-0.171574,-12.743041,4.323296,18.774948,,,,,,,
1512179100.709483,-0.064563,0.389146,-3.029350,-0.791223,0.142364,-0.101704,-0.059694,-0.379399,-0.923305,-0.018935,0.027149,-0.238026,-12.818236,4.323189,18.400589,,,,,,,
1512179100.729472,-0.060343,0.375314,-3.032272,-0.577914,0.174745,-0.105963,-0.056108,-0.366564,-0.928699,-0.018599,0.178729,-0.209683,-12.814864,5.073189,18.400940,,,,,,,
1512179100.749491,-0.054593,0.369917,-3.036731,-0.105250,0.218493,-0.257807,-0.050875,-0.361538,-0.930968,-0.016416,0.275570,-0.154786,-12.439071,5.298759,17.947845,,,,,,,
1512179100.769480,-0.048118,0.373092,-3.045091,0.268293,0.112686,-0.483034,-0.044790,-0.364497,-0.930126,-0.026117,0.281016,-0.079212,-12.064071,5.299324,17.944656,,,,,,,
1512179100.789469,-0.044304,0.382014,-3.057521,0.487270,-0.124864,-0.651261,-0.041096,-0.372790,-0.927005,-0.058299,0.203478,0.061038,-11.616286,4.774986,18.240601,,,,,,,
1512179100.809458,-0.042687,0.393189,-3.071869,0.533766,-0.197338,-0.693477,-0.039418,-0.383136,-0.922850,-0.090297,0.124363,0.194136,-11.694625,4.024879,18.315887,,,,,,,
1512179100.829478,-0.039212,0.402785,-3.085974,0.379751,-0.009646,-0.653478,-0.036065,-0.391982,-0.919265,-0.123084,0.077590,0.267456,-11.324416,2.975426,18.162216,,,,,,,
1512179100.849467,-0.029938,0.407788,-3.099910,0.135855,0.308296,-0.652710,-0.027479,-0.396580,-0.917589,-0.109530,0.060551,0.238084,-10.871490,3.576103,18.608658,,,,,,,
1512179100.869456,-0.015549,0.408002,-3.114240,-0.073952,0.481035,-0.656213,-0.014272,-0.396776,-0.917804,-0.051753,0.063753,0.140308,-10.573699,3.126549,18.230911,,,,,,,
1512179100.889475,-0.001345,0.405454,-3.127837,-0.156175,0.381430,-0.588458,-0.001236,-0.394436,-0.918922,-0.001953,0.055371,0.050102,-9.975722,2.677452,18.225601,,,,,,,
1512179100.909464,0.007454,0.401767,-3.138271,-0.199898,0.136385,-0.405516,0.006861,-0.391045,-0.920346,0.006628,0.030129,0.013028,-9.525771,2.678139,18.146790,,,,,,,
1512179100.929453,0.009466,0.397122,3.139046,-0.248253,-0.080942,-0.199091,0.008729,-0.386766,-0.922136,-0.019013,0.032793,0.055132,-9.074676,2.978813,17.618103,,,,,,,
1512179100.949442,0.008449,0.391473,3.136486,-0.296954,-0.086568,-0.090010,0.007810,-0.381550,-0.924315,-0.059979,0.054768,0.101500,-9.449981,2.903236,17.696243,,,,,,,
1512179100.969462,0.008586,0.385791,3.134714,-0.264895,0.011753,-0.090271,0.007955,-0.376292,-0.926467,-0.088888,0.067988,0.118560,-9.147384,3.503700,17.468979,,,,,,,
1512179100.989451,0.010762,0.381594,3.132021,-0.177430,0.081443,-0.154859,0.009988,-0.372400,-0.928018,-0.096734,0.068979,0.117593,-8.922057,3.579033,17.467102,,,,,,,
1512179101.009440,0.014207,0.378503,3.127675,-0.145280,0.090187,-0.228985,0.013201,-0.369530,-0.929125,-0.081912,0.039803,0.103853,-8.922423,3.504036,17.392059,,,,,,,
1512179101.029429,0.017168,0.375527,3.122559,-0.143040,0.026117,-0.238771,0.015971,-0.366763,-0.930177,-0.059077,0.005618,0.090394,-8.772429,3.504265,17.390793,,,,,,,
1512179101.049448,0.018812,0.372872,3.117895,-0.113800,-0.011292,-0.203296,0.017518,-0.364292,-0.931120,-0.041963,-0.024914,0.099394,-8.999602,3.053917,17.092499,,,,,,,
1512179101.069437,0.020183,0.371376,3.114604,-0.041594,0.024969,-0.120039,0.018806,-0.362898,-0.931639,-0.046684,-0.066592,0.102965,-8.547881,3.429604,17.163834,,,,,,,
1512179101.089426,0.022295,0.371662,3.113233,0.045552,0.113596,-0.034248,0.020771,-0.363164,-0.931493,-0.054402,-0.079738,0.096380,-8.773055,3.429268,16.790756,,,,,,,
1512179101.109415,0.025327,0.372717,3.113381,0.038148,0.177550,0.029830,0.023586,-0.364147,-0.931042,-0.054912,-0.089390,0.058194,-8.697875,3.429375,17.165115,,,,,,,
1512179101.129435,0.028542,0.372370,3.114555,-0.054176,0.164512,0.067890,0.026583,-0.363824,-0.931088,-0.048570,-0.102118,-0.040759,-8.697768,3.504372,16.715149,,,,,,,
1512179101.149424,0.029297,0.371005,3.116503,-0.093006,0.042635,0.089290,0.027300,-0.362552,-0.931563,-0.029207,-0.099331,-0.094026,-8.321715,3.729942,16.787064,,,,,,,
1512179101.169413,0.028668,0.370490,3.119155,-0.039505,0.036209,0.142283,0.026719,-0.362072,-0.931767,-0.014604,-0.117313,-0.118709,-8.469192,4.329720,16.413620,,,,,,,
1512179101.189358,0.028334,0.370927,3.124053,0.009409,0.113985,0.282916,0.026404,-0.362479,-0.931617,-0.002173,-0.124871,-0.145470,-8.320357,4.029945,16.787201,,,,,,,
1512179101.209378,0.028397,0.371522,3.132064,0.022249,0.155409,0.411172,0.026456,-0.363034,-0.931400,-0.002668,-0.087863,-0.181698,-8.320739,3.954933,16.712173,,,,,,,
1512179101.229367,0.027298,0.372479,3.140855,0.051209,0.059342,0.395265,0.025423,-0.363926,-0.931081,0.003523,-0.041516,-0.201838,-8.845092,4.104149,16.641708,,,,,,,
1512179101.249356,0.024076,0.374834,-3.135183,0.148613,-0.078117,0.300253,0.022402,-0.366118,-0.930298,-0.003176,-0.054337,-0.157257,-8.619460,4.254494,16.564865,,,,,,,
1512179101.269345,0.019957,0.378673,-3.129502,0.184472,-0.098275,0.258060,0.018542,-0.369688,-0.928971,0.002546,-0.083452,-0.072128,-8.919692,4.179039,16.792374,,,,,,,
1512179101.289364,0.017333,0.380178,-3.123314,-0.032862,0.042274,0.321498,0.016095,-0.371086,-0.928459,0.020419,-0.097054,-0.028588,-9.066985,4.778816,16.793930,,,,,,,
1512179101.309353,0.017624,0.373740,-3.113726,-0.527438,0.277190,0.521963,0.016407,-0.365100,-0.930824,0.069684,-0.065228,-0.096978,-8.839812,5.304161,16.417267,,,,,,,
1512179101.329342,0.018486,0.358028,-3.099888,-0.908416,0.253881,0.675209,0.017313,-0.350428,-0.936429,0.122793,0.068202,-0.249591,-9.212371,5.903603,15.895737,,,,,,,
1512179101.349362,0.015173,0.340793,-3.085030,-0.780627,-0.023647,0.669698,0.014300,-0.334235,-0.942381,0.128171,0.157324,-0.291185,-9.133285,6.803719,15.970505,,,,,,,
1512179101.369351,0.007308,0.332655,-3.072819,-0.141511,-0.270149,0.494736,0.006907,-0.326553,-0.945153,0.089879,0.184967,-0.188987,-9.956557,7.177483,16.052689,,,,,,,
1512179101.389340,0.000147,0.338354,-3.064578,0.486801,-0.141785,0.346507,0.000139,-0.331935,-0.943302,0.056517,0.131770,-0.019604,-9.956786,7.102486,16.277664,,,,,,,
1512179101.409329,-0.002328,0.350456,-3.057966,0.612550,0.040107,0.293527,-0.002187,-0.343327,-0.939213,0.067983,0.091938,0.065526,-9.882461,6.952599,16.276947,,,,,,,
1512179101.429348,-0.003636,0.359233,-3.051336,0.293202,0.031002,0.329378,-0.003404,-0.351556,-0.936160,0.104784,0.086877,0.110507,-10.258666,6.652031,16.580002,,,,,,,
1512179101.449337,-0.007716,0.358610,-3.043459,-0.228151,-0.130143,0.389493,-0.007225,-0.350973,-0.936358,0.132103,0.081899,0.120318,-10.409118,6.576805,16.356232,,,,,,,
1512179101.469326,-0.015331,0.349130,-3.034082,-0.568943,-0.254777,0.491794,-0.014405,-0.342080,-0.939560,0.156052,0.098641,0.125534,-10.779647,7.551247,16.509872,,,,,,,
1512179101.489315,-0.024972,0.337336,-3.022170,-0.552886,-0.301991,0.615528,-0.023562,-0.330975,-0.943345,0.130999,0.103649,0.118562,-11.227660,8.000572,16.438904,,,,,,,
1512179101.509335,-0.037092,0.327323,-3.008646,-0.439869,-0.445077,0.671031,-0.035115,-0.321510,-0.946255,0.110081,0.100364,0.172115,-11.673812,8.824913,16.743103,,,,,,,
1512179101.529324,-0.052137,0.318976,-2.994241,-0.364027,-0.558283,0.721845,-0.049485,-0.313594,-0.948267,0.099625,0.067729,0.283304,-12.269713,9.724022,16.823624,,,,,,,
1512179101.549313,-0.067735,0.310773,-2.979052,-0.379346,-0.523107,0.747330,-0.064441,-0.305794,-0.949914,0.055225,0.048714,0.357309,-12.868667,9.948112,16.903824,,,,,,,
1512179101.569302,-0.080226,0.301303,-2.965254,-0.452171,-0.344632,0.646686,-0.076530,-0.296765,-0.951879,0.036613,0.041607,0.359029,-13.316009,10.547447,16.832916,,,,,,,
1512179101.589321,-0.090200,0.289374,-2.954438,-0.635620,-0.375643,0.521323,-0.086333,-0.285352,-0.954526,0.037642,0.004529,0.283079,-13.310836,11.672462,17.058456,,,,,,,
1512179101.609310,-0.102782,0.271883,-2.946259,-0.952410,-0.618479,0.455123,-0.098832,-0.268546,-0.958183,0.047959,-0.023293,0.208015,-13.831359,12.646675,17.213348,,,,,,,
1512179101.629299,-0.119203,0.249300,-2.939506,-1.137011,-0.768316,0.458323,-0.115245,-0.246725,-0.962209,0.056391,-0.032038,0.159077,-14.276259,13.771004,17.292709,,,,,,,
1512179101.649288,-0.135451,0.226106,-2.932312,-1.054732,-0.683915,0.515243,-0.131601,-0.224184,-0.965620,0.016030,-0.034239,0.109496,-14.947845,14.519997,17.373779,,,,,,,
1512179101.669308,-0.149333,0.206696,-2.924894,-0.814930,-0.593704,0.459335,-0.145612,-0.205227,-0.967822,-0.058367,-0.008213,0.058001,-15.845794,14.968651,17.456650,,,,,,,
1512179101.689297,-0.161371,0.191540,-2.921450,-0.700973,-0.517076,0.145696,-0.157733,-0.190371,-0.968958,-0.102414,0.041338,0.046411,-16.289719,16.242989,18.136047,,,,,,,
1512179101.709286,-0.169872,0.180049,-2.926090,-0.533977,-0.401681,-0.277904,-0.166323,-0.179078,-0.969674,-0.103696,0.095597,0.084084,-16.813660,16.467201,18.215622,,,,,,,
1512179101.729275,-0.169211,0.172088,-2.935774,-0.444177,0.038922,-0.465896,-0.165917,-0.171240,-0.971158,-0.141090,0.013098,-0.026187,-16.663437,16.542427,17.989380,,,,,,,
1512179101.749295,-0.165728,0.166385,-2.949498,-0.380630,0.167654,-0.692663,-0.162692,-0.165619,-0.972678,-0.118451,-0.072006,-0.133737,-16.587723,16.692543,18.063812,,,,,,,
1512179101.769284,-0.153941,0.161805,-2.964963,-0.335094,0.653801,-0.714830,-0.151331,-0.161100,-0.975267,-0.123175,-0.079561,-0.181212,-16.363220,16.617882,17.761871,,,,,,,
1512179101.789273,-0.135562,0.155298,-2.981495,-0.521396,0.755139,-0.790737,-0.133521,-0.154675,-0.978901,-0.125024,-0.146625,-0.309185,-15.765731,16.093773,17.456528,,,,,,,
1512179101.809292,-0.117382,0.144117,-2.999746,-0.753867,0.825400,-0.847162,-0.115899,-0.143619,-0.982823,-0.121314,-0.144528,-0.377239,-15.241546,16.019554,16.477036,,,,,,,
1512179101.829281,-0.095291,0.127614,-3.019492,-1.041640,1.063275,-0.904876,-0.094373,-0.127268,-0.987368,-0.042163,-0.062490,-0.361463,-14.417739,15.795799,16.094910,,,,,,,
1512179101.849270,-0.069984,0.104006,-3.040810,-1.394852,1.146268,-1.007777,-0.069549,-0.103818,-0.992162,0.018417,0.006223,-0.302821,-13.288711,16.772484,15.410812,,,,,,,
1512179101.869259,-0.047331,0.075657,-3.065573,-1.499894,0.936133,-1.242432,-0.047178,-0.075585,-0.996023,-0.008699,-0.058143,-0.290553,-12.460631,17.523735,14.804153,,,,,,,
1512179101.889279,-0.031861,0.050622,-3.094506,-1.095239,0.515307,-1.494956,-0.031815,-0.050600,-0.998212,0.015579,-0.104353,-0.281436,-12.235213,17.674065,14.277313,,,,,,,
1512179101.909268,-0.032191,0.039209,-3.121511,-0.295477,-0.433872,-1.101822,-0.032160,-0.039199,-0.998714,-0.104238,-0.171464,-0.199864,-11.785888,17.524742,14.273422,,,,,,,
1512179101.929257,-0.038368,0.039713,-3.130933,0.038958,-0.051869,-0.095688,-0.038329,-0.039703,-0.998476,-0.030992,-0.094590,-0.175306,-12.463561,16.923729,14.353867,,,,,,,
1512179101.949246,-0.026220,0.042454,-3.124211,0.320958,0.949359,0.501415,-0.026193,-0.042441,-0.998756,0.041437,0.162390,-0.137765,-11.636230,17.449974,14.272110,,,,,,,
1512179101.969265,-0.004208,0.057243,-3.113682,1.012574,1.199381,0.464332,-0.004201,-0.057212,-0.998353,-0.020503,0.267997,-0.079970,-10.961196,17.525978,13.666412,,,,,,,
1512179101.989254,0.018111,0.084661,-3.108573,1.542557,1.038497,0.123916,0.018045,-0.084560,-0.996255,-0.105768,0.240230,-0.023719,-10.066543,16.402321,13.058228,,,,,,,
1512179102.009243,0.033759,0.118569,-3.112143,1.743795,0.573846,-0.272428,0.033516,-0.118291,-0.992413,-0.119713,0.157827,0.052182,-9.098525,14.903770,12.599258,,,,,,,
1512179102.029232,0.041716,0.151403,-3.121186,1.572120,0.245932,-0.414641,0.041226,-0.150825,-0.987700,-0.085477,0.077690,0.130294,-8.803206,13.854210,12.671219,,,,,,,
1512179102.049252,0.051974,0.178215,-3.130581,1.220966,0.635198,-0.370404,0.051128,-0.177273,-0.982833,-0.081233,0.046429,0.174529,-8.887328,11.829094,12.670929,,,,,,,
1512179102.069241,0.073154,0.198971,-3.137183,1.004171,1.171817,-0.191513,0.071646,-0.197661,-0.977649,-0.070456,0.078612,0.145984,-7.537276,11.831108,12.734451,,,,,,,
1512179102.089230,0.098380,0.219206,3.141472,1.055254,1.170690,-0.121483,0.095871,-0.217455,-0.971351,0.004745,0.132250,0.108924,-7.017150,10.781898,12.429504,,,,,,,
1512179102.109219,0.119441,0.240592,3.135679,1.123844,0.922105,-0.219428,0.115725,-0.238278,-0.964278,0.008955,0.236294,0.197340,-6.122069,9.733238,12.046371,,,,,,,
1512179102.129238,0.140929,0.264840,3.122983,1.389080,0.850616,-0.598552,0.135565,-0.261755,-0.955566,-0.038977,0.198812,0.163253,-4.926711,8.760033,11.510727,,,,,,,
1512179102.149227,0.164087,0.294092,3.100994,1.742185,0.876387,-0.935553,0.156338,-0.289871,-0.944210,-0.083966,0.177658,0.222317,-4.108535,7.186256,12.027985,,,,,,,
1512179102.169216,0.191761,0.328805,3.072623,2.061783,0.996732,-1.045637,0.180378,-0.322912,-0.929081,-0.063831,0.101233,0.272266,-3.141219,5.462700,12.168900,,,,,,,
1512179102.189208,0.218142,0.366587,3.044339,2.096542,0.666183,-0.777637,0.202036,-0.358431,-0.911432,-0.033839,0.047594,0.212686,-2.024245,3.664375,12.308517,,,,,,,
1512179102.209228,0.229216,0.400098,3.028959,1.527843,0.047430,-0.002344,0.209270,-0.389509,-0.896933,0.039250,-0.032366,0.131110,-1.130019,2.315727,12.900238,,,,,,,
1512179102.229217,0.218595,0.421458,3.035561,0.657701,-0.738499,0.814909,0.197881,-0.409091,-0.890779,0.057810,0.014453,0.069566,-1.362288,0.665382,13.201385,,,,,,,
1512179102.249206,0.186046,0.429740,3.057480,-0.038038,-1.337351,1.149212,0.168156,-0.416635,-0.893386,0.143764,0.120874,0.168197,-2.185302,1.039146,13.808563,,,,,,,
1512179102.269226,0.146052,0.426615,3.087099,-0.552009,-1.365366,1.414579,0.132489,-0.413792,-0.900679,0.122287,0.051335,0.185454,-3.608504,1.412010,14.045853,,,,,,,
1512179102.289215,0.105545,0.415537,3.125111,-0.871728,-1.147648,1.807279,0.096384,-0.403681,-0.909809,0.099417,0.027674,0.225772,-5.180022,2.159645,14.284576,,,,,,,
1512179102.309204,0.069167,0.398966,-3.111405,-1.084915,-0.738586,2.213915,0.063684,-0.388466,-0.919260,0.088126,0.021187,0.241846,-6.973876,3.506950,14.450500,,,,,,,
1512179102.329193,0.041386,0.377619,-3.057035,-1.268659,-0.085877,2.591974,0.038459,-0.368709,-0.928749,0.082727,-0.028829,0.152412,-8.167510,4.930168,14.386368,,,,,,,
1512179102.349212,0.024236,0.354286,-2.996386,-1.179457,0.321725,2.892118,0.022728,-0.346921,-0.937619,0.077812,-0.107150,-0.061984,-9.499434,9.053169,13.424744,,,,,,,
1512179102.369201,0.009293,0.340223,-2.936246,-0.417671,0.202651,2.654348,0.008760,-0.333697,-0.942640,0.107420,-0.046628,-0.158419,-10.241714,10.777061,13.356903,,,,,,,
1512179102.389190,-0.002683,0.344776,-2.891994,0.580952,0.140902,1.697419,-0.002525,-0.337985,-0.941148,0.016334,-0.042416,-0.159820,-10.389007,11.376839,13.358459,,,,,,,
1512179102.409179,-0.006019,0.365481,-2.870894,1.271706,0.233971,0.541484,-0.005621,-0.357399,-0.933935,-0.024423,-0.054939,-0.102747,-10.390929,10.926826,13.583252,,,,,,,
1512179102.429199,0.003166,0.393566,-2.869625,1.387040,0.649867,-0.097168,0.002924,-0.383484,-0.923543,0.125433,0.029541,-0.003871,-9.946471,9.727501,13.278885,,,,,,,
1512179102.449188,0.018335,0.416580,-2.870233,0.975150,0.789922,0.062591,0.016766,-0.404635,-0.914324,0.146610,-0.091291,-0.016874,-9.575255,8.903053,13.125305,,,,,,,
1512179102.469177,0.029286,0.422378,-2.862938,-0.235321,0.607680,0.536939,0.026708,-0.409931,-0.911725,0.131266,-0.155835,-0.093218,-8.750823,8.829292,12.668259,,,,,,,
1512179102.489166,0.030201,0.400732,-2.847793,-1.594749,0.206923,0.659769,0.027804,-0.390093,-0.920356,0.217435,-0.024244,-0.201364,-8.967391,10.703972,12.671051,,,,,,,
1512179102.509185,0.024497,0.358630,-2.835447,-2.321018,-0.207065,0.398348,0.022936,-0.350992,-0.936097,0.248197,0.107095,-0.308196,-9.109618,12.503746,11.998154,,,,,,,
1512179102.529174,0.015502,0.312901,-2.830974,-2.190493,-0.440081,0.035904,0.014749,-0.307820,-0.951330,0.221045,0.200444,-0.251673,-9.176253,14.378654,11.849655,,,,,,,
1512179102.549163,0.006639,0.275733,-2.832433,-1.625237,-0.438933,-0.108349,0.006388,-0.272252,-0.962205,0.180089,0.145940,-0.107650,-10.146880,15.352196,11.858398,,,,,,,
1512179102.569152,0.002189,0.252559,-2.830273,-0.862416,0.034700,0.265741,0.002120,-0.249882,-0.968274,0.145921,0.090184,0.052655,-10.292495,16.326988,11.860123,,,,,,,
1512179102.589172,0.009363,0.245354,-2.819856,-0.081860,0.738089,0.611043,0.009082,-0.242900,-0.970009,0.207485,0.097438,0.130760,-9.689666,17.002892,11.405334,,,,,,,
1512179102.609161,0.026154,0.250239,-2.804542,0.344359,1.149550,0.837191,0.025336,-0.247635,-0.968522,0.214791,0.055695,0.089631,-9.465453,16.853218,11.178360,,,,,,,
1512179102.629150,0.044870,0.256639,-2.784644,0.186557,1.151062,1.033199,0.043386,-0.253831,-0.966275,0.180872,0.095643,0.055279,-8.263503,17.380028,10.343399,,,,,,,
1512179102.649139,0.057849,0.256609,-2.763610,-0.193365,0.736138,0.972948,0.055924,-0.253802,-0.965638,0.113830,0.129916,0.078431,-7.363723,17.381371,9.885757,,,,,,,
1512179102.669158,0.063213,0.251994,-2.744632,-0.276047,0.441399,0.865183,0.061175,-0.249335,-0.966483,0.006803,0.127936,0.214545,-7.135497,18.131721,9.584183,,,,,,,
1512179102.689147,0.070228,0.250915,-2.727333,0.009417,0.668374,0.826402,0.067973,-0.248291,-0.966298,-0.046061,0.100235,0.310292,-6.309905,18.282951,9.427246,,,,,,,
1512179102.709136,0.083821,0.256181,-2.710559,0.316479,1.053362,0.842851,0.080990,-0.253388,-0.963968,-0.066464,0.040879,0.409800,-5.631637,19.033974,9.196854,,,,,,,
1512179102.729125,0.103894,0.266085,-2.692464,0.394005,1.284025,0.936457,0.100058,-0.262957,-0.959605,-0.127142,0.082232,0.369258,-4.732680,18.885323,8.439133,,,,,,,
1512179102.749145,0.129321,0.273659,-2.675381,0.219454,1.575642,0.804886,0.124162,-0.270256,-0.954749,-0.115205,-0.006676,0.306143,-3.082274,19.037788,7.900177,,,,,,,
1512179102.769134,0.156517,0.276784,-2.660131,-0.068010,1.540122,0.715309,0.149946,-0.273263,-0.950181,-0.123228,0.029229,0.144318,-1.806777,19.189705,7.514420,,,,,,,
1512179102.789123,0.179459,0.273930,-2.646709,-0.348870,1.139483,0.531816,0.171842,-0.270517,-0.947254,-0.095426,0.016199,-0.014690,-0.831771,19.266167,6.831177,,,,,,,
1512179102.809143,0.193192,0.266120,-2.636804,-0.519631,0.647187,0.325076,0.185234,-0.262990,-0.946850,-0.093468,-0.012630,-0.076496,0.223924,20.542763,6.747833,,,,,,,
1512179102.829132,0.199632,0.257732,-2.628460,-0.436110,0.315057,0.351785,0.191758,-0.254888,-0.947766,-0.096498,-0.058176,-0.127460,0.675050,20.843437,6.294159,,,,,,,
1512179102.849121,0.197694,0.254845,-2.617102,-0.134290,-0.123969,0.580632,0.190065,-0.252095,-0.948854,-0.116319,-0.095882,-0.215422,0.526704,21.218208,6.220596,,,,,,,
1512179102.869110,0.190506,0.257229,-2.605748,0.079762,-0.210054,0.525868,0.183126,-0.254401,-0.949602,-0.134481,-0.152581,-0.243406,0.228318,21.592766,6.073334,,,,,,,
1512179102.889129,0.185809,0.261860,-2.597209,0.182055,-0.069727,0.406308,0.178443,-0.258877,-0.949284,-0.125938,-0.181858,-0.303630,0.075883,21.067528,5.924362,,,,,,,
1512179102.909118,0.184063,0.267225,-2.590704,0.216161,0.018035,0.346342,0.176530,-0.264056,-0.948215,-0.085893,-0.230558,-0.404278,0.377946,21.517982,5.997009,,,,,,,
1512179102.929107,0.181741,0.273130,-2.583007,0.225573,-0.053793,0.482682,0.174042,-0.269747,-0.947072,-0.035706,-0.328886,-0.458644,0.074861,20.842537,5.924255,,,,,,,
1512179102.949096,0.176010,0.280609,-2.569622,0.275499,-0.181475,0.811310,0.168254,-0.276941,-0.946041,-0.024211,-0.254340,-0.548389,0.000169,20.917427,5.849915,,,,,,,
1512179102.969116,0.164438,0.290168,-2.553376,0.401732,-0.467613,0.834527,0.156855,-0.286113,-0.945270,-0.053248,-0.203588,-0.504925,-0.598525,21.216530,5.780167,,,,,,,
1512179102.989105,0.148955,0.303415,-2.541898,0.670541,-0.602193,0.494682,0.141626,-0.298781,-0.943754,-0.133768,-0.219194,-0.366243,-0.826858,20.466179,5.856720,,,,,,,
1512179103.009094,0.138896,0.320292,-2.542972,0.918726,-0.377201,-0.192811,0.131409,-0.314843,-0.940003,-0.118836,-0.153540,-0.203735,-1.655547,19.639931,5.938354,,,,,,,
1512179103.029083,0.141563,0.338605,-2.555340,1.006249,0.133189,-0.562891,0.133079,-0.332171,-0.933784,-0.072456,-0.160993,-0.147362,-2.032485,19.189369,6.091339,,,,,,,
1512179103.049102,0.155192,0.356606,-2.572962,1.024546,0.467941,-0.750150,0.144845,-0.349095,-0.925825,0.030127,-0.114848,-0.190493,-1.813262,17.914696,6.013840,,,,,,,
1512179103.069091,0.171048,0.375917,-2.593797,1.196116,0.414915,-0.813946,0.158329,-0.367126,-0.916597,0.094051,-0.041627,-0.099531,-1.296096,16.190468,5.858582,,,,,,,
1512179103.089080,0.187345,0.399507,-2.617099,1.439190,0.347062,-0.882083,0.171584,-0.388965,-0.905133,0.027070,0.047580,0.049969,-1.076583,14.990807,5.706116,,,,,,,
1512179103.109069,0.206206,0.426030,-2.644110,1.598938,0.453275,-0.997737,0.186446,-0.413259,-0.891322,-0.039748,0.120656,0.211024,-0.709899,13.116356,5.927063,,,,,,,
1512179103.129089,0.231869,0.454655,-2.674836,1.761319,0.767719,-1.066779,0.206453,-0.439153,-0.874370,-0.086366,0.176320,0.369288,-0.118148,11.317238,5.621140,,,,,,,
1512179103.149078,0.268430,0.485375,-2.708462,1.910953,1.242228,-1.067225,0.234586,-0.466540,-0.852824,-0.078381,0.213046,0.423595,0.925248,9.818810,5.911514,,,,,,,
1512179103.169067,0.314637,0.517207,-2.744617,2.017737,1.539343,-1.063578,0.268994,-0.494454,-0.826533,-0.084790,0.295190,0.475520,2.112962,7.045586,6.275040,,,,,,,
1512179103.189022,0.368690,0.548605,-2.783852,2.053503,1.817173,-1.085546,0.307507,-0.521497,-0.795914,-0.097561,0.380857,0.528199,4.355012,5.248955,6.555069,,,,,,,
1512179103.209041,0.432610,0.577047,-2.828298,2.015764,2.128263,-1.238523,0.351357,-0.545552,-0.760869,-0.103264,0.418049,0.516438,6.671159,3.227425,7.059372,,,,,,,
1512179103.229030,0.505063,0.598796,-2.877242,1.798594,2.310867,-1.377490,0.399678,-0.563648,-0.722881,-0.071843,0.437031,0.444637,9.061463,1.056007,7.187973,,,,,,,
1512179103.249019,0.578440,0.610451,-2.926590,1.369134,2.192872,-1.456611,0.447975,-0.573237,-0.686088,-0.021294,0.427607,0.337532,11.603288,-0.815178,7.690430,,,,,,,
1512179103.269039,0.640943,0.610763,-2.968948,0.778754,1.690797,-1.365640,0.489848,-0.573493,-0.656623,0.019292,0.436362,0.255561,14.222108,-2.236244,8.117462,,,,,,,
1512179103.289028,0.683635,0.601734,-2.999118,0.192264,1.023008,-1.194163,0.520676,-0.566073,-0.639107,-0.004669,0.465334,0.233330,16.247299,-2.233208,8.475250,,,,,,,
1512179103.309017,0.707134,0.585240,-3.018934,-0.268006,0.409123,-1.175249,0.541541,-0.552399,-0.633710,-0.031776,0.523774,0.266187,17.745285,-2.680962,8.462296,,,,,,,
1512179103.329006,0.720070,0.560826,-3.033867,-0.654571,0.193078,-1.340445,0.558422,-0.531886,-0.636602,-0.040951,0.488078,0.291585,18.646896,-2.304604,8.304810,,,,,,,
1512179103.349025,0.730725,0.529396,-3.045018,-0.981879,0.312332,-1.397007,0.576049,-0.505013,-0.642751,0.053620,0.408928,0.263876,19.699081,-1.778038,7.921127,,,,,,,
1512179103.369015,0.743086,0.494908,-3.047755,-1.311008,0.684119,-1.137165,0.595384,-0.474950,-0.648028,0.144926,0.296804,0.053286,20.302078,-1.027122,7.166382,,,,,,,
1512179103.389004,0.754946,0.461758,-3.042215,-1.385291,0.675928,-0.835511,0.613484,-0.445523,-0.652033,0.227596,0.287350,-0.171011,21.356308,-0.050545,6.857925,,,,,,,
1512179103.408993,0.760804,0.432903,-3.033295,-1.296943,0.356305,-0.648781,0.625898,-0.419508,-0.657468,0.243776,0.291761,-0.219638,23.391937,2.427513,5.791855,,,,,,,
1512179103.429012,0.759875,0.404216,-3.021444,-1.525624,0.096216,-0.563450,0.633318,-0.393298,-0.666502,0.292859,0.161014,-0.345522,23.248383,3.927299,5.193817,,,,,,,
1512179103.449001,0.750590,0.371696,-3.003023,-1.905142,-0.243207,-0.450731,0.635494,-0.363197,-0.681349,0.345753,0.066367,-0.452166,23.329498,5.352409,4.593842,,,,,,,
1512179103.468990,0.734549,0.337471,-2.979137,-2.045151,-0.447856,-0.245592,0.632447,-0.331102,-0.700273,0.367461,-0.041899,-0.502471,22.888153,7.376747,3.698608,,,,,,,
1512179103.488979,0.715820,0.306767,-2.952081,-1.963889,-0.554081,0.057977,0.625600,-0.301978,-0.719329,0.353633,-0.136926,-0.577851,22.594604,8.876305,3.101852,,,,,,,
1512179103.508999,0.694055,0.280847,-2.923644,-1.792351,-0.763561,0.247360,0.614599,-0.277169,-0.738543,0.344935,-0.169089,-0.641035,21.776764,10.525078,2.584625,,,,,,,
1512179103.528988,0.669023,0.260131,-2.898063,-1.434958,-0.984334,0.349847,0.599353,-0.257207,-0.758037,0.359677,-0.187678,-0.588429,20.657394,11.798409,2.369781,,,,,,,
1512179103.548977,0.642926,0.246125,-2.874084,-1.208691,-0.987666,0.592980,0.581472,-0.243647,-0.776226,0.330164,-0.203786,-0.452626,19.460983,12.621605,2.155365,,,,,,,
1512179103.568966,0.618151,0.234495,-2.844886,-1.408239,-0.835899,0.934951,0.563669,-0.232352,-0.792647,0.230658,-0.249444,-0.399384,18.116531,13.894600,1.792435,,,,,,,
1512179103.588985,0.594802,0.220552,-2.807648,-1.689962,-0.700028,1.153084,0.546771,-0.218768,-0.808197,0.102597,-0.280240,-0.467011,17.447601,15.243599,1.798798,,,,,,,
1512179103.608974,0.572618,0.207013,-2.769875,-1.437581,-0.744537,1.167245,0.530266,-0.205538,-0.822540,0.103523,-0.213667,-0.552658,16.478271,16.517143,1.657669,,,,,,,
1512179103.628963,0.548721,0.202344,-2.738473,-0.747244,-0.961428,1.185021,0.510955,-0.200966,-0.835785,0.083085,-0.120948,-0.431762,15.584382,17.865791,1.740936,,,,,,,
1512179103.648952,0.523443,0.207740,-2.714460,-0.173495,-1.021279,1.104643,0.489117,-0.206249,-0.847482,0.019977,-0.053120,-0.194083,14.307343,17.413887,1.751572,,,,,,,
1512179103.668972,0.502115,0.217998,-2.697228,0.124257,-0.767266,0.903023,0.469890,-0.216275,-0.855820,0.004399,-0.023623,0.000306,13.482469,17.412651,1.983582,,,,,,,
1512179103.688961,0.488973,0.229074,-2.685208,0.247070,-0.375744,0.715342,0.457449,-0.227076,-0.859754,0.024179,-0.003545,0.096433,12.805589,16.961632,2.289093,,,,,,,
1512179103.708950,0.483398,0.240187,-2.676190,0.308701,-0.078487,0.612795,0.451448,-0.237884,-0.860003,0.048643,0.001327,0.133014,12.506257,17.111183,2.291718,,,,,,,
1512179103.728969,0.481735,0.251522,-2.669350,0.376306,0.031804,0.525672,0.448739,-0.248878,-0.858308,0.057349,-0.000755,0.185945,12.806443,17.111626,2.664169,,,,,,,
1512179103.748958,0.481550,0.264239,-2.664513,0.512237,0.064122,0.494707,0.447078,-0.261175,-0.855517,0.049947,-0.012354,0.265795,12.802140,16.136620,2.813721,,,,,,,
1512179103.768947,0.482136,0.279874,-2.660880,0.666900,0.075989,0.554555,0.445631,-0.276234,-0.851532,0.050615,-0.047023,0.330414,12.424134,15.461052,2.891586,,,,,,,
1512179103.788936,0.480211,0.298775,-2.654704,0.693669,-0.080407,0.798527,0.441500,-0.294349,-0.847606,0.049543,-0.024208,0.394847,12.573579,15.311287,3.115250,,,,,,,
1512179103.808956,0.472134,0.317579,-2.642540,0.464901,-0.294834,1.020472,0.432046,-0.312267,-0.846065,0.003852,0.008083,0.475261,12.119935,14.485603,3.268692,,,,,,,
1512179103.828945,0.458230,0.331443,-2.624330,0.085010,-0.452594,1.100772,0.418285,-0.325408,-0.848025,-0.040951,0.063308,0.510699,11.818025,14.035149,3.496033,,,,,,,
1512179103.848934,0.442737,0.338159,-2.602906,-0.255735,-0.368563,1.016172,0.404152,-0.331751,-0.852410,-0.069756,0.076731,0.502236,11.145036,14.484138,3.501984,,,,,,,
1512179103.868923,0.430799,0.339151,-2.581518,-0.437950,-0.180596,0.890521,0.393810,-0.332686,-0.856874,-0.040691,0.066054,0.383257,10.544999,14.483238,3.432083,,,,,,,
1512179103.888942,0.421212,0.337121,-2.561407,-0.494879,-0.142024,0.789623,0.385852,-0.330771,-0.861225,0.002454,0.025550,0.225895,10.397523,15.008018,3.733597,,,,,,,
1512179103.908932,0.412502,0.335358,-2.542687,-0.380452,-0.100149,0.770106,0.378569,-0.329107,-0.865086,0.036622,-0.043299,0.085163,10.323564,15.232903,3.809341,,,,,,,
1512179103.928921,0.405938,0.337305,-2.525402,-0.145491,-0.021898,0.812159,0.372629,-0.330946,-0.866962,0.066565,-0.094576,-0.028592,10.103471,16.357582,3.511765,,,,,,,
1512179103.948910,0.398395,0.342936,-2.507702,-0.059774,-0.146938,0.908910,0.365350,-0.336254,-0.868016,0.057989,-0.103550,-0.073848,9.652696,16.131905,3.965485,,,,,,,
1512179103.968929,0.385847,0.346413,-2.488556,-0.291833,-0.387571,0.876995,0.353988,-0.339526,-0.871444,0.017793,-0.125150,-0.092210,9.878068,16.207237,4.038605,,,,,,,
1512179103.988918,0.369395,0.342999,-2.468406,-0.635889,-0.520384,0.788394,0.340020,-0.336313,-0.878225,0.007774,-0.183554,-0.171625,8.830537,16.730675,4.272766,,,,,,,
1512179104.008907,0.351575,0.333772,-2.447808,-0.818154,-0.564318,0.720574,0.325372,-0.327609,-0.887020,-0.002450,-0.198575,-0.272343,7.932603,17.179314,4.355637,,,,,,,
1512179104.028896,0.334592,0.324551,-2.429714,-0.613572,-0.544539,0.597809,0.311240,-0.318884,-0.895233,-0.006141,-0.166590,-0.343277,7.333863,17.478416,4.210861,,,,,,,
1512179104.048916,0.320639,0.321900,-2.418674,-0.074229,-0.509036,0.345628,0.298984,-0.316370,-0.900288,-0.011509,-0.124426,-0.351345,6.812852,18.302635,4.740707,,,,,,,
1512179104.068905,0.310476,0.328373,-2.417401,0.472050,-0.480933,0.060474,0.289188,-0.322504,-0.901311,-0.016208,-0.150671,-0.294581,6.739228,18.602531,4.816483,,,,,,,
1512179104.088894,0.300888,0.339658,-2.421801,0.617856,-0.628952,-0.061593,0.279436,-0.333165,-0.900509,-0.033800,-0.162654,-0.228138,6.359574,17.551964,4.969193,,,,,,,
1512179104.108883,0.286590,0.348459,-2.426695,0.376445,-0.895205,-0.109724,0.265694,-0.341450,-0.901565,-0.084694,-0.143124,-0.161592,5.532411,17.025719,5.350952,,,,,,,
1512179104.128902,0.267944,0.349825,-2.431410,-0.030497,-1.070708,-0.265480,0.248714,-0.342733,-0.905911,-0.117565,-0.092203,-0.119968,4.781236,16.724586,5.732193,,,,,,,
1512179104.148891,0.248816,0.343138,-2.439091,-0.316002,-1.071679,-0.536135,0.231901,-0.336443,-0.912704,-0.086424,-0.022062,-0.128922,3.581056,16.647789,6.042358,,,,,,,
1512179104.168880,0.233936,0.334759,-2.452242,-0.165533,-0.876518,-0.793389,0.218941,-0.328542,-0.918763,-0.011711,0.049993,-0.163162,2.456574,16.721107,6.426956,,,,,,,
1512179104.188900,0.225844,0.333811,-2.471103,0.378089,-0.614832,-0.907205,0.211569,-0.327646,-0.920808,0.048060,0.076929,-0.146133,1.633698,17.169868,6.659164,,,,,,,
