timestamp(unix),attitude_roll(radians),attitude_pitch(radians),attitude_yaw(radians),rotation_rate_x(radians/s),rotation_rate_y(radians/s),rotation_rate_z(radians/s),gravity_x(G),gravity_y(G),gravity_z(G),user_acc_x(G),user_acc_y(G),user_acc_z(G),magnetic_field_x(microteslas),magnetic_field_y(microteslas),magnetic_field_z(microteslas),latitude(degree),longitude(degree),altitude(meter),speed(m/s),course(degree),timestamp(unix),User Mark
1512178334.861712,-0.070784,0.399761,3.113865,0.430958,0.007162,0.144286,-0.065148,-0.389198,-0.918847,0.029580,-0.028710,-0.043891,-33.871891,-27.247694,-18.779366,,,,,,,
1512178334.881701,-0.071420,0.406654,3.117545,0.305493,0.068954,0.126689,-0.065540,-0.395539,-0.916108,0.007145,0.015854,-0.022094,-33.648808,-27.697371,-18.556480,,,,,,,
1512178334.901721,-0.071608,0.411094,3.119717,0.182899,-0.006938,0.058555,-0.065586,-0.399613,-0.914335,0.000477,0.038697,-0.016146,-33.725651,-28.072477,-18.856026,,,,,,,
1512178334.921710,-0.072142,0.413653,3.119941,0.106548,-0.021830,-0.031085,-0.066001,-0.401956,-0.913277,-0.005838,0.042139,0.023598,-34.100941,-28.148054,-18.777870,,,,,,,
1512178334.941699,-0.070561,0.415770,3.118217,0.102423,0.059484,-0.100155,-0.064496,-0.403895,-0.912529,0.011182,0.023554,0.039436,-34.103428,-28.673048,-19.003105,,,,,,,
1512178334.961719,-0.069071,0.417640,3.116613,0.086840,0.021998,-0.062134,-0.063084,-0.405604,-0.911869,0.027424,-0.018834,0.018299,-33.652637,-28.522383,-18.781868,,,,,,,
1512178334.981708,-0.068703,0.419012,3.116083,0.067814,0.002629,-0.009178,-0.062710,-0.406858,-0.911336,0.026028,-0.009295,0.020437,-33.879704,-28.972715,-18.855171,,,,,,,
1512178335.001727,-0.069032,0.419904,3.116341,0.044085,-0.014525,0.007479,-0.062985,-0.407672,-0.910953,0.004925,0.015430,0.014148,-33.653278,-28.672377,-18.706932,,,,,,,
1512178335.021716,-0.068784,0.420751,3.116319,0.052980,0.023979,-0.013582,-0.062735,-0.408446,-0.910624,-0.000116,0.025496,0.007670,-33.804401,-28.897596,-18.930763,,,,,,,
1512178335.041705,-0.068569,0.422165,3.115861,0.064805,-0.016575,-0.021012,-0.062500,-0.409736,-0.910060,0.007629,0.004860,-0.002797,-33.956455,-29.347822,-19.004692,,,,,,,
1512178335.061725,-0.069035,0.422881,3.115802,0.008929,-0.041278,0.004745,-0.062903,-0.410389,-0.909738,0.012519,-0.011806,-0.008673,-33.882435,-29.572721,-18.930443,,,,,,,
1512178335.081714,-0.070217,0.422561,3.115888,-0.020899,-0.060550,0.002112,-0.063988,-0.410097,-0.909794,0.015862,-0.003828,0.002400,-34.034718,-30.097944,-18.779411,,,,,,,
1512178335.101703,-0.070901,0.422213,3.116010,-0.005062,-0.013544,0.014234,-0.064621,-0.409780,-0.909893,0.012054,-0.005366,0.006069,-33.655781,-29.272383,-18.332222,,,,,,,
1512178335.121722,-0.071129,0.422391,3.116707,0.025473,0.009954,0.038210,-0.064822,-0.409943,-0.909805,0.010913,0.001648,-0.002304,-33.728870,-28.822493,-18.556374,,,,,,,
1512178335.141711,-0.071308,0.423104,3.117406,0.040651,-0.002809,0.022395,-0.064965,-0.410592,-0.909502,0.008416,0.014016,-0.006041,-34.106571,-29.423048,-18.553459,,,,,,,
1512178335.161700,-0.071705,0.423887,3.117583,0.035655,-0.027343,0.000916,-0.065303,-0.411307,-0.909155,0.000895,0.012518,-0.002619,-33.953495,-28.747831,-18.479424,,,,,,,
1512178335.181720,-0.071995,0.424420,3.117534,0.024032,-0.008123,-0.004516,-0.065551,-0.411792,-0.908917,0.005065,0.022281,-0.004733,-34.106800,-29.498060,-18.328499,,,,,,,
1512178335.201709,-0.071647,0.425234,3.117275,0.056381,0.019742,-0.025271,-0.065210,-0.412534,-0.908605,0.002009,0.026914,-0.002162,-34.109043,-29.948057,-18.778694,,,,,,,
1512178335.221728,-0.070939,0.427115,3.116473,0.112127,0.011318,-0.044749,-0.064512,-0.414247,-0.907875,0.004438,0.010820,-0.000190,-33.879063,-28.897718,-18.255119,,,,,,,
1512178335.241717,-0.069945,0.429584,3.115987,0.130921,0.059362,-0.018725,-0.063538,-0.416493,-0.906916,0.005234,-0.000835,-0.004064,-33.879841,-29.047712,-18.480202,,,,,,,
1512178335.261706,-0.068249,0.432281,3.116118,0.147653,0.111690,0.004090,-0.061923,-0.418943,-0.905899,0.000628,0.012327,-0.001206,-33.882053,-29.572721,-18.180443,,,,,,,
1512178335.281726,-0.065267,0.435374,3.116611,0.167711,0.177920,0.019536,-0.059136,-0.421749,-0.904782,-0.002677,0.017376,-0.016696,-33.732471,-29.647490,-18.331749,,,,,,,
1512178335.301715,-0.062806,0.438322,3.117550,0.139641,0.108405,0.037009,-0.056831,-0.424420,-0.903680,0.009956,0.024503,-0.038260,-33.809498,-30.097609,-18.331322,,,,,,,
1512178335.321704,-0.062703,0.439761,3.118573,0.026421,-0.010352,0.044550,-0.056700,-0.425723,-0.903075,0.002134,0.037493,-0.030442,-33.657658,-29.722380,-18.032417,,,,,,,
1512178335.341723,-0.063430,0.438110,3.119450,-0.133398,0.003302,0.040151,-0.057401,-0.424229,-0.903734,-0.011950,0.050114,-0.019774,-33.433704,-29.947050,-18.109444,,,,,,,
1512178335.361712,-0.062503,0.434758,3.119809,-0.156541,0.080200,0.024088,-0.056652,-0.421191,-0.905201,-0.004444,0.053912,-0.016705,-33.433033,-29.797041,-18.109367,,,,,,,
1512178335.381701,-0.060307,0.432687,3.120619,-0.050419,0.157212,0.057879,-0.054716,-0.419312,-0.906192,0.012373,0.053055,-0.030271,-33.431004,-29.347044,-18.109169,,,,,,,
1512178335.401721,-0.057130,0.432905,3.122763,0.059407,0.225615,0.124738,-0.051832,-0.419510,-0.906270,0.004392,0.059158,-0.048534,-33.207096,-29.571714,-18.261177,,,,,,,
1512178335.421710,-0.053859,0.434452,3.126436,0.107645,0.238407,0.173453,-0.048832,-0.420913,-0.905786,0.009953,0.084045,-0.067359,-33.437458,-30.772047,-18.184822,,,,,,,
1512178335.441730,-0.052081,0.436266,3.130700,0.107247,0.132616,0.192267,-0.047181,-0.422558,-0.905107,0.001924,0.107205,-0.081740,-32.908146,-29.796263,-18.338829,,,,,,,
1512178335.461719,-0.052721,0.437227,3.135092,0.036806,0.036373,0.193046,-0.047740,-0.423429,-0.904671,-0.011709,0.118467,-0.047569,-32.982166,-29.571363,-18.413094,,,,,,,
1512178335.481708,-0.053217,0.436229,3.138896,-0.057597,0.072603,0.166220,-0.048211,-0.422525,-0.905068,-0.041312,0.118493,-0.042045,-32.758701,-29.946028,-18.115181,,,,,,,
1512178335.501727,-0.052511,0.434613,-3.140427,-0.032446,0.145217,0.195619,-0.047607,-0.421059,-0.905783,-0.041520,0.112328,-0.019159,-32.533970,-30.020689,-17.967125,,,,,,,
1512178335.521716,-0.050600,0.435061,-3.135074,0.120934,0.248910,0.272824,-0.045867,-0.421466,-0.905683,-0.045595,0.100467,0.006742,-32.759754,-30.171034,-18.190285,,,,,,,
1512178335.541705,-0.047215,0.438999,-3.127249,0.301297,0.373924,0.396338,-0.042722,-0.425033,-0.904169,-0.035800,0.089401,0.004190,-32.382282,-29.645475,-17.968239,,,,,,,
1512178335.561725,-0.043747,0.445071,-3.115548,0.366556,0.467661,0.580972,-0.039472,-0.430522,-0.901716,-0.028292,0.092998,-0.016359,-32.157017,-29.570127,-18.120110,,,,,,,
1512178335.581714,-0.040547,0.450936,-3.100111,0.317330,0.508968,0.724323,-0.036484,-0.435808,-0.899300,-0.008194,0.138155,-0.047325,-31.706867,-29.569456,-17.823936,,,,,,,
1512178335.601699,-0.038439,0.454573,-3.083024,0.175861,0.481957,0.768018,-0.034527,-0.439079,-0.897785,-0.017459,0.166114,-0.066220,-31.257572,-29.718779,-17.902824,,,,,,,
1512178335.621718,-0.036680,0.455681,-3.065470,0.067876,0.477481,0.786692,-0.032930,-0.440074,-0.897357,-0.037505,0.169993,-0.055493,-31.256336,-29.418776,-18.127693,,,,,,,
1512178335.641707,-0.034715,0.456280,-3.047892,0.090286,0.501014,0.786031,-0.031157,-0.440612,-0.897157,-0.036286,0.159239,-0.027648,-31.180332,-29.193663,-18.128212,,,,,,,
1512178335.661727,-0.032118,0.458222,-3.029853,0.174042,0.549156,0.817266,-0.028800,-0.442354,-0.896378,-0.029367,0.134340,-0.012970,-30.953754,-28.818327,-18.354958,,,,,,,
1512178335.681716,-0.028935,0.462124,-3.010995,0.275786,0.584487,0.855108,-0.025897,-0.445850,-0.894733,-0.016813,0.120502,-0.004651,-30.352512,-28.517424,-18.584923,,,,,,,
1512178335.701705,-0.027246,0.467628,-2.991126,0.324191,0.497964,0.888553,-0.024318,-0.450770,-0.892309,-0.017827,0.113139,0.019948,-29.450703,-28.141066,-18.367393,,,,,,,
1512178335.721724,-0.027039,0.472808,-2.970697,0.259780,0.476454,0.915265,-0.024070,-0.455388,-0.889967,-0.029321,0.090780,0.068297,-29.299702,-27.915846,-18.368568,,,,,,,
1512178335.741713,-0.026737,0.475057,-2.948703,0.072724,0.555022,1.014105,-0.023773,-0.457389,-0.888949,-0.032471,0.079566,0.079378,-29.073689,-27.690504,-18.370369,,,,,,,
1512178335.761702,-0.025148,0.473073,-2.924618,-0.145086,0.678421,1.105192,-0.022383,-0.455624,-0.889891,-0.031297,0.092510,0.055540,-28.846851,-27.240156,-18.747078,,,,,,,
1512178335.781722,-0.021982,0.467770,-2.899001,-0.272893,0.752874,1.165428,-0.019619,-0.450897,-0.892360,-0.015750,0.117752,-0.008381,-28.541447,-26.039701,-18.749077,,,,,,,
1512178335.801711,-0.019731,0.461990,-2.872605,-0.242544,0.655658,1.195380,-0.017661,-0.445730,-0.894993,-0.003777,0.133474,-0.056163,-27.564274,-25.513243,-19.132118,,,,,,,
1512178335.821700,-0.021222,0.458118,-2.845932,-0.122343,0.437918,1.200628,-0.019032,-0.442261,-0.896684,-0.009136,0.135575,-0.045561,-27.410892,-24.763014,-19.133049,,,,,,,
1512178335.841719,-0.025583,0.456108,-2.819110,-0.053153,0.347222,1.202381,-0.022965,-0.440457,-0.897480,-0.034347,0.121686,-0.003597,-27.332600,-24.012892,-19.283333,,,,,,,
1512178335.861708,-0.030726,0.454077,-2.792933,-0.091969,0.310928,1.163317,-0.027608,-0.438633,-0.898242,-0.056621,0.079716,0.037845,-27.554859,-23.413221,-19.206139,,,,,,,
1512178335.881728,-0.035437,0.449653,-2.767321,-0.250777,0.343796,1.162194,-0.031908,-0.434653,-0.900033,-0.036253,0.032294,0.042260,-26.877872,-22.962217,-19.286674,,,,,,,
1512178335.901717,-0.038579,0.441139,-2.740960,-0.456731,0.453344,1.244877,-0.034877,-0.426969,-0.903593,0.007136,0.000151,-0.013002,-26.424061,-22.136534,-19.065117,,,,,,,
1512178335.921706,-0.040472,0.429301,-2.712096,-0.563384,0.541571,1.381159,-0.036789,-0.416236,-0.908512,0.043488,-0.001336,-0.077419,-26.043430,-20.860960,-19.292717,,,,,,,
1512178335.941726,-0.041976,0.418180,-2.681500,-0.427526,0.533164,1.417213,-0.038348,-0.406098,-0.913025,0.049548,0.028900,-0.113938,-25.813282,-19.735609,-19.144112,,,,,,,
1512178335.961715,-0.045531,0.411578,-2.651870,-0.185339,0.342496,1.331576,-0.041714,-0.400056,-0.915541,0.031231,0.029390,-0.095201,-25.434986,-18.985044,-19.296959,,,,,,,
1512178335.981704,-0.051137,0.407656,-2.624717,-0.145076,0.231697,1.211307,-0.046926,-0.396458,-0.916853,-0.003092,-0.022212,-0.041491,-25.134464,-18.834593,-19.599434,,,,,,,
1512178336.001723,-0.056218,0.400888,-2.600010,-0.376988,0.240080,1.118431,-0.051734,-0.390236,-0.919260,-0.013726,-0.090980,-0.015539,-24.750904,-16.959013,-19.376747,,,,,,,
1512178336.021712,-0.059556,0.388453,-2.577291,-0.658602,0.291022,1.066554,-0.055086,-0.378757,-0.923855,-0.007841,-0.119687,-0.047962,-24.450077,-16.808561,-19.079231,,,,,,,
1512178336.041701,-0.061917,0.372417,-2.556413,-0.764866,0.235487,0.978470,-0.057636,-0.363868,-0.929666,0.005069,-0.108544,-0.098945,-24.138828,-14.333097,-18.855644,,,,,,,
1512178336.061721,-0.065492,0.356478,-2.537764,-0.714477,0.126780,0.891406,-0.061331,-0.348976,-0.935123,0.004675,-0.124413,-0.096707,-23.910496,-13.582762,-18.932213,,,,,,,
1512178336.081710,-0.068379,0.342356,-2.519607,-0.605119,0.204864,0.922044,-0.064360,-0.335707,-0.939765,0.001235,-0.139161,-0.082925,-23.904987,-12.382750,-18.706657,,,,,,,
1512178336.101729,-0.068786,0.330704,-2.499317,-0.450211,0.390732,1.040069,-0.065007,-0.324709,-0.943577,0.018910,-0.105940,-0.095088,-23.376865,-11.706953,-18.560814,,,,,,,
1512178336.121718,-0.066049,0.323263,-2.477148,-0.192690,0.535263,1.075218,-0.062583,-0.317662,-0.946136,0.037711,-0.036738,-0.128372,-23.147556,-10.731611,-18.712257,,,,,,,
1512178336.141707,-0.062303,0.322835,-2.455340,0.201834,0.502894,1.004066,-0.059046,-0.317256,-0.946500,0.034404,-0.001103,-0.096789,-22.624317,-11.105833,-18.866905,,,,,,,
1512178336.161727,-0.060827,0.330491,-2.434741,0.560233,0.350861,0.920250,-0.057500,-0.324508,-0.944134,0.018925,-0.011705,-0.001484,-21.949955,-11.254820,-18.797707,,,,,,,
1512178336.181716,-0.061090,0.341933,-2.415243,0.626110,0.295518,0.865574,-0.057518,-0.335309,-0.940351,0.004280,-0.050921,0.078702,-21.801044,-11.479597,-18.949089,,,,,,,
1512178336.201705,-0.061368,0.351114,-2.396695,0.418802,0.309157,0.831703,-0.057588,-0.343944,-0.937223,0.011919,-0.059239,0.123166,-21.199619,-11.178694,-18.804054,,,,,,,
1512178336.221724,-0.060925,0.354752,-2.378767,0.122630,0.349315,0.822222,-0.057096,-0.347358,-0.935993,0.022718,-0.054589,0.116748,-20.750431,-11.328016,-19.107933,,,,,,,
1512178336.241713,-0.059950,0.353889,-2.361638,-0.039058,0.325610,0.799541,-0.056202,-0.346548,-0.936347,0.043430,-0.056040,0.090903,-20.899006,-11.028242,-18.956535,,,,,,,
1512178336.261702,-0.060971,0.352042,-2.344206,-0.034656,0.204814,0.850357,-0.057196,-0.344815,-0.936926,0.061972,-0.065768,0.074942,-19.999653,-11.176893,-18.889244,,,,,,,
1512178336.281722,-0.064569,0.350537,-2.324631,-0.022741,0.157601,0.965498,-0.060600,-0.343402,-0.937231,0.091454,-0.087949,0.092673,-20.297245,-10.652342,-18.811455,,,,,,,
1512178336.301711,-0.067035,0.349134,-2.301929,0.008738,0.338909,1.133956,-0.062943,-0.342084,-0.937559,0.074128,-0.072711,0.102949,-19.849079,-11.026670,-19.115456,,,,,,,
1512178336.321730,-0.067703,0.348426,-2.276659,0.048230,0.393323,1.198682,-0.063586,-0.341419,-0.937758,0.100070,-0.023617,0.024947,-19.019962,-10.125425,-18.972054,,,,,,,
1512178336.341719,-0.069215,0.347051,-2.251532,-0.030316,0.329158,1.174934,-0.065037,-0.340126,-0.938128,0.087055,0.013710,-0.001889,-18.716206,-9.299971,-18.899223,,,,,,,
1512178336.361708,-0.070415,0.343973,-2.227411,-0.102998,0.364394,1.122830,-0.066235,-0.337230,-0.939089,0.068432,0.039104,0.002947,-18.266575,-9.374296,-18.978081,,,,,,,
1512178336.381728,-0.070162,0.340312,-2.205107,-0.099988,0.391338,1.006769,-0.066084,-0.333781,-0.940331,0.061872,0.095072,-0.040641,-17.662189,-8.398390,-18.982735,,,,,,,
1512178336.401717,-0.069617,0.338014,-2.185664,-0.009736,0.314786,0.895875,-0.065625,-0.331614,-0.941130,0.072049,0.056376,-0.064821,-17.587269,-8.398268,-19.133354,,,,,,,
1512178336.421706,-0.070728,0.338098,-2.166877,0.107726,0.219926,0.879122,-0.066668,-0.331694,-0.941029,0.069292,0.034254,-0.070858,-17.437046,-8.323042,-19.359612,,,,,,,
1512178336.441726,-0.072361,0.340290,-2.148541,0.210808,0.231922,0.834817,-0.068152,-0.333760,-0.940191,0.076407,0.026723,-0.040934,-16.836033,-8.172148,-18.689629,,,,,,,
1512178336.461715,-0.073003,0.344606,-2.131121,0.312908,0.269558,0.786321,-0.068650,-0.337826,-0.938702,0.095749,0.012920,-0.015354,-16.236134,-8.171247,-18.919731,,,,,,,
1512178336.481704,-0.072815,0.350473,-2.113447,0.382482,0.360361,0.838818,-0.068328,-0.343342,-0.936722,0.122542,-0.038082,0.045364,-16.086582,-8.246016,-19.146034,,,,,,,
1512178336.501723,-0.070495,0.357656,-2.093453,0.457437,0.486298,0.954411,-0.065980,-0.350079,-0.934394,0.135392,-0.043079,0.053488,-15.413166,-8.620008,-18.926949,,,,,,,
1512178336.521712,-0.069214,0.365654,-2.070712,0.477576,0.434788,1.087779,-0.064586,-0.357560,-0.931654,0.110881,-0.021209,0.047972,-14.662891,-8.543882,-19.083290,,,,,,,
1512178336.541732,-0.070647,0.372230,-2.045414,0.357588,0.351092,1.183826,-0.065754,-0.363693,-0.929195,0.108189,-0.001404,0.042049,-14.290638,-9.143324,-19.161751,,,,,,,
1512178336.561721,-0.073774,0.375251,-2.019329,0.166392,0.304828,1.204349,-0.068578,-0.366506,-0.927885,0.104207,0.036306,0.037763,-13.538944,-8.767195,-19.167961,,,,,,,
1512178336.581710,-0.077015,0.374972,-1.994058,0.032955,0.302592,1.150169,-0.071593,-0.366247,-0.927759,0.095671,0.066335,0.026301,-13.089008,-8.766523,-19.321785,,,,,,,
1512178336.601698,-0.079447,0.373583,-1.970365,0.023564,0.317686,1.074398,-0.073889,-0.364953,-0.928089,0.089865,0.081659,0.014347,-12.714649,-8.915968,-19.250038,,,,,,,
1512178336.621687,-0.080871,0.373330,-1.948029,0.109702,0.346755,1.023508,-0.075219,-0.364718,-0.928075,0.105767,0.068774,0.002614,-12.563267,-8.615736,-19.176170,,,,,,,
1512178336.641676,-0.082404,0.375238,-1.925811,0.217322,0.305260,1.024924,-0.076583,-0.366494,-0.927263,0.116119,0.048150,-0.011000,-12.113941,-8.765059,-19.180061,,,,,,,
1512178336.661696,-0.085364,0.378582,-1.903291,0.260986,0.251919,1.025373,-0.079223,-0.369603,-0.925806,0.115646,0.038976,0.015482,-11.738636,-8.689497,-19.258217,,,,,,,
1512178336.681685,-0.088362,0.381680,-1.881213,0.225225,0.272211,0.996138,-0.081896,-0.372480,-0.924420,0.110034,0.021741,0.046810,-11.361912,-8.313932,-19.186241,,,,,,,
1512178336.701674,-0.090302,0.383621,-1.859611,0.161449,0.331958,0.989031,-0.083624,-0.374281,-0.923537,0.110968,0.005674,0.067092,-10.614719,-8.912809,-19.417885,,,,,,,
1512178336.721693,-0.090729,0.384465,-1.837876,0.120726,0.417316,1.005794,-0.083990,-0.375063,-0.923186,0.104513,0.002306,0.066375,-10.387775,-8.462477,-19.569588,,,,,,,
1512178336.741682,-0.090162,0.384691,-1.815425,0.091152,0.460966,1.055621,-0.083459,-0.375273,-0.923149,0.094995,0.015288,0.031395,-9.637241,-8.386351,-19.200935,,,,,,,
1512178336.761671,-0.089398,0.383959,-1.792496,0.039994,0.466229,1.054897,-0.082778,-0.374594,-0.923486,0.079437,0.037573,0.017389,-9.337910,-8.535902,-19.203545,,,,,,,
1512178336.781691,-0.088665,0.382595,-1.770394,0.019438,0.438521,1.007598,-0.082147,-0.373329,-0.924055,0.044229,0.057563,-0.001787,-8.586231,-8.159773,-19.209755,,,,,,,
1512178336.801680,-0.087995,0.381596,-1.749675,0.052678,0.407750,0.930152,-0.081560,-0.372402,-0.924481,0.014559,0.065441,-0.012775,-7.911304,-8.158766,-19.365486,,,,,,,
1512178336.821699,-0.087166,0.382326,-1.730881,0.152386,0.371780,0.829128,-0.080770,-0.373080,-0.924277,-0.018549,0.038974,-0.002573,-7.536594,-8.233198,-19.293709,,,,,,,
1512178336.841688,-0.086705,0.384506,-1.713411,0.175422,0.356939,0.788899,-0.080274,-0.375101,-0.923502,-0.041186,-0.007681,0.028375,-6.936893,-8.307295,-19.223839,,,,,,,
1512178336.861677,-0.083748,0.385060,-1.696242,0.033645,0.574616,0.799330,-0.077525,-0.375615,-0.923528,-0.045980,-0.047740,0.051701,-6.412571,-8.456511,-19.228371,,,,,,,
1512178336.881697,-0.074952,0.381806,-1.677262,-0.154258,0.913696,0.961961,-0.069490,-0.372597,-0.925388,-0.010528,-0.066109,-0.031506,-5.510212,-7.930159,-19.235786,,,,,,,
1512178336.901686,-0.063781,0.377063,-1.654901,-0.139267,0.969007,1.089228,-0.059260,-0.368191,-0.927860,0.017085,-0.017703,-0.145276,-4.610203,-7.928801,-19.243431,,,,,,,
1512178336.921675,-0.056638,0.375574,-1.631776,0.079597,0.631867,1.053917,-0.052662,-0.366806,-0.928806,-0.002911,0.044449,-0.179272,-3.260197,-7.926786,-19.254906,,,,,,,
1512178336.941695,-0.055855,0.378557,-1.610770,0.255513,0.350413,0.909435,-0.051873,-0.369580,-0.927750,-0.059791,0.066159,-0.069153,-2.510456,-8.000654,-19.111320,,,,,,,
1512178336.961684,-0.055622,0.382567,-1.592092,0.225871,0.376154,0.833405,-0.051574,-0.373303,-0.926275,-0.113541,0.031094,-0.001627,-2.512226,-8.375654,-19.261482,,,,,,,
1512178336.981673,-0.053725,0.384433,-1.573286,0.079814,0.509309,0.904241,-0.049780,-0.375033,-0.925674,-0.106897,0.019305,0.036132,-2.063984,-8.749983,-19.415489,,,,,,,
1512178337.001692,-0.049636,0.382807,-1.552076,-0.095939,0.626298,1.031097,-0.046025,-0.373526,-0.926477,-0.097408,0.025595,0.047373,-1.236179,-8.148741,-19.197227,,,,,,,
1512178337.021681,-0.046107,0.378010,-1.529411,-0.244775,0.570452,1.068192,-0.042836,-0.369072,-0.928413,-0.111491,0.082970,0.010750,-0.335789,-8.072401,-19.129845,,,,,,,
1512178337.041701,-0.047100,0.371731,-1.507163,-0.253965,0.231901,1.027437,-0.043867,-0.363229,-0.930667,-0.090685,0.034402,0.027865,0.337902,-8.371382,-19.060707,,,,,,,
1512178337.061690,-0.053176,0.365620,-1.484454,-0.263965,0.076834,1.108838,-0.049637,-0.357528,-0.932582,-0.089889,0.028381,0.052104,0.788906,-8.145704,-19.064430,,,,,,,
1512178337.081679,-0.058646,0.358077,-1.460525,-0.345473,0.211234,1.145439,-0.054895,-0.350474,-0.934962,-0.080847,0.018381,0.062831,1.169079,-7.020140,-18.842094,,,,,,,
1512178337.101698,-0.062029,0.349089,-1.436403,-0.387440,0.238894,1.170513,-0.058250,-0.342042,-0.937877,-0.049629,0.015534,-0.003468,2.070095,-6.793791,-18.849648,,,,,,,
1512178337.121687,-0.068575,0.339974,-1.411148,-0.366430,0.004848,1.242494,-0.064599,-0.333462,-0.940548,-0.031776,0.006039,-0.019368,2.072308,-6.343779,-18.474434,,,,,,,
1512178337.141676,-0.077227,0.331526,-1.385096,-0.310065,0.067931,1.253122,-0.072949,-0.325486,-0.942729,0.001477,0.042085,0.041728,1.997356,-6.343901,-18.398811,,,,,,,
1512178337.161696,-0.082423,0.323714,-1.359287,-0.278763,0.174840,1.235829,-0.078054,-0.318089,-0.944842,-0.021663,0.058385,0.024920,2.372356,-6.343336,-18.401985,,,,,,,
1512178337.181685,-0.086404,0.317455,-1.334846,-0.170767,0.158077,1.149915,-0.081984,-0.312150,-0.946489,-0.040162,0.055360,0.026460,2.748745,-6.042768,-18.330040,,,,,,,
1512178337.201674,-0.092352,0.313172,-1.311492,-0.090435,0.003373,1.119626,-0.087735,-0.308078,-0.947307,-0.038257,0.024204,0.024974,2.824749,-5.817656,-18.330574,,,,,,,
1512178337.221693,-0.102277,0.309122,-1.288065,-0.114358,-0.256268,1.135432,-0.097260,-0.304223,-0.947623,-0.061645,-0.010139,0.011572,3.050808,-5.592314,-18.257393,,,,,,,
1512178337.241682,-0.118152,0.302543,-1.264132,-0.257481,-0.501238,1.205000,-0.112524,-0.297949,-0.947927,-0.059748,-0.019434,0.041387,2.823360,-6.117659,-18.405708,,,,,,,
1512178337.261702,-0.133793,0.292370,-1.238448,-0.427645,-0.238952,1.322847,-0.127733,-0.288223,-0.949006,-0.077040,0.082198,0.184342,2.975201,-5.742430,-18.106819,,,,,,,
1512178337.281691,-0.134488,0.277059,-1.212317,-0.639469,0.455018,1.336046,-0.128970,-0.273528,-0.953178,-0.075360,-0.030076,0.085594,3.503094,-5.066633,-18.410957,,,,,,,
1512178337.301680,-0.134461,0.261725,-1.186100,-0.551048,0.395209,1.402152,-0.129491,-0.258747,-0.957226,-0.042033,0.006001,0.061749,4.025387,-5.665846,-18.415703,,,,,,,
1512178337.321699,-0.131483,0.248191,-1.157660,-0.484253,0.441071,1.491764,-0.127087,-0.245651,-0.960991,-0.025958,-0.015824,-0.040886,5.156353,-4.389158,-17.974678,,,,,,,
1512178337.341688,-0.136428,0.235101,-1.128774,-0.444965,-0.144201,1.473242,-0.132263,-0.232942,-0.963454,-0.029480,-0.016646,-0.012482,5.457119,-4.238707,-17.827156,,,,,,,
1512178337.361677,-0.149983,0.223516,-1.099501,-0.297647,-0.339546,1.515204,-0.145704,-0.221660,-0.964177,-0.011934,0.008616,0.099416,5.083538,-3.939268,-17.673836,,,,,,,
1512178337.381697,-0.155240,0.216822,-1.068467,0.033689,0.335973,1.560733,-0.150997,-0.215128,-0.964842,-0.036519,-0.004096,0.124937,5.682156,-4.238371,-17.754082,,,,,,,
1512178337.401686,-0.150800,0.217145,-1.034534,0.410149,0.684511,1.698526,-0.146701,-0.215443,-0.965434,-0.056180,-0.019008,0.064128,6.356319,-4.462355,-17.384911,,,,,,,
1512178337.421675,-0.142743,0.224544,-0.996026,0.774556,0.881320,1.848408,-0.138688,-0.222661,-0.964981,-0.072692,-0.010523,0.045761,7.626003,-5.585447,-17.921272,,,,,,,
1512178337.441695,-0.135149,0.238565,-0.955983,1.066376,0.804958,1.796935,-0.130922,-0.236309,-0.962817,-0.066771,0.015179,0.009006,9.197369,-6.408094,-17.785042,,,,,,,
1512178337.461684,-0.129189,0.255267,-0.918606,1.055816,0.805326,1.595291,-0.124655,-0.252504,-0.959533,-0.070886,0.012086,0.009383,10.093578,-7.231749,-17.943077,,,,,,,
1512178337.481703,-0.121330,0.270280,-0.886755,0.834052,0.762777,1.337146,-0.116639,-0.267001,-0.956612,-0.057861,-0.024350,-0.012764,10.912838,-8.505522,-17.950676,,,,,,,
1512178337.501692,-0.112959,0.278376,-0.859651,0.360577,0.885123,1.223041,-0.108380,-0.274795,-0.955375,-0.031238,-0.069642,-0.045189,12.035336,-9.103834,-17.585503,,,,,,,
1512178337.521681,-0.096324,0.277905,-0.835797,-0.018499,1.259755,1.085596,-0.092485,-0.274341,-0.957175,-0.002562,-0.064449,-0.040491,12.782864,-9.627714,-17.817131,,,,,,,
1512178337.541701,-0.080457,0.274536,-0.814966,-0.086146,0.897765,0.968223,-0.077361,-0.271100,-0.959437,0.017439,-0.053302,-0.119969,14.057644,-9.700804,-17.603004,,,,,,,
1512178337.561690,-0.074031,0.272409,-0.795612,0.005598,0.433288,0.941283,-0.071236,-0.269053,-0.960487,0.058541,-0.072820,-0.050484,14.732388,-9.774794,-17.458763,,,,,,,
1512178337.581679,-0.071280,0.271389,-0.775071,0.001827,0.487562,1.043760,-0.068613,-0.268069,-0.960953,0.007089,-0.113843,-0.058899,15.256069,-10.074003,-17.388374,,,,,,,
1512178337.601686,-0.064725,0.268402,-0.750772,-0.116786,0.728355,1.266753,-0.062364,-0.265191,-0.962177,0.021104,-0.111610,-0.044918,15.854198,-10.523115,-17.093681,,,,,,,
1512178337.621675,-0.059163,0.264066,-0.721055,-0.133245,0.545115,1.544116,-0.057079,-0.261008,-0.963648,-0.235706,-0.144784,-0.043570,16.454205,-10.522215,-17.098778,,,,,,,
1512178337.641665,-0.059424,0.260002,-0.694289,-0.118702,0.183902,1.097458,-0.057393,-0.257083,-0.964684,-0.336330,-0.062802,-0.076897,16.900906,-11.271544,-16.952950,,,,,,,
1512178337.661685,-0.060746,0.256497,-0.674894,-0.096851,0.281705,0.811344,-0.058722,-0.253694,-0.965500,-0.066812,0.074892,-0.006591,17.350674,-11.345869,-16.731804,,,,,,,
1512178337.681674,-0.055059,0.255734,-0.664401,0.076564,0.441967,0.387991,-0.053242,-0.252956,-0.966012,0.017033,0.028820,-0.090476,17.950787,-11.344969,-16.511909,,,,,,,
1512178337.701693,-0.051192,0.261590,-0.654939,0.483513,0.222276,0.524250,-0.049429,-0.258617,-0.964714,0.045309,-0.086552,-0.175468,18.249218,-11.719511,-16.289635,,,,,,,
1512178337.721682,-0.055822,0.275975,-0.639438,0.884368,-0.163339,0.826141,-0.053682,-0.272486,-0.960661,-0.001601,-0.083548,-0.148927,18.243587,-12.919523,-16.740181,,,,,,,
1512178337.741671,-0.067748,0.292197,-0.617701,0.798119,-0.277181,1.073957,-0.064827,-0.288057,-0.955416,-0.044533,-0.067412,-0.014982,18.165661,-13.594648,-16.514870,,,,,,,
1512178337.761691,-0.075867,0.300259,-0.593646,0.267689,0.109656,1.129450,-0.072403,-0.295768,-0.952512,-0.064148,-0.000863,0.051435,18.085155,-14.794767,-16.739769,,,,,,,
1512178337.781680,-0.076029,0.298182,-0.571264,-0.169887,0.421067,1.045305,-0.072604,-0.293783,-0.953111,-0.057905,0.040609,-0.041335,18.236156,-14.569532,-16.740944,,,,,,,
1512178337.801669,-0.071843,0.291405,-0.550661,-0.293698,0.541685,0.995960,-0.068755,-0.287298,-0.955370,0.014342,0.105093,-0.091596,18.609219,-15.018980,-16.594353,,,,,,,
1512178337.821687,-0.065853,0.284822,-0.530647,-0.206588,0.570742,0.950413,-0.063154,-0.280987,-0.957631,0.017881,0.164837,-0.148036,19.208584,-15.168074,-16.524513,,,,,,,
1512178337.841676,-0.060690,0.284120,-0.512650,0.189147,0.487252,0.803410,-0.058221,-0.280313,-0.958141,0.034448,0.199213,-0.104999,19.507381,-15.467634,-16.227196,,,,,,,
1512178337.861665,-0.054131,0.293079,-0.499471,0.647934,0.519611,0.458370,-0.051798,-0.288901,-0.955957,0.010233,0.222449,-0.028769,20.105648,-15.841734,-16.307487,,,,,,,
1512178337.881685,-0.046297,0.308068,-0.490964,0.779748,0.564881,0.353830,-0.044102,-0.303218,-0.951900,-0.033718,0.110240,0.095501,20.402096,-16.666288,-16.010414,,,,,,,
1512178337.901675,-0.037444,0.321169,-0.482933,0.583416,0.563494,0.364841,-0.035521,-0.315676,-0.948202,-0.042040,0.038072,0.156958,20.850262,-17.115614,-15.639442,,,,,,,
1512178337.921695,-0.027981,0.330080,-0.474282,0.401478,0.682758,0.413792,-0.026467,-0.324118,-0.945646,-0.056327,0.040519,0.209593,21.370312,-18.239836,-15.419426,,,,,,,
1512178337.941684,-0.013253,0.337037,-0.465250,0.348453,1.023437,0.414211,-0.012507,-0.330693,-0.943656,-0.023504,0.098667,0.190650,22.120312,-18.238707,-15.425804,,,,,,,
1512178337.961673,0.008233,0.344074,-0.456953,0.347171,1.305510,0.375727,0.007751,-0.337325,-0.941356,-0.032912,0.043212,0.136303,22.869564,-18.462584,-14.907280,,,,,,,
1512178337.981692,0.030738,0.349597,-0.448076,0.199647,1.160917,0.458372,0.028874,-0.342519,-0.939067,-0.012852,0.038610,-0.024144,23.692471,-18.986357,-14.389534,,,,,,,
1512178338.001681,0.040461,0.350916,-0.438264,-0.039901,0.338025,0.463765,0.037985,-0.343758,-0.938290,0.014399,0.050026,-0.075489,25.191753,-19.209105,-13.802391,,,,,,,
1512178338.021670,0.034885,0.348172,-0.427365,-0.231441,-0.323631,0.539709,0.032785,-0.341180,-0.939426,0.016135,0.029336,-0.054211,25.266537,-19.283995,-13.578056,,,,,,,
1512178338.041690,0.019146,0.341862,-0.415764,-0.389253,-0.723347,0.522172,0.018037,-0.335242,-0.941959,0.002868,0.038291,0.025593,24.815365,-19.509672,-13.874336,,,,,,,
1512178338.061679,-0.000587,0.332548,-0.404114,-0.491258,-0.776992,0.564217,-0.000555,-0.326453,-0.945213,0.001547,-0.021966,0.104942,24.064541,-19.660795,-14.168037,,,,,,,
1512178338.081668,-0.018179,0.323452,-0.391692,-0.426557,-0.613512,0.592376,-0.017235,-0.317842,-0.947987,-0.012367,-0.002394,0.146962,23.163296,-19.887144,-14.610481,,,,,,,
1512178338.101686,-0.027284,0.317908,-0.380748,-0.160801,-0.074496,0.470173,-0.025914,-0.312580,-0.949538,-0.041408,0.046085,0.205718,22.941677,-19.137480,-14.608223,,,,,,,
1512178338.121675,-0.024608,0.316763,-0.374103,0.005927,0.366377,0.207609,-0.023381,-0.311492,-0.949961,-0.066417,-0.023438,0.149424,23.242657,-18.912031,-14.685677,,,,,,,
1512178338.141695,-0.018533,0.317797,-0.372337,0.059824,0.267453,0.037476,-0.017604,-0.312474,-0.949763,-0.061559,-0.056010,0.108180,23.465588,-19.361692,-14.762794,,,,,,,
1512178338.161685,-0.016531,0.317601,-0.372651,-0.069070,0.003573,-0.046331,-0.015704,-0.312288,-0.949858,-0.029218,-0.051802,0.116377,23.164608,-19.587141,-14.685356,,,,,,,
1512178338.181674,-0.017058,0.315406,-0.375625,-0.081330,-0.114682,-0.213224,-0.016216,-0.310203,-0.950532,-0.056508,-0.065499,0.071534,23.091228,-19.287260,-14.159569,,,,,,,
1512178338.201693,-0.016713,0.313281,-0.380657,-0.130141,-0.044240,-0.224350,-0.015899,-0.308182,-0.951195,0.011795,-0.107345,0.112938,23.466640,-19.136686,-14.687691,,,,,,,
1512178338.221682,-0.015392,0.308927,-0.385477,-0.278081,-0.041236,-0.239277,-0.014663,-0.304037,-0.952547,-0.023652,-0.147333,0.090304,23.468670,-18.686689,-14.687492,,,,,,,
1512178338.241671,-0.015819,0.301658,-0.391044,-0.404308,-0.140683,-0.281960,-0.015104,-0.297103,-0.954726,-0.017565,-0.127244,0.025145,23.394146,-18.611799,-14.386818,,,,,,,
1512178338.261691,-0.016226,0.294831,-0.397907,-0.264832,-0.088024,-0.333058,-0.015525,-0.290578,-0.956725,0.015449,-0.147898,0.032272,23.019634,-18.462370,-14.758553,,,,,,,
1512178338.281680,-0.010889,0.294221,-0.403140,0.066977,0.302114,-0.201099,-0.010421,-0.289994,-0.956972,0.005522,-0.166183,-0.017027,23.322384,-17.861906,-14.685829,,,,,,,
1512178338.301669,-0.005117,0.297858,-0.406587,0.144181,0.149422,-0.170660,-0.004891,-0.293473,-0.955955,0.014291,-0.155196,-0.077721,23.246105,-18.162031,-14.535332,,,,,,,
1512178338.321687,-0.004008,0.300440,-0.411223,0.053847,-0.074855,-0.263365,-0.003828,-0.295940,-0.955199,-0.014787,-0.137379,-0.079393,23.696712,-18.011351,-14.689095,,,,,,,
1512178338.341676,-0.004418,0.301812,-0.418270,0.089662,-0.153639,-0.370794,-0.004218,-0.297250,-0.954790,-0.014138,-0.136999,-0.096357,23.473125,-17.711683,-14.537041,,,,,,,
1512178338.361665,-0.004850,0.306205,-0.426107,0.278320,-0.097812,-0.365733,-0.004624,-0.301442,-0.953473,-0.013137,-0.135768,-0.088168,23.396740,-18.011793,-14.611534,,,,,,,
1512178338.381685,-0.001611,0.313764,-0.433373,0.432601,0.138440,-0.336023,-0.001532,-0.308641,-0.951177,0.003211,-0.107038,-0.104487,23.772152,-17.936232,-14.464699,,,,,,,
1512178338.401675,0.003211,0.324034,-0.440365,0.546424,0.112948,-0.322737,0.003044,-0.318393,-0.947954,0.015205,-0.127408,-0.153776,23.695797,-18.236341,-14.464195,,,,,,,
1512178338.421695,0.005199,0.336103,-0.446143,0.656298,-0.053752,-0.205524,0.004908,-0.329811,-0.944034,0.100500,-0.086724,-0.215695,23.465847,-19.286695,-14.912758,,,,,,,
1512178338.441684,0.002216,0.352628,-0.447103,0.939910,-0.246082,0.040977,0.002079,-0.345366,-0.938466,0.096020,-0.097658,-0.172466,23.243404,-18.762022,-14.535606,,,,,,,
1512178338.461673,-0.005781,0.372412,-0.445775,0.960775,-0.438365,0.058731,-0.005385,-0.363864,-0.931437,0.002897,-0.127897,-0.055975,23.463680,-19.811705,-14.538002,,,,,,,
1512178338.481692,-0.014879,0.386490,-0.441819,0.529456,-0.312249,0.233087,-0.013781,-0.376940,-0.926135,-0.052656,-0.107984,0.007876,22.858944,-20.862608,-14.533394,,,,,,,
1512178338.501681,-0.020737,0.389079,-0.437957,-0.166402,-0.150802,0.159603,-0.019186,-0.379337,-0.925060,-0.046809,-0.034924,-0.041325,22.782528,-21.162718,-14.682899,,,,,,,
1512178338.521670,-0.025202,0.378531,-0.437625,-0.700862,-0.288935,-0.083153,-0.023415,-0.369556,-0.928913,-0.099540,0.001193,-0.154720,22.559582,-20.713057,-14.605766,,,,,,,
1512178338.541690,-0.033769,0.361573,-0.443309,-0.859761,-0.658237,-0.356453,-0.031580,-0.353746,-0.934808,-0.028113,0.038881,-0.238837,22.038448,-19.813841,-14.975883,,,,,,,
1512178338.561679,-0.042742,0.349196,-0.456140,-0.509794,-0.627123,-0.696679,-0.040151,-0.342142,-0.938790,0.033956,0.193018,-0.233772,21.441296,-19.139723,-15.345467,,,,,,,
1512178338.581668,-0.049454,0.346987,-0.473997,0.104997,-0.658947,-0.872309,-0.046488,-0.340066,-0.939252,0.055414,0.187478,-0.123965,21.068951,-18.540281,-15.417015,,,,,,,
1512178338.601643,-0.053671,0.358323,-0.491440,0.755917,-0.369621,-0.832024,-0.050238,-0.350704,-0.935138,0.019171,0.111461,0.051395,20.618130,-18.690962,-15.713249,,,,,,,
1512178338.621632,-0.050113,0.378603,-0.507489,1.038727,0.054751,-0.765687,-0.046545,-0.369622,-0.928016,-0.005030,0.097314,0.174949,20.466137,-19.141188,-15.637184,,,,,,,
1512178338.641652,-0.039350,0.398734,-0.521443,0.873049,0.404655,-0.657064,-0.036254,-0.388252,-0.920840,-0.016908,0.078697,0.224429,20.684277,-20.640867,-15.864784,,,,,,,
1512178338.661641,-0.025455,0.411864,-0.534267,0.476230,0.440210,-0.575271,-0.023324,-0.400318,-0.916079,-0.034827,-0.036816,0.201388,21.061275,-20.265303,-15.267815,,,,,,,
1512178338.681630,-0.012837,0.414345,-0.544394,-0.092720,0.387726,-0.403533,-0.011750,-0.402590,-0.915305,0.040620,0.016009,0.118521,21.661648,-20.189405,-15.197868,,,,,,,
1512178338.701649,-0.004775,0.407955,-0.551066,-0.419645,0.192492,-0.240512,-0.004383,-0.396733,-0.917924,0.078464,0.028035,0.017396,22.112392,-20.038725,-15.051628,,,,,,,
1512178338.721638,-0.002807,0.398970,-0.553788,-0.435783,-0.047182,-0.048620,-0.002586,-0.388469,-0.921458,0.114143,0.059993,-0.039800,22.189388,-19.588606,-15.127052,,,,,,,
1512178338.741627,-0.006267,0.391896,-0.552475,-0.324470,-0.146681,0.112551,-0.005792,-0.381941,-0.924169,0.121850,0.090498,-0.014064,21.965328,-19.363951,-15.275047,,,,,,,
1512178338.761647,-0.012142,0.386943,-0.548443,-0.177454,-0.274891,0.242165,-0.011244,-0.377359,-0.925999,0.046461,0.031518,0.047291,21.893017,-18.764051,-15.274132,,,,,,,
1512178338.781636,-0.018578,0.384778,-0.541943,-0.076384,-0.116808,0.327333,-0.017218,-0.375354,-0.926722,0.039054,0.055682,0.109217,21.440624,-19.289732,-15.345543,,,,,,,
1512178338.801625,-0.021787,0.383809,-0.534220,-0.026946,0.042334,0.375510,-0.020201,-0.374455,-0.927025,0.028440,0.051335,0.121727,21.666286,-19.139387,-15.347389,,,,,,,
1512178338.821644,-0.022358,0.383225,-0.525778,-0.018689,0.163006,0.397368,-0.020734,-0.373913,-0.927232,0.029035,0.057186,0.101731,21.290951,-19.214949,-15.344231,,,,,,,
1512178338.841633,-0.022099,0.382487,-0.517647,-0.030956,0.148092,0.364088,-0.020500,-0.373228,-0.927513,0.021736,0.053404,0.070472,21.666409,-19.139387,-15.122383,,,,,,,
1512178338.861653,-0.022792,0.382459,-0.509774,0.028672,0.111862,0.366960,-0.021143,-0.373203,-0.927509,0.039500,0.029728,0.067538,21.664944,-19.439390,-15.347527,,,,,,,
1512178338.881642,-0.022918,0.383890,-0.501183,0.120549,0.185594,0.422914,-0.021248,-0.374530,-0.926971,0.034996,-0.002423,0.082718,21.664379,-19.589399,-15.122597,,,,,,,
1512178338.901631,-0.021666,0.387302,-0.491228,0.211432,0.289246,0.476831,-0.020060,-0.377691,-0.925714,0.021067,-0.023966,0.102411,22.112728,-19.963728,-15.051598,,,,,,,
1512178338.921651,-0.018794,0.391640,-0.480197,0.226720,0.384248,0.524291,-0.017370,-0.381705,-0.924121,0.005697,-0.048044,0.103747,22.336727,-20.188383,-15.053612,,,,,,,
1512178338.941640,-0.015237,0.395559,-0.467977,0.190702,0.423613,0.577209,-0.014060,-0.385324,-0.922674,-0.009423,-0.044364,0.077261,22.484768,-20.638166,-14.905098,,,,,,,
1512178338.961629,-0.012328,0.398833,-0.455372,0.168354,0.353089,0.571309,-0.011360,-0.388343,-0.921445,-0.020195,-0.026101,0.029645,22.781918,-21.312727,-14.532967,,,,,,,
1512178338.981648,-0.011392,0.402269,-0.443448,0.187019,0.237828,0.532801,-0.010482,-0.391507,-0.920115,-0.035676,-0.028263,0.011515,22.853817,-21.987608,-14.683907,,,,,,,
1512178339.001637,-0.012308,0.406372,-0.432209,0.206675,0.144988,0.499714,-0.011306,-0.395279,-0.918491,-0.044160,-0.042282,-0.002453,23.154934,-21.762159,-14.461357,,,,,,,
1512178339.021626,-0.014045,0.410086,-0.421620,0.146177,0.111814,0.481664,-0.012880,-0.398688,-0.916996,-0.039168,-0.071008,-0.033901,23.003994,-21.987379,-14.310188,,,,,,,
1512178339.041646,-0.017767,0.410811,-0.410632,-0.036642,-0.019902,0.507342,-0.016288,-0.399353,-0.916652,-0.041635,-0.067001,-0.096684,23.001034,-22.662397,-14.160500,,,,,,,
1512178339.061635,-0.024768,0.408620,-0.400107,-0.113805,-0.198313,0.458696,-0.022727,-0.397343,-0.917388,-0.020669,-0.025157,-0.154831,23.151302,-22.587172,-14.311745,,,,,,,
1512178339.081654,-0.033261,0.408467,-0.391580,0.106570,-0.265045,0.344391,-0.030519,-0.397203,-0.917223,0.011736,0.015031,-0.171842,22.549496,-22.963072,-14.531807,,,,,,,
1512178339.101643,-0.039961,0.415840,-0.385052,0.548220,-0.140309,0.267004,-0.036546,-0.403959,-0.914047,0.046907,0.004087,-0.121003,22.548977,-23.113066,-14.231880,,,,,,,
1512178339.121632,-0.043524,0.431406,-0.377869,0.912041,0.027853,0.322969,-0.039524,-0.418149,-0.907518,0.054386,-0.031894,-0.069319,22.246197,-23.713530,-14.379601,,,,,,,
1512178339.141652,-0.045209,0.450143,-0.367725,0.927684,0.193129,0.480478,-0.040692,-0.435095,-0.899465,0.046353,-0.065928,-0.000392,22.313961,-25.363417,-14.006004,,,,,,,
1512178339.161641,-0.045353,0.463687,-0.354139,0.524435,0.346028,0.634009,-0.040550,-0.447248,-0.893490,0.022316,-0.076571,0.028301,22.011303,-25.963881,-13.928734,,,,,,,
1512178339.181630,-0.044592,0.465769,-0.338598,-0.106830,0.400459,0.711405,-0.039829,-0.449110,-0.892588,0.055042,-0.034075,-0.010992,22.458141,-26.638197,-14.157875,,,,,,,
1512178339.201649,-0.044640,0.456119,-0.322447,-0.617312,0.306648,0.762317,-0.040063,-0.440467,-0.896874,0.113214,0.026390,-0.099449,22.761700,-25.887754,-13.785072,,,,,,,
1512178339.221638,-0.048018,0.440627,-0.305762,-0.763106,0.120478,0.802199,-0.043415,-0.426506,-0.903442,0.133960,0.088494,-0.148758,22.538769,-25.438093,-13.707954,,,,,,,
1512178339.241627,-0.054637,0.426993,-0.288751,-0.531711,-0.014806,0.792290,-0.049707,-0.414135,-0.908857,0.128717,0.159329,-0.141695,22.462231,-25.738203,-14.082451,,,,,,,
1512178339.261647,-0.061104,0.420193,-0.273486,-0.171216,0.012720,0.653688,-0.055754,-0.407937,-0.911306,0.098951,0.182870,-0.046976,21.938168,-25.513990,-14.227882,,,,,,,
1512178339.281636,-0.063540,0.419422,-0.261643,0.072666,0.197163,0.484099,-0.057993,-0.407233,-0.911481,0.075144,0.137915,0.063535,22.162655,-25.663649,-13.929878,,,,,,,
1512178339.301655,-0.060060,0.421565,-0.252410,0.151386,0.466674,0.377436,-0.054769,-0.409189,-0.910804,0.074025,0.083551,0.133689,22.309582,-26.338423,-14.006462,,,,,,,
1512178339.321644,-0.050336,0.423459,-0.244915,0.092724,0.720911,0.326297,-0.045871,-0.410916,-0.910518,0.093951,0.031583,0.147670,22.686153,-26.037870,-13.559502,,,,,,,
1512178339.341633,-0.037268,0.423400,-0.237375,-0.037843,0.843489,0.364281,-0.033969,-0.410863,-0.911064,0.121921,0.011861,0.123970,23.435665,-26.186750,-13.190956,,,,,,,
1512178339.361653,-0.023813,0.420653,-0.228165,-0.178171,0.850541,0.469943,-0.021735,-0.408356,-0.912564,0.150519,0.006806,0.086407,23.883862,-26.636061,-12.744987,,,,,,,
1512178339.381642,-0.014658,0.415598,-0.215913,-0.270375,0.592669,0.618023,-0.013409,-0.403737,-0.914777,0.162060,0.025777,0.031735,24.559689,-26.485060,-12.450661,,,,,,,
1512178339.401631,-0.013857,0.409943,-0.200973,-0.260767,0.178010,0.726524,-0.012709,-0.398557,-0.917055,0.153746,0.061872,0.020067,24.634609,-26.484938,-12.601295,,,,,,,
1512178339.421651,-0.021065,0.404957,-0.184881,-0.228224,-0.145638,0.740792,-0.019360,-0.393980,-0.918915,0.102582,0.055112,0.088730,24.257473,-26.935514,-12.823311,,,,,,,
1512178339.441640,-0.032105,0.399594,-0.169073,-0.268756,-0.281351,0.735468,-0.029570,-0.389045,-0.920744,0.058822,0.032142,0.161284,24.031796,-27.085844,-12.821480,,,,,,,
1512178339.461629,-0.044119,0.392786,-0.153654,-0.336590,-0.304902,0.710952,-0.040746,-0.382763,-0.922947,0.027044,0.029385,0.198857,23.433376,-26.711744,-13.041206,,,,,,,
1512178339.481648,-0.054629,0.385334,-0.139757,-0.330821,-0.225672,0.623896,-0.050598,-0.375869,-0.925290,0.018219,0.021758,0.195783,23.131420,-27.162199,-12.888863,,,,,,,
1512178339.501637,-0.062800,0.378922,-0.128156,-0.252284,-0.187957,0.517492,-0.058306,-0.369919,-0.927232,0.022738,0.010559,0.151628,22.757214,-26.937757,-13.335564,,,,,,,
1512178339.521626,-0.070033,0.374705,-0.118477,-0.139994,-0.172664,0.431754,-0.065120,-0.365998,-0.928334,0.021373,-0.013808,0.130162,22.458141,-26.713209,-13.482903,,,,,,,
1512178339.541646,-0.075594,0.372299,-0.110286,-0.072734,-0.097655,0.364762,-0.070348,-0.363758,-0.928833,0.017995,-0.036678,0.089096,22.533215,-26.713102,-13.333549,,,,,,,
1512178339.561635,-0.079714,0.370749,-0.103511,-0.046066,-0.096418,0.299056,-0.074220,-0.362314,-0.929096,0.034699,-0.053259,0.001377,22.307064,-26.938429,-13.631737,,,,,,,
1512178339.581654,-0.085078,0.369067,-0.097738,-0.075360,-0.211750,0.259853,-0.079254,-0.360745,-0.929291,0.032333,-0.069812,-0.055557,22.007702,-26.788877,-13.704124,,,,,,,
1512178339.601646,-0.092093,0.366987,-0.093133,-0.088290,-0.285359,0.199709,-0.085839,-0.358805,-0.929457,0.008920,-0.077337,-0.070497,21.781719,-27.014219,-13.627312,,,,,,,
1512178339.621635,-0.098088,0.365396,-0.089963,-0.036896,-0.194336,0.126147,-0.091466,-0.357319,-0.929493,-0.006328,-0.076840,-0.092220,21.554852,-27.389555,-14.000572,,,,,,,
1512178339.641655,-0.100162,0.365767,-0.088266,0.058399,0.007857,0.046145,-0.093380,-0.357666,-0.929169,-0.005939,-0.074265,-0.104019,21.404919,-27.389784,-13.849281,,,,,,,
1512178339.661644,-0.098340,0.367353,-0.088094,0.086327,0.121272,-0.025547,-0.091631,-0.359146,-0.928772,-0.000807,-0.078415,-0.187118,21.703869,-27.614332,-13.926949,,,,,,,
1512178339.681633,-0.096272,0.369521,-0.089522,0.117560,0.030697,-0.113893,-0.089635,-0.361169,-0.928182,0.005956,-0.065025,-0.234568,21.779919,-27.389219,-13.852470,,,,,,,
1512178339.701652,-0.095682,0.373181,-0.093108,0.198243,-0.055481,-0.227093,-0.088961,-0.364580,-0.926913,-0.012663,-0.082686,-0.209348,21.628231,-27.764448,-13.851372,,,,,,,
1512178339.721641,-0.094100,0.378118,-0.098720,0.215634,0.006665,-0.308710,-0.087323,-0.369172,-0.925249,-0.039508,-0.116576,-0.154722,21.478985,-27.614683,-13.700035,,,,,,,
1512178339.741630,-0.089337,0.381118,-0.105275,0.033566,0.206147,-0.312786,-0.082817,-0.371958,-0.924547,-0.066368,-0.141744,-0.111494,21.401470,-28.139784,-13.999641,,,,,,,
1512178339.761650,-0.079596,0.378064,-0.112349,-0.308253,0.418223,-0.325528,-0.073897,-0.369122,-0.926438,-0.063631,-0.079243,-0.173613,22.078716,-27.688780,-13.555168,,,,,,,
1512178339.781639,-0.067909,0.369898,-0.120989,-0.472298,0.406367,-0.398305,-0.063268,-0.361521,-0.930215,-0.003169,0.021601,-0.278647,22.758068,-26.712751,-13.635460,,,,,,,
1512178339.801658,-0.058346,0.362673,-0.130807,-0.308436,0.234741,-0.453032,-0.054520,-0.354774,-0.933361,0.061921,0.115761,-0.295384,22.908184,-26.712538,-13.411736,,,,,,,
1512178339.821647,-0.051258,0.360511,-0.141540,-0.033369,0.145577,-0.522912,-0.047942,-0.352753,-0.934487,0.096160,0.168244,-0.224845,23.210613,-26.187086,-13.264030,,,,,,,
1512178339.841636,-0.044454,0.363830,-0.153187,0.254062,0.114052,-0.564698,-0.041531,-0.355856,-0.933617,0.097057,0.174078,-0.146674,23.511929,-25.886625,-13.341454,,,,,,,
1512178339.861656,-0.039379,0.374090,-0.165176,0.631652,-0.000702,-0.583081,-0.036646,-0.365426,-0.930119,0.092386,0.158150,-0.020397,23.211712,-25.962080,-13.113930,,,,,,,
1512178339.881645,-0.035879,0.390885,-0.176298,0.906565,-0.044219,-0.513155,-0.033165,-0.381007,-0.923977,0.059700,0.105449,0.131222,23.586117,-26.111509,-12.967201,,,,,,,
1512178339.901634,-0.033044,0.409830,-0.185035,0.909787,-0.004944,-0.382911,-0.030302,-0.398453,-0.916688,0.012754,0.059312,0.251740,23.733120,-26.786299,-12.893776,,,,,,,
1512178339.921654,-0.029885,0.424990,-0.190907,0.619584,0.064819,-0.236561,-0.027222,-0.412311,-0.910636,-0.031661,0.010746,0.304862,24.105450,-27.385740,-12.822243,,,,,,,
1512178339.941643,-0.025716,0.431606,-0.194214,0.141195,0.185630,-0.117275,-0.023355,-0.418330,-0.907995,-0.059439,-0.016408,0.289846,24.104214,-27.685743,-12.597389,,,,,,,
1512178339.961632,-0.020261,0.428805,-0.195443,-0.292214,0.277693,-0.012364,-0.018425,-0.415785,-0.909276,-0.024818,-0.004534,0.207021,24.180569,-27.385618,-12.597893,,,,,,,
1512178339.981651,-0.014551,0.419585,-0.194203,-0.538375,0.321933,0.113216,-0.013288,-0.407382,-0.913161,0.006117,0.000521,0.115294,24.554668,-27.610060,-12.376167,,,,,,,
1512178340.001640,-0.010355,0.407306,-0.189874,-0.644250,0.275549,0.260770,-0.009508,-0.396137,-0.918142,0.034685,0.019764,0.044347,24.554440,-27.610060,-12.826180,,,,,,,
1512178340.021660,-0.008333,0.393821,-0.182480,-0.678434,0.226103,0.392296,-0.007695,-0.383720,-0.923417,0.051213,0.037284,-0.002898,24.710705,-26.259825,-12.451836,,,,,,,
1512178340.041649,-0.008393,0.380410,-0.172808,-0.649123,0.146913,0.485189,-0.007793,-0.371301,-0.928480,0.054195,0.057397,-0.028429,25.010250,-26.334379,-12.679405,,,,,,,
1512178340.061638,-0.010604,0.368788,-0.161759,-0.520008,0.053005,0.537905,-0.009890,-0.360485,-0.932712,0.050891,0.068829,-0.038372,24.560177,-26.335051,-12.825584,,,,,,,
1512178340.081657,-0.015328,0.360907,-0.149670,-0.301302,-0.063186,0.587579,-0.014340,-0.353123,-0.935467,0.047894,0.065296,-0.011616,24.633709,-26.634947,-13.051369,,,,,,,
1512178340.101646,-0.022360,0.357212,-0.136817,-0.106650,-0.153731,0.609271,-0.020946,-0.349664,-0.936641,0.020275,0.056787,0.045024,24.411861,-25.960279,-12.824135,,,,,,,
1512178340.121635,-0.029165,0.356271,-0.124423,0.016793,-0.109649,0.560042,-0.027329,-0.348782,-0.936805,-0.005752,0.056484,0.091926,24.562466,-25.810057,-12.975349,,,,,,,
1512178340.141655,-0.033803,0.357546,-0.113758,0.131402,-0.018499,0.466071,-0.031659,-0.349977,-0.936223,-0.012881,0.031221,0.124013,23.809124,-26.561171,-12.894310,,,,,,,
1512178340.161644,-0.036263,0.360912,-0.104472,0.226084,0.057588,0.417605,-0.033920,-0.353127,-0.934960,-0.008790,0.000436,0.131737,23.959499,-26.485945,-12.820564,,,,,,,
1512178340.181633,-0.037972,0.365744,-0.095432,0.275165,0.071557,0.416235,-0.035452,-0.357644,-0.933185,-0.005182,-0.017722,0.122897,23.957104,-27.010954,-12.895805,,,,,,,
1512178340.201652,-0.040263,0.370896,-0.086366,0.263555,0.034170,0.407408,-0.037515,-0.362450,-0.931248,-0.017553,-0.034171,0.125812,23.880520,-27.386076,-12.670341,,,,,,,
1512178340.221641,-0.042913,0.374885,-0.077359,0.180238,0.042562,0.416887,-0.039920,-0.366165,-0.929693,-0.030514,-0.067337,0.126394,24.102413,-28.060743,-12.822563,,,,,,,
1512178340.241661,-0.044815,0.376627,-0.068104,0.061757,0.091494,0.428132,-0.041660,-0.367786,-0.928977,-0.049725,-0.075894,0.092948,23.801556,-28.286192,-12.520119,,,,,,,
1512178340.261650,-0.046095,0.376230,-0.058987,-0.031925,0.104188,0.421492,-0.042856,-0.367417,-0.929068,-0.067816,-0.078109,0.048392,23.801067,-28.361189,-12.820152,,,,,,,
1512178340.281639,-0.047071,0.374182,-0.050241,-0.119207,0.128633,0.413913,-0.043798,-0.365511,-0.929776,-0.075526,-0.087523,0.024853,23.650539,-28.511412,-12.518944,,,,,,,
1512178340.301658,-0.047461,0.368920,-0.041039,-0.336256,0.149592,0.454553,-0.044251,-0.360608,-0.931667,-0.065688,-0.104220,-0.027684,24.249493,-28.735518,-12.599144,,,,,,,
1512178340.321647,-0.048102,0.360006,-0.031609,-0.491819,0.147231,0.450162,-0.045001,-0.352280,-0.934812,-0.030103,-0.056915,-0.104769,23.725918,-28.436308,-12.444542,,,,,,,
1512178340.341636,-0.047852,0.350374,-0.023405,-0.451116,0.180553,0.375176,-0.044928,-0.343249,-0.938169,0.009116,-0.030836,-0.168703,24.102566,-28.060743,-12.522560,,,,,,,
1512178340.361656,-0.045940,0.343746,-0.016368,-0.217055,0.249341,0.342561,-0.043238,-0.337016,-0.940505,0.048120,-0.039677,-0.182526,23.500393,-28.511641,-12.817665,,,,,,,
1512178340.381645,-0.041289,0.342098,-0.008600,-0.001277,0.440785,0.390062,-0.038886,-0.335464,-0.941250,0.058371,-0.056000,-0.132374,24.101589,-28.285734,-12.447670,,,,,,,
1512178340.401634,-0.032929,0.341317,0.000825,-0.078364,0.662657,0.484592,-0.031024,-0.334728,-0.941804,0.052050,-0.062947,-0.088928,24.175686,-28.510633,-12.223412,,,,,,,
1512178340.421654,-0.020670,0.335301,0.012299,-0.431603,0.864887,0.582522,-0.019517,-0.329054,-0.944109,0.069993,-0.043825,-0.132887,24.699856,-28.734846,-11.852974,,,,,,,
1512178340.441643,-0.008056,0.322714,0.024919,-0.693201,0.776857,0.604014,-0.007640,-0.317141,-0.948347,0.129176,0.039584,-0.251116,25.603313,-27.983488,-11.710274,,,,,,,
1512178340.461632,-0.000565,0.310858,0.036223,-0.456061,0.388614,0.490962,-0.000538,-0.305875,-0.952071,0.186359,0.104673,-0.309342,25.753719,-27.908262,-11.561516,,,,,,,
1512178340.481651,-0.000036,0.309550,0.045355,0.192953,0.077821,0.423591,-0.000034,-0.304630,-0.952471,0.211384,0.098941,-0.178496,25.753170,-28.058271,-11.336586,,,,,,,
1512178340.501640,-0.001395,0.320885,0.055521,0.746738,0.135085,0.525629,-0.001323,-0.315407,-0.948955,0.169658,0.048622,0.018413,25.899899,-28.808043,-11.113213,,,,,,,
1512178340.521660,-0.000104,0.337672,0.068304,0.826930,0.351798,0.650138,-0.000098,-0.331291,-0.943528,0.139685,0.036095,0.139619,25.596981,-29.483503,-10.885963,,,,,,,
1512178340.541649,0.002727,0.350324,0.083539,0.476646,0.399136,0.756104,0.002561,-0.343202,-0.939258,0.139224,0.030595,0.167026,29.554962,-8.558338,-39.547226,,,,,,,
1512178340.561638,0.003475,0.353356,0.101144,-0.054094,0.295548,0.870649,0.003261,-0.346048,-0.938211,0.147405,0.016657,0.144418,29.552383,-9.158329,-39.322510,,,,,,,
1512178340.581657,0.000583,0.346792,0.121549,-0.468044,0.155767,1.012347,0.000548,-0.339882,-0.940468,0.158815,0.047509,0.086708,29.325287,-9.608677,-39.470810,,,,,,,
1512178340.601598,-0.005269,0.334773,0.144619,-0.651210,0.062333,1.125570,-0.004976,-0.328555,-0.944472,0.139818,0.079989,0.035338,28.873810,-9.909351,-39.692123,,,,,,,
1512178340.621587,-0.012811,0.321303,0.168753,-0.646340,-0.023166,1.148794,-0.012155,-0.315803,-0.948747,0.111185,0.116126,0.003801,28.424454,-9.760029,-39.763229,,,,,,,
1512178340.641607,-0.021711,0.310161,0.192034,-0.453477,-0.115680,1.085170,-0.020674,-0.305212,-0.952060,0.074827,0.130590,0.023486,27.972534,-10.135700,-40.209579,,,,,,,
1512178340.661596,-0.030325,0.304118,0.212894,-0.167582,-0.092533,0.945476,-0.028929,-0.299452,-0.953673,0.024779,0.117475,0.108198,27.598587,-9.911259,-40.131287,,,,,,,
1512178340.681585,-0.035825,0.303292,0.230727,0.070546,0.046988,0.799098,-0.034183,-0.298664,-0.953746,-0.002118,0.070331,0.188548,27.295807,-10.511723,-40.279007,,,,,,,
1512178340.701604,-0.037383,0.305755,0.245962,0.177128,0.201208,0.678581,-0.035641,-0.301013,-0.952954,-0.011463,0.028155,0.225521,27.144531,-10.811939,-40.127869,,,,,,,
1512178340.721593,-0.037870,0.308301,0.259348,0.120710,0.139304,0.605053,-0.036076,-0.303440,-0.952167,-0.002849,-0.010387,0.217746,26.993713,-11.037174,-39.751709,,,,,,,
1512178340.741613,-0.040266,0.308556,0.271153,-0.016854,0.009983,0.537584,-0.038354,-0.303683,-0.952001,-0.004066,-0.041852,0.209188,26.594086,-13.205202,-39.820419,,,,,,,
1512178340.761602,-0.044869,0.306508,0.281952,-0.113651,-0.121519,0.517599,-0.042764,-0.301731,-0.952433,-0.004050,-0.068341,0.163249,26.599548,-12.005205,-39.669876,,,,,,,
1512178340.781591,-0.052923,0.303119,0.292536,-0.155129,-0.315963,0.502464,-0.050486,-0.298498,-0.953074,-0.018300,-0.065271,0.086832,26.148804,-12.155870,-39.816116,,,,,,,
1512178340.801610,-0.063442,0.299588,0.301902,-0.140103,-0.412999,0.426652,-0.060575,-0.295127,-0.953536,-0.057619,-0.070748,0.035353,25.544601,-13.056780,-40.111435,,,,,,,
1512178340.821599,-0.073976,0.297074,0.309505,-0.069303,-0.405224,0.337096,-0.070671,-0.292724,-0.953582,-0.105355,-0.074982,-0.023973,25.246628,-12.607225,-40.108673,,,,,,,
1512178340.841588,-0.082375,0.297004,0.314792,0.068467,-0.289378,0.197706,-0.078679,-0.292657,-0.952975,-0.138621,-0.073707,-0.082471,24.644455,-13.058138,-40.403778,,,,,,,
1512178340.861608,-0.086915,0.299225,0.317614,0.142946,-0.122411,0.084227,-0.082948,-0.294780,-0.951958,-0.168486,-0.096868,-0.129127,24.419495,-13.058474,-40.326859,,,,,,,
1512178340.881597,-0.087593,0.301859,0.318158,0.121492,0.018787,-0.029658,-0.083526,-0.297295,-0.951125,-0.177491,-0.094413,-0.204637,24.193588,-13.283815,-40.100052,,,,,,,
1512178340.901586,-0.086485,0.304360,0.315825,0.126183,0.002014,-0.185292,-0.082407,-0.299683,-0.950473,-0.161062,-0.048355,-0.285809,24.343552,-13.283587,-40.176331,,,,,,,
1512178340.921606,-0.085257,0.309038,0.309424,0.269480,-0.049672,-0.409403,-0.081120,-0.304143,-0.949166,-0.135570,-0.028209,-0.301032,24.566193,-13.808245,-40.178482,,,,,,,
1512178340.941595,-0.083475,0.317237,0.298987,0.413204,-0.083269,-0.592930,-0.079218,-0.311943,-0.946792,-0.111471,-0.055687,-0.249710,24.418549,-13.283480,-40.176971,,,,,,,
1512178340.961614,-0.080748,0.326711,0.285773,0.405319,-0.059578,-0.695303,-0.076394,-0.320929,-0.944017,-0.096031,-0.092050,-0.170668,24.642578,-13.508135,-40.103989,,,,,,,
1512178340.981603,-0.076581,0.334485,0.271635,0.283701,0.008580,-0.687236,-0.072266,-0.328282,-0.941811,-0.093582,-0.126597,-0.107551,25.018661,-13.282579,-39.957062,,,,,,,
1512178341.001592,-0.069753,0.338377,0.257595,0.035215,0.184423,-0.673169,-0.065745,-0.331956,-0.941001,-0.101858,-0.097670,-0.058923,24.718781,-13.283022,-39.729523,,,,,,,
1512178341.021612,-0.058962,0.335427,0.242572,-0.321006,0.338869,-0.719363,-0.055644,-0.329173,-0.942629,-0.085347,-0.018087,-0.095228,25.620239,-12.981661,-39.512039,,,,,,,
1512178341.041601,-0.045976,0.327602,0.226044,-0.464929,0.399656,-0.780937,-0.043516,-0.321774,-0.945816,-0.011111,0.071942,-0.179184,26.222260,-12.530764,-39.516922,,,,,,,
1512178341.061590,-0.033466,0.320111,0.208316,-0.337983,0.286770,-0.856247,-0.031760,-0.314672,-0.948669,0.049292,0.163427,-0.245683,26.824142,-12.079866,-39.821823,,,,,,,
1512178341.081609,-0.024522,0.318543,0.188969,0.068416,0.040815,-0.947161,-0.023286,-0.313183,-0.949407,0.083741,0.204113,-0.216929,27.126434,-11.554415,-39.974121,,,,,,,
1512178341.101598,-0.020786,0.327298,0.168503,0.620063,-0.224238,-0.990195,-0.019681,-0.321486,-0.946710,0.062146,0.175825,-0.046546,27.503052,-11.253847,-39.452179,,,,,,,
1512178341.121587,-0.019655,0.344615,0.148389,0.938018,-0.272978,-0.944181,-0.018498,-0.337834,-0.941024,0.002537,0.119054,0.167891,27.952713,-11.328173,-39.456039,,,,,,,
1512178341.141607,-0.016915,0.363770,0.129943,0.898138,-0.111935,-0.845054,-0.015807,-0.355800,-0.934428,-0.068269,0.059688,0.314036,28.101730,-11.552950,-39.382416,,,,,,,
1512178341.161596,-0.010518,0.377993,0.112996,0.554909,0.085013,-0.773653,-0.009775,-0.369055,-0.929356,-0.110662,0.020789,0.361164,28.175949,-11.777834,-38.933151,,,,,,,
1512178341.181615,-0.001182,0.383362,0.097152,0.088142,0.203820,-0.712839,-0.001096,-0.374041,-0.927411,-0.090030,0.010851,0.292432,28.551407,-11.702272,-38.711304,,,,,,,
1512178341.201604,0.007417,0.380289,0.083184,-0.268723,0.126149,-0.603145,0.006887,-0.371188,-0.928532,-0.035406,0.021304,0.169621,29.001175,-11.776598,-38.490173,,,,,,,
1512178341.221593,0.011839,0.373294,0.072069,-0.355283,-0.056913,-0.470715,0.011023,-0.364684,-0.931066,-0.007178,0.042663,0.078695,29.306458,-10.576143,-38.717163,,,,,,,
1512178341.241613,0.012141,0.367400,0.063801,-0.230646,-0.164868,-0.341359,0.011330,-0.359190,-0.933195,0.003333,0.058714,0.057402,29.382172,-10.426027,-38.642731,,,,,,,
1512178341.261602,0.011338,0.364910,0.057763,-0.063646,-0.115649,-0.251349,0.010591,-0.356865,-0.934096,-0.015489,0.049965,0.079664,29.233780,-10.051241,-38.791275,,,,,,,
1512178341.281591,0.012012,0.364380,0.053320,-0.010334,-0.014222,-0.181995,0.011223,-0.356370,-0.934277,-0.020912,0.028001,0.075589,29.235031,-9.751253,-39.016144,,,,,,,
1512178341.301610,0.012923,0.364343,0.050394,0.003405,-0.013277,-0.110368,0.012075,-0.356335,-0.934280,-0.014211,0.019971,0.060607,29.385101,-9.751024,-38.867416,,,,,,,
1512178341.321599,0.012497,0.364411,0.048822,0.001332,-0.074280,-0.051976,0.011676,-0.356400,-0.934260,-0.007556,0.024414,0.064098,29.308746,-10.051134,-38.866928,,,,,,,
1512178341.341588,0.010248,0.364294,0.048492,-0.010333,-0.142779,0.005183,0.009576,-0.356290,-0.934326,-0.007104,0.020856,0.076309,29.234695,-9.826250,-39.016174,,,,,,,
1512178341.361608,0.006134,0.363996,0.049376,-0.018766,-0.217676,0.060234,0.005732,-0.356011,-0.934464,-0.008280,0.005654,0.087800,29.008865,-9.976580,-39.314331,,,,,,,
1512178341.381597,0.000265,0.363360,0.051269,-0.045122,-0.286169,0.103321,0.000247,-0.355417,-0.934707,-0.024326,0.000345,0.109375,28.859909,-9.751818,-39.237961,,,,,,,
1512178341.401586,-0.006424,0.361751,0.053694,-0.105018,-0.276667,0.116348,-0.006009,-0.353913,-0.935259,-0.042621,-0.000473,0.121462,28.559723,-9.752260,-39.610413,,,,,,,
1512178341.421606,-0.011267,0.359306,0.056274,-0.116832,-0.141046,0.128376,-0.010547,-0.351625,-0.936081,-0.044995,-0.013625,0.080033,28.409836,-9.752489,-39.384140,,,,,,,
1512178341.441595,-0.013437,0.357868,0.059107,-0.033728,-0.005280,0.137513,-0.012585,-0.350278,-0.936561,-0.039539,-0.021197,0.033546,28.410400,-9.602480,-39.609070,,,,,,,
1512178341.461614,-0.012839,0.358547,0.062318,0.074796,0.127310,0.157672,-0.012022,-0.350914,-0.936330,-0.032533,-0.031853,-0.029902,28.335480,-9.602587,-39.458420,,,,,,,
1512178341.481603,-0.011442,0.360754,0.066029,0.114935,0.145482,0.180703,-0.010705,-0.352980,-0.935569,-0.016623,-0.033067,-0.073510,28.333145,-10.127596,-39.383667,,,,,,,
1512178341.501592,-0.010534,0.362194,0.070657,0.015919,0.120654,0.236751,-0.009850,-0.354327,-0.935069,-0.008475,-0.052137,-0.103367,28.558594,-10.052263,-39.160538,,,,,,,
1512178341.521612,-0.011024,0.360518,0.076328,-0.139265,0.068005,0.270563,-0.010315,-0.352759,-0.935657,0.010468,-0.026773,-0.133618,28.708496,-10.052034,-39.386826,,,,,,,
1512178341.541601,-0.012265,0.357844,0.081946,-0.100587,0.026439,0.249655,-0.011488,-0.350256,-0.936583,0.036192,-0.002527,-0.176606,28.483826,-9.977373,-39.384872,,,,,,,
1512178341.561590,-0.014187,0.358476,0.086942,0.133090,-0.022308,0.234749,-0.013285,-0.350847,-0.936338,0.062937,-0.010984,-0.166231,28.181763,-10.427828,-39.457535,,,,,,,
1512178341.581609,-0.015424,0.363910,0.092980,0.336584,0.114580,0.313866,-0.014414,-0.355931,-0.934401,0.061762,-0.063243,-0.079149,28.181564,-10.502825,-39.157562,,,,,,,
1512178341.601595,-0.013532,0.369552,0.102219,0.210961,0.340458,0.507918,-0.012618,-0.361198,-0.932404,0.055511,-0.098626,-0.028183,27.953201,-11.253176,-39.155991,,,,,,,
1512178341.621584,-0.010214,0.368251,0.115555,-0.244817,0.415278,0.676412,-0.009529,-0.359985,-0.932909,0.068595,-0.047990,-0.066801,28.478012,-11.327379,-38.860504,,,,,,,
1512178341.641604,-0.009513,0.357690,0.130499,-0.647386,0.195622,0.706061,-0.008911,-0.350112,-0.936665,0.113174,0.040846,-0.184200,28.252289,-11.477724,-38.933655,,,,,,,
1512178341.661593,-0.015612,0.344628,0.144610,-0.584876,-0.211148,0.644785,-0.014693,-0.337847,-0.941086,0.140563,0.105593,-0.224884,28.327866,-11.327608,-39.159225,,,,,,,
1512178341.681612,-0.026460,0.337876,0.157536,-0.137583,-0.341761,0.601775,-0.024961,-0.331484,-0.943130,0.123548,0.120638,-0.114365,27.728455,-11.178499,-39.304047,,,,,,,
1512178341.701602,-0.034468,0.340350,0.169737,0.288623,-0.107100,0.560791,-0.032484,-0.333817,-0.942078,0.072920,0.092743,0.036331,27.277740,-11.329180,-39.375305,,,,,,,
1512178341.721591,-0.036714,0.347889,0.181628,0.405768,0.222169,0.519927,-0.034507,-0.340914,-0.939461,0.049262,0.082216,0.135094,27.050537,-11.854525,-39.073624,,,,,,,
1512178341.741611,-0.032792,0.353402,0.191284,0.188420,0.414360,0.391649,-0.030760,-0.346091,-0.937696,0.033949,0.062674,0.157469,26.819412,-13.204866,-39.147339,,,,,,,
1512178341.761600,-0.026009,0.352148,0.197747,-0.199566,0.455681,0.260374,-0.024410,-0.344915,-0.938316,0.070934,0.050665,0.114921,27.498352,-12.378847,-38.702698,,,,,,,
