timestamp(unix),attitude_roll(radians),attitude_pitch(radians),attitude_yaw(radians),rotation_rate_x(radians/s),rotation_rate_y(radians/s),rotation_rate_z(radians/s),gravity_x(G),gravity_y(G),gravity_z(G),user_acc_x(G),user_acc_y(G),user_acc_z(G),magnetic_field_x(microteslas),magnetic_field_y(microteslas),magnetic_field_z(microteslas),latitude(degree),longitude(degree),altitude(meter),speed(m/s),course(degree),timestamp(unix),User Mark
1512178564.002493,-0.048824,0.427792,1.656283,0.002755,0.034954,-0.032233,-0.044406,-0.414863,-0.908800,0.021625,-0.027032,0.066301,-12.492355,-41.615211,-39.841545,,,,,,,
1512178564.022482,-0.047156,0.426994,1.656092,-0.067137,0.104195,0.006435,-0.042906,-0.414137,-0.909203,0.026167,-0.016741,0.053673,-12.494095,-41.990211,-39.916725,,,,,,,
1512178564.042471,-0.045371,0.425188,1.656576,-0.098565,0.078455,0.036809,-0.041317,-0.412492,-0.910024,0.025417,-0.001632,-0.000514,-12.492477,-41.615211,-40.066551,,,,,,,
1512178564.062491,-0.044678,0.423541,1.657257,-0.069803,0.034705,0.036007,-0.040716,-0.410991,-0.910730,0.023688,0.012095,-0.037802,-12.494949,-42.140221,-40.291801,,,,,,,
1512178564.082480,-0.044471,0.423385,1.657872,0.017754,0.018833,0.026559,-0.040531,-0.410849,-0.910802,0.015049,0.013663,-0.043712,-12.490860,-41.240211,-40.216377,,,,,,,
1512178564.102469,-0.043817,0.424466,1.658194,0.052230,0.046706,0.006905,-0.039916,-0.411834,-0.910384,0.015502,0.021209,-0.034120,-12.493454,-41.840218,-39.991661,,,,,,,
1512178564.122488,-0.042929,0.425609,1.658153,0.060939,0.028577,-0.005829,-0.039087,-0.412876,-0.909948,0.022913,0.022297,-0.047327,-12.192703,-41.689766,-39.844139,,,,,,,
1512178564.142477,-0.043008,0.427374,1.658089,0.117352,-0.031158,-0.003086,-0.039128,-0.414483,-0.909216,0.032963,0.022698,-0.048884,-12.273102,-42.889885,-39.844048,,,,,,,
1512178564.162466,-0.043608,0.430375,1.658242,0.170598,-0.017199,0.000932,-0.039619,-0.417212,-0.907945,0.020652,0.021887,-0.010649,-12.047653,-42.814552,-39.620934,,,,,,,
1512178564.182486,-0.043701,0.433191,1.658284,0.124935,-0.005499,-0.009283,-0.039652,-0.419769,-0.906764,0.019541,0.027542,0.015422,-12.499527,-43.190224,-39.992287,,,,,,,
1512178564.202475,-0.043808,0.434526,1.657922,0.040889,-0.018423,-0.020140,-0.039725,-0.420980,-0.906200,0.013663,0.034841,0.020625,-11.894989,-42.289314,-39.021980,,,,,,,
1512178564.222464,-0.043690,0.434536,1.656969,-0.003252,-0.025893,-0.059185,-0.039617,-0.420990,-0.906200,0.008962,0.051483,0.001583,-11.969650,-42.214439,-39.021294,,,,,,,
1512178564.242484,-0.043342,0.434535,1.654952,0.015592,-0.030047,-0.102632,-0.039302,-0.420988,-0.906214,0.018245,0.066435,-0.020147,-11.671631,-42.663994,-38.949059,,,,,,,
1512178564.262473,-0.042708,0.435770,1.652255,0.089670,-0.026671,-0.134598,-0.038705,-0.422108,-0.905719,0.019174,0.069279,-0.025495,-11.369461,-42.213539,-38.651405,,,,,,,
1512178564.282462,-0.041980,0.438085,1.649119,0.121914,-0.042604,-0.150172,-0.038004,-0.424206,-0.904768,0.035975,0.065289,-0.022768,-11.147018,-42.813210,-38.353584,,,,,,,
1512178564.302481,-0.041603,0.440715,1.645908,0.142083,-0.055408,-0.146731,-0.037617,-0.426587,-0.903664,0.040150,0.051022,-0.004096,-11.298843,-43.188423,-38.652489,,,,,,,
1512178564.322470,-0.041646,0.443109,1.643003,0.108776,-0.073644,-0.131284,-0.037613,-0.428751,-0.902640,0.040131,0.050699,0.011923,-11.068527,-42.063087,-38.128883,,,,,,,
1512178564.342459,-0.041868,0.444513,1.639988,0.060989,-0.071553,-0.141560,-0.037788,-0.430018,-0.902029,0.032661,0.052638,0.033850,-10.996216,-42.662987,-38.129799,,,,,,,
1512178564.362479,-0.041403,0.444632,1.636905,-0.018922,-0.044973,-0.143694,-0.037366,-0.430126,-0.901995,0.033628,0.051998,0.038943,-10.547241,-42.887306,-38.133720,,,,,,,
1512178564.382468,-0.040872,0.443315,1.633453,-0.081688,-0.076028,-0.153241,-0.036911,-0.428937,-0.902580,0.041763,0.061398,0.002907,-10.320175,-42.436974,-38.060432,,,,,,,
1512178564.402457,-0.041231,0.442102,1.629606,-0.042964,-0.105838,-0.176239,-0.037257,-0.427840,-0.903086,0.030329,0.058867,-0.006765,-10.096100,-42.661629,-37.912437,,,,,,,
1512178564.422476,-0.040784,0.441972,1.625373,0.005496,-0.048022,-0.201983,-0.036855,-0.427722,-0.903158,0.015401,0.067005,0.002829,-10.022156,-42.886513,-37.988182,,,,,,,
1512178564.442465,-0.038977,0.442222,1.620338,0.001820,-0.006304,-0.236007,-0.035218,-0.427948,-0.903117,0.020814,0.063080,0.004115,-9.720016,-42.436073,-37.765526,,,,,,,
1512178564.462454,-0.036738,0.442106,1.615278,-0.014484,0.001108,-0.217029,-0.033198,-0.427844,-0.903243,0.025584,0.043002,-0.008836,-9.569946,-42.435844,-37.616798,,,,,,,
1512178564.482474,-0.033623,0.442302,1.610591,0.035567,0.055653,-0.210783,-0.030382,-0.428021,-0.903258,0.018022,0.042722,-0.017412,-9.569565,-42.360832,-37.541771,,,,,,,
1512178564.502463,-0.031211,0.443408,1.605741,0.056041,0.005509,-0.226652,-0.028188,-0.429021,-0.902855,0.016653,0.048375,-0.023888,-9.119598,-42.360161,-37.620583,,,,,,,
1512178564.522452,-0.028734,0.443919,1.600994,0.008731,0.020347,-0.200631,-0.025946,-0.429482,-0.902703,0.013372,0.032952,-0.019447,-8.668442,-42.134483,-37.324318,,,,,,,
1512178564.542471,-0.027189,0.443566,1.597054,-0.023965,-0.026792,-0.160764,-0.024555,-0.429163,-0.902893,0.008960,0.029002,-0.028076,-8.593887,-42.209373,-37.549980,,,,,,,
1512178564.562460,-0.025985,0.443085,1.593849,-0.007324,-0.002246,-0.133783,-0.023473,-0.428729,-0.903128,-0.003733,0.031207,-0.018045,-8.368332,-42.134026,-37.101875,,,,,,,
1512178564.582449,-0.024236,0.443247,1.591289,0.024195,0.054354,-0.103281,-0.021892,-0.428875,-0.903099,-0.016224,0.029125,-0.006310,-8.067429,-41.908577,-37.329308,,,,,,,
1512178564.602469,-0.021637,0.443503,1.589638,0.010646,0.105515,-0.054258,-0.019542,-0.429107,-0.903042,-0.028096,0.023482,-0.004581,-7.918777,-42.208366,-37.330727,,,,,,,
1512178564.622458,-0.020024,0.443121,1.589127,-0.027510,0.040197,-0.007069,-0.018089,-0.428761,-0.903237,-0.035591,0.027089,-0.024208,-7.542648,-41.982796,-37.108818,,,,,,,
1512178564.642447,-0.019625,0.442050,1.589261,-0.049237,0.036916,0.018194,-0.017738,-0.427794,-0.903702,-0.039422,0.035139,-0.020126,-7.542618,-41.982796,-37.033806,,,,,,,
1512178564.662466,-0.018380,0.441505,1.590525,0.005210,0.130870,0.082205,-0.016616,-0.427300,-0.903957,-0.046448,0.022713,-0.031193,-7.016113,-41.682014,-36.738136,,,,,,,
1512178564.682455,-0.015558,0.442342,1.593705,0.074183,0.253640,0.172114,-0.014060,-0.428057,-0.903642,-0.037454,0.029406,-0.053953,-7.090805,-41.607124,-36.812462,,,,,,,
1512178564.702445,-0.012725,0.444118,1.598760,0.106975,0.240713,0.251431,-0.011490,-0.429662,-0.902917,-0.030731,0.043553,-0.088859,-6.941193,-41.681892,-36.888771,,,,,,,
1512178564.722464,-0.011845,0.446006,1.605134,0.099723,0.160497,0.300089,-0.010686,-0.431365,-0.902114,-0.033077,0.058166,-0.084550,-7.014755,-41.382011,-36.737999,,,,,,,
1512178564.742453,-0.012220,0.447701,1.612409,0.093709,0.144383,0.340455,-0.011016,-0.432894,-0.901378,-0.047303,0.055224,-0.057759,-6.787918,-41.006660,-36.439735,,,,,,,
1512178564.762442,-0.012427,0.449249,1.620832,0.084283,0.203008,0.398091,-0.011194,-0.434289,-0.900704,-0.049674,0.059244,-0.036064,-7.164124,-41.307228,-36.136681,,,,,,,
1512178564.782462,-0.011866,0.450816,1.630543,0.100521,0.261682,0.450768,-0.010680,-0.435700,-0.900028,-0.049958,0.074067,-0.036236,-6.863113,-41.081779,-36.139137,,,,,,,
1512178564.802451,-0.011113,0.452817,1.641411,0.129049,0.263829,0.466112,-0.009993,-0.437501,-0.899163,-0.047151,0.098343,-0.043342,-7.310593,-40.557457,-35.835075,,,,,,,
1512178564.822440,-0.010272,0.455543,1.652429,0.162493,0.284215,0.442144,-0.009225,-0.439950,-0.897975,-0.051368,0.100488,-0.026082,-7.386719,-40.857567,-35.384575,,,,,,,
1512178564.842459,-0.008762,0.458530,1.663033,0.161653,0.297067,0.430456,-0.007857,-0.442631,-0.896670,-0.039903,0.091953,-0.022077,-7.462845,-41.082680,-35.609032,,,,,,,
1512178564.862448,-0.007485,0.461239,1.673498,0.153656,0.294852,0.462312,-0.006702,-0.445058,-0.895477,-0.027294,0.070927,-0.012864,-7.542496,-42.132790,-35.458885,,,,,,,
1512178564.882437,-0.006675,0.463961,1.685728,0.167402,0.321435,0.535096,-0.005970,-0.447494,-0.894267,-0.022000,0.057937,0.006221,-7.309402,-40.407448,-34.785011,,,,,,,
1512178564.902457,-0.005415,0.466663,1.699461,0.155873,0.388600,0.590596,-0.004836,-0.449908,-0.893062,-0.026857,0.066394,0.025432,-7.384964,-40.557564,-34.559441,,,,,,,
1512178564.922446,-0.003004,0.468999,1.713735,0.122698,0.456895,0.602081,-0.002680,-0.451993,-0.892017,-0.030066,0.077008,0.028767,-7.610153,-40.632896,-34.257561,,,,,,,
1512178564.942435,0.000063,0.470609,1.727941,0.074718,0.462159,0.602469,0.000056,-0.453429,-0.891292,-0.015437,0.089492,0.008114,-7.534134,-40.407784,-34.258095,,,,,,,
1512178564.962454,0.002315,0.471820,1.742796,0.067631,0.410803,0.642702,0.002062,-0.454508,-0.890740,-0.019152,0.084757,-0.008308,-7.987930,-41.233467,-34.404655,,,,,,,
1512178564.982443,0.003690,0.472899,1.758536,0.046705,0.429914,0.684040,0.003285,-0.455469,-0.890246,-0.029347,0.094675,0.019564,-8.131897,-39.958687,-33.802788,,,,,,,
1512178565.002432,0.005919,0.473041,1.774820,-0.013109,0.498165,0.694070,0.005269,-0.455595,-0.890172,-0.041768,0.103773,0.032246,-8.057861,-40.183571,-33.728539,,,,,,,
1512178565.022452,0.009122,0.472246,1.790855,-0.040510,0.508843,0.675588,0.008124,-0.454888,-0.890512,-0.034720,0.111199,0.006204,-8.205841,-39.733788,-33.727043,,,,,,,
1512178565.042441,0.012118,0.471713,1.806683,-0.019271,0.503524,0.680141,0.010794,-0.454413,-0.890726,-0.035162,0.101217,0.004984,-8.128738,-39.283669,-33.577492,,,,,,,
1512178565.062430,0.015464,0.471390,1.822607,-0.023592,0.518458,0.683324,0.013777,-0.454125,-0.890831,-0.028013,0.097496,0.012307,-8.204071,-39.358788,-33.576881,,,,,,,
1512178565.082419,0.018211,0.470314,1.838937,-0.089102,0.490537,0.712132,0.016233,-0.453166,-0.891278,-0.022215,0.068919,0.031110,-8.204300,-39.433784,-33.351921,,,,,,,
1512178565.102438,0.021014,0.467328,1.855953,-0.193971,0.539461,0.738500,0.018760,-0.450503,-0.892578,-0.022834,0.051073,0.051910,-8.277573,-39.058891,-33.276100,,,,,,,
1512178565.122427,0.024683,0.462365,1.873384,-0.301897,0.565967,0.755152,0.022089,-0.446066,-0.894727,-0.014033,0.042059,0.040846,-8.200623,-38.608788,-33.426537,,,,,,,
1512178565.142416,0.027157,0.454699,1.891151,-0.464197,0.471696,0.766331,0.024394,-0.439192,-0.898062,0.001347,0.040388,0.019385,-8.499908,-38.459236,-33.348915,,,,,,,
1512178565.162436,0.027665,0.443396,1.908785,-0.629087,0.356134,0.740089,0.024987,-0.429010,-0.902954,0.007392,0.041574,-0.026520,-8.646652,-37.709450,-33.572289,,,,,,,
1512178565.182425,0.027098,0.431911,1.925212,-0.548312,0.298673,0.686687,0.024606,-0.418607,-0.907834,0.010108,0.036848,-0.047412,-9.395935,-37.485573,-34.165810,,,,,,,
1512178565.202414,0.027930,0.423465,1.940090,-0.376045,0.365363,0.587074,0.025460,-0.410922,-0.911315,-0.002404,0.017398,-0.029756,-9.616180,-36.435905,-34.088417,,,,,,,
1512178565.222434,0.030583,0.417861,1.952061,-0.262380,0.356133,0.482084,0.027947,-0.405806,-0.913532,0.005332,-0.017274,-0.009396,-9.388855,-35.910561,-34.165077,,,,,,,
1512178565.242423,0.032087,0.412971,1.962366,-0.270424,0.221600,0.446320,0.029384,-0.401332,-0.915461,0.024418,-0.075505,0.022974,-9.614487,-36.060905,-34.088234,,,,,,,
1512178565.262412,0.029774,0.406497,1.973780,-0.391403,0.025762,0.532367,0.027343,-0.395394,-0.918104,0.036240,-0.149619,0.058317,-9.838562,-35.836235,-34.236214,,,,,,,
1512178565.282431,0.023525,0.396414,1.987915,-0.610292,-0.056042,0.679228,0.021699,-0.386113,-0.922196,0.023635,-0.190181,0.077180,-10.361191,-35.312019,-34.231514,,,,,,,
1512178565.302420,0.015010,0.381252,2.004762,-0.876637,-0.176312,0.792216,0.013932,-0.372083,-0.928095,0.036498,-0.172595,0.035715,-11.486496,-35.313713,-34.821953,,,,,,,
1512178565.322409,-0.002508,0.359894,2.027751,-1.190959,-0.685143,1.274145,-0.002347,-0.352175,-0.935931,0.112562,-0.072599,-0.060559,-12.304520,-33.739937,-35.039223,,,,,,,
1512178565.342429,-0.037554,0.335343,2.065724,-1.142086,-1.370197,2.027242,-0.035454,-0.329093,-0.943632,0.183617,-0.021310,-0.114245,-14.550552,-32.843315,-35.169685,,,,,,,
1512178565.362418,-0.079909,0.315752,2.109783,-0.709748,-1.330207,2.122124,-0.075878,-0.310531,-0.947530,0.052044,-0.126435,-0.095668,-17.395050,-31.647575,-34.919899,,,,,,,
1512178565.382407,-0.105838,0.300498,2.149843,-0.500464,-0.323058,1.828034,-0.100907,-0.295996,-0.949844,0.012619,0.005545,0.033462,-18.891006,-30.749825,-34.906731,,,,,,,
1512178565.402426,-0.118134,0.290632,2.181979,-0.221685,-0.160516,1.415811,-0.112917,-0.286558,-0.951386,-0.009825,0.020353,-0.007889,-19.638672,-30.225945,-34.975121,,,,,,,
1512178565.422415,-0.130618,0.285677,2.206731,-0.050845,-0.355051,1.065807,-0.124968,-0.281807,-0.951298,0.003798,-0.018257,-0.029430,-20.835495,-29.552742,-34.664604,,,,,,,
1512178565.442404,-0.143472,0.283026,2.226155,0.006659,-0.362062,0.875793,-0.137292,-0.279263,-0.950349,0.042123,-0.088230,0.008668,-21.736359,-29.779091,-34.357063,,,,,,,
1512178565.462424,-0.153347,0.280288,2.243429,-0.030047,-0.148295,0.785392,-0.146786,-0.276632,-0.949699,-0.008900,-0.110743,0.029182,-22.261139,-29.779869,-33.902596,,,,,,,
1512178565.482413,-0.154510,0.278089,2.256399,0.009675,0.268862,0.529429,-0.147983,-0.274519,-0.950126,-0.061489,-0.080019,0.054390,-22.784180,-29.330666,-34.047935,,,,,,,
1512178565.502402,-0.148668,0.277465,2.267437,0.090605,0.550952,0.548640,-0.142456,-0.273918,-0.951144,-0.037201,-0.097252,-0.012342,-22.935806,-29.705879,-33.896828,,,,,,,
1512178565.522421,-0.139405,0.280160,2.281844,0.321391,0.700520,0.718811,-0.133536,-0.276510,-0.951688,0.040900,-0.058390,-0.044711,-23.087601,-30.081108,-34.120720,,,,,,,
1512178565.542410,-0.129920,0.287518,2.299421,0.562013,0.709267,0.802281,-0.124237,-0.283573,-0.950869,0.025162,-0.065167,-0.070249,-23.163498,-30.306221,-33.895195,,,,,,,
1512178565.562399,-0.121669,0.298284,2.318116,0.663163,0.690182,0.809011,-0.116009,-0.293880,-0.948776,0.014722,-0.041004,-0.055557,-22.864594,-30.605782,-33.372887,,,,,,,
1512178565.582419,-0.112837,0.309544,2.335732,0.627178,0.707370,0.728592,-0.107246,-0.304624,-0.946416,0.047691,-0.014635,-0.046520,-23.165970,-30.906227,-33.445473,,,,,,,
1512178565.602408,-0.103944,0.319811,2.351734,0.575557,0.667852,0.690399,-0.098496,-0.314388,-0.944171,0.068848,-0.035619,-0.042249,-23.243042,-31.431343,-32.845085,,,,,,,
1512178565.622397,-0.097005,0.329533,2.367743,0.555936,0.565229,0.711076,-0.091642,-0.323602,-0.941745,0.052808,-0.075004,-0.031247,-23.247009,-32.331352,-32.695503,,,,,,,
1512178565.642416,-0.092645,0.339070,2.383956,0.538598,0.440203,0.722117,-0.087245,-0.332610,-0.939020,0.087062,-0.055771,-0.012396,-23.094727,-31.881126,-32.171562,,,,,,,
1512178565.662405,-0.090482,0.348053,2.401257,0.499983,0.402604,0.799249,-0.084940,-0.341068,-0.936193,0.099650,-0.068615,0.014700,-23.247208,-32.481346,-31.720573,,,,,,,
1512178565.682394,-0.088755,0.355365,2.420186,0.411153,0.421529,0.886513,-0.083100,-0.347932,-0.933829,0.091446,-0.085478,0.031196,-23.696121,-32.257027,-31.566643,,,,,,,
1512178565.702414,-0.086175,0.361223,2.440839,0.368324,0.525985,0.967275,-0.080514,-0.353418,-0.931994,0.088860,-0.060705,0.028170,-23.921936,-32.482368,-31.189842,,,,,,,
1512178565.722403,-0.083826,0.367263,2.462298,0.397908,0.473658,0.980313,-0.078144,-0.359063,-0.930036,0.097126,-0.027656,0.000120,-24.299271,-33.007927,-31.111885,,,,,,,
1512178565.742392,-0.083721,0.373642,2.483895,0.399958,0.351892,0.979921,-0.077854,-0.365009,-0.927743,0.091785,-0.008526,-0.007834,-24.822693,-32.708717,-30.657295,,,,,,,
1512178565.762412,-0.085486,0.379400,2.505524,0.349775,0.302673,0.982221,-0.079311,-0.370363,-0.925495,0.088893,0.004076,0.018833,-24.596909,-32.558372,-30.434135,,,,,,,
1512178565.782401,-0.086553,0.383952,2.527034,0.297560,0.394450,0.984980,-0.080151,-0.374587,-0.923721,0.069898,0.010177,0.039398,-25.572357,-32.709846,-29.975914,,,,,,,
1512178565.802363,-0.085964,0.388348,2.548547,0.314687,0.437211,0.983246,-0.079465,-0.378660,-0.922118,0.072476,0.021345,0.031524,-25.497360,-32.709724,-29.976555,,,,,,,
1512178565.822382,-0.085543,0.393177,2.569989,0.329760,0.429775,0.973844,-0.078920,-0.383125,-0.920319,0.075471,0.035301,0.037354,-26.099152,-33.160622,-29.521675,,,,,,,
1512178565.842371,-0.085973,0.397835,2.591059,0.305503,0.367821,0.955155,-0.079161,-0.387423,-0.918497,0.078444,0.038394,0.031916,-26.247696,-32.860847,-29.295265,,,,,,,
1512178565.862360,-0.087429,0.401464,2.611896,0.236274,0.310040,0.947551,-0.080375,-0.390766,-0.916974,0.056083,0.022160,0.042661,-26.544815,-32.261299,-28.917427,,,,,,,
1512178565.882380,-0.090017,0.403490,2.631516,0.144550,0.244873,0.883101,-0.082677,-0.392630,-0.915973,0.046865,0.020316,0.061191,-26.918762,-32.036858,-28.839134,,,,,,,
1512178565.902369,-0.092618,0.403559,2.649657,0.047350,0.237352,0.829429,-0.085057,-0.392694,-0.915728,0.045918,0.009362,0.072329,-27.369812,-32.262535,-28.910423,,,,,,,
1512178565.922358,-0.094598,0.402874,2.667356,0.062065,0.261917,0.843588,-0.086894,-0.392064,-0.915825,0.056972,-0.009777,0.060616,-27.516922,-31.662758,-28.533867,,,,,,,
1512178565.942377,-0.096518,0.404129,2.686216,0.204066,0.281256,0.895816,-0.088605,-0.393218,-0.915166,0.061246,-0.017350,0.035619,-27.596802,-32.712883,-28.833717,,,,,,,
1512178565.962366,-0.098546,0.407625,2.705339,0.277191,0.286783,0.857450,-0.090325,-0.396430,-0.913611,0.034142,-0.001764,0.053839,-27.816818,-31.663200,-28.306328,,,,,,,
1512178565.982355,-0.097507,0.410160,2.722175,0.141832,0.452391,0.734534,-0.089278,-0.398756,-0.912701,0.020446,0.004911,0.066632,-27.816772,-31.663200,-28.231316,,,,,,,
1512178566.002375,-0.095837,0.410412,2.736428,0.043933,0.337038,0.653828,-0.087744,-0.398987,-0.912749,0.037604,-0.023773,0.025771,-27.967392,-31.813438,-28.155113,,,,,,,
1512178566.022364,-0.095741,0.409606,2.750034,0.010783,0.262207,0.656285,-0.087687,-0.398248,-0.913077,0.044474,-0.042060,0.020331,-28.267807,-31.888878,-28.302605,,,,,,,
1512178566.042353,-0.095668,0.408226,2.763638,-0.015873,0.288863,0.657054,-0.087673,-0.396981,-0.913630,0.054851,-0.035239,0.010584,-28.266129,-31.513878,-28.302422,,,,,,,
1512178566.062342,-0.096135,0.406884,2.777102,0.008906,0.223785,0.639068,-0.088150,-0.395750,-0.914118,0.056443,-0.024889,-0.030294,-27.965103,-31.288429,-28.304878,,,,,,,
1512178566.082361,-0.097195,0.406972,2.789637,0.089875,0.214418,0.577312,-0.089116,-0.395830,-0.913990,0.030400,-0.010466,-0.018414,-28.262039,-30.613869,-28.227013,,,,,,,
1512178566.102350,-0.096187,0.408651,2.800465,0.138360,0.331100,0.486737,-0.088131,-0.397372,-0.913416,0.006710,-0.016599,0.015482,-28.187042,-30.613762,-28.227638,,,,,,,
1512178566.122339,-0.090841,0.410599,2.809581,0.139643,0.510699,0.418088,-0.083176,-0.399159,-0.913101,-0.010498,-0.016536,0.019104,-28.112930,-30.838646,-28.003395,,,,,,,
1512178566.142359,-0.084167,0.413620,2.817557,0.212797,0.461756,0.375268,-0.076978,-0.401926,-0.912431,-0.021044,-0.040533,-0.014312,-27.963043,-30.838417,-28.229668,,,,,,,
1512178566.162348,-0.081013,0.417685,2.825708,0.234426,0.256623,0.411113,-0.073968,-0.405646,-0.911033,-0.034294,-0.081735,-0.014230,-27.512726,-30.762749,-28.233452,,,,,,,
1512178566.182337,-0.080949,0.420210,2.835724,0.111080,0.230583,0.520106,-0.073826,-0.407952,-0.910014,-0.044369,-0.090782,0.029398,-27.813019,-30.838203,-28.155937,,,,,,,
1512178566.202356,-0.080523,0.419209,2.847084,-0.084690,0.286812,0.564373,-0.073471,-0.407038,-0.910451,-0.044876,-0.057012,0.022329,-27.289825,-31.212410,-28.385567,,,,,,,
1512178566.222345,-0.079639,0.414713,2.858097,-0.229317,0.275951,0.541984,-0.072811,-0.402927,-0.912331,-0.039753,-0.010723,-0.020927,-27.210403,-30.237297,-28.310768,,,,,,,
1512178566.242335,-0.079240,0.409648,2.868141,-0.192409,0.219482,0.499682,-0.072608,-0.398286,-0.914383,-0.034051,0.013276,-0.055283,-27.060547,-30.237068,-28.612038,,,,,,,
1512178566.262354,-0.081028,0.407302,2.878079,-0.038014,0.096864,0.504690,-0.074318,-0.396133,-0.915181,-0.031090,0.026230,-0.041774,-27.284576,-30.012413,-28.685020,,,,,,,
1512178566.282343,-0.083046,0.407132,2.888753,0.049831,0.163138,0.545633,-0.076170,-0.395977,-0.915096,-0.031481,0.027447,-0.007069,-26.756836,-29.411613,-28.614204,,,,,,,
1512178566.302332,-0.084323,0.407723,2.900639,0.084240,0.205828,0.595323,-0.077319,-0.396520,-0.914764,-0.051709,0.037939,0.003006,-27.054626,-28.887062,-28.911415,,,,,,,
1512178566.322352,-0.085594,0.408306,2.912231,0.084105,0.200468,0.602763,-0.078462,-0.397055,-0.914435,-0.069838,0.055304,0.002875,-26.980713,-29.111946,-29.062157,,,,,,,
1512178566.342341,-0.087493,0.408743,2.924431,0.077933,0.146013,0.586493,-0.080183,-0.397456,-0.914111,-0.079592,0.060038,0.019916,-27.129700,-28.887184,-29.060783,,,,,,,
1512178566.362330,-0.089529,0.408533,2.936374,0.023510,0.175829,0.591138,-0.082051,-0.397264,-0.914029,-0.095073,0.050264,0.038541,-27.204056,-28.737297,-29.135063,,,,,,,
1512178566.382349,-0.090573,0.406744,2.948707,-0.057933,0.240808,0.620034,-0.083070,-0.395621,-0.914649,-0.095702,0.041312,0.035957,-27.352448,-28.362511,-29.283623,,,,,,,
1512178566.402338,-0.091020,0.403212,2.961473,-0.131823,0.270568,0.642524,-0.083605,-0.392374,-0.915998,-0.088270,0.047648,0.016233,-27.277374,-28.287392,-29.809227,,,,,,,
1512178566.422327,-0.090415,0.399107,2.974630,-0.131227,0.347408,0.673711,-0.083196,-0.388596,-0.917645,-0.071376,0.048554,0.002087,-27.123993,-27.537163,-29.810158,,,,,,,
1512178566.442347,-0.089638,0.396198,2.989036,-0.036182,0.342115,0.729445,-0.082584,-0.385914,-0.918831,-0.060529,0.039097,-0.013115,-26.894272,-26.486824,-29.811577,,,,,,,
1512178566.462336,-0.089364,0.395183,3.004486,0.042229,0.357127,0.758348,-0.082366,-0.384977,-0.919243,-0.074769,0.033934,0.011666,-26.669342,-26.486488,-29.963478,,,,,,,
1512178566.482325,-0.088563,0.394634,3.020071,0.031642,0.379549,0.755075,-0.081649,-0.384470,-0.919519,-0.076279,0.021372,0.048700,-26.667801,-26.111488,-30.263313,,,,,,,
1512178566.502344,-0.086916,0.392689,3.035791,-0.059391,0.425281,0.781628,-0.080199,-0.382674,-0.920396,-0.074708,0.002471,0.059342,-26.665939,-25.661476,-30.563103,,,,,,,
1512178566.522333,-0.086136,0.389108,3.052186,-0.123105,0.334302,0.827297,-0.079599,-0.379363,-0.921818,-0.070563,-0.006150,0.037937,-26.586700,-24.686363,-30.863289,,,,,,,
1512178566.542322,-0.087538,0.384700,3.069179,-0.160858,0.235930,0.849864,-0.081037,-0.375281,-0.923362,-0.071460,0.002966,0.032157,-26.585724,-24.461357,-30.938194,,,,,,,
1512178566.562342,-0.090851,0.379353,3.086061,-0.206483,0.150433,0.831845,-0.084276,-0.370320,-0.925073,-0.074629,0.012379,0.037927,-27.108170,-23.862144,-31.233437,,,,,,,
1512178566.582331,-0.094182,0.373843,3.101928,-0.197101,0.165504,0.780863,-0.087547,-0.365195,-0.926805,-0.079201,0.015510,0.057802,-27.253937,-22.887352,-31.531715,,,,,,,
1512178566.602320,-0.095527,0.369198,3.116966,-0.143236,0.274607,0.753244,-0.088955,-0.360868,-0.928365,-0.078373,0.000669,0.066167,-27.552704,-22.587807,-31.754021,,,,,,,
1512178566.622339,-0.095350,0.365965,3.132032,-0.064358,0.296078,0.753389,-0.088901,-0.357850,-0.929537,-0.065259,-0.007140,0.035632,-27.550140,-21.987801,-32.053749,,,,,,,
1512178566.642328,-0.095355,0.363959,-3.136161,-0.018287,0.299385,0.740212,-0.088974,-0.355977,-0.930250,-0.061631,-0.007564,0.042737,-27.172409,-21.387230,-31.981651,,,,,,,
1512178566.662317,-0.094598,0.362123,-3.121734,-0.035821,0.325057,0.704864,-0.088331,-0.354260,-0.930966,-0.062975,-0.016879,0.057797,-27.246964,-21.237343,-32.430946,,,,,,,
1512178566.682337,-0.093078,0.359554,-3.108076,-0.088652,0.351742,0.678610,-0.087000,-0.351857,-0.932002,-0.057028,-0.036861,0.061854,-27.319977,-20.787453,-32.505104,,,,,,,
1512178566.702326,-0.090793,0.355973,-3.094485,-0.132626,0.384753,0.696210,-0.084984,-0.348503,-0.933447,-0.044472,-0.055550,0.051565,-27.091751,-20.037117,-32.806679,,,,,,,
1512178566.722315,-0.088504,0.352149,-3.080641,-0.125275,0.374072,0.702677,-0.082964,-0.344915,-0.934960,-0.043027,-0.057367,0.033654,-27.465805,-19.812675,-32.953377,,,,,,,
1512178566.742335,-0.085951,0.348881,-3.066955,-0.100471,0.394435,0.686049,-0.080674,-0.341846,-0.936287,-0.036559,-0.055020,0.020515,-27.012878,-19.137001,-33.181892,,,,,,,
1512178566.762324,-0.082782,0.345948,-3.053465,-0.096207,0.426482,0.687287,-0.077789,-0.339089,-0.937533,-0.019410,-0.076011,0.003298,-26.859024,-18.236763,-33.557747,,,,,,,
1512178566.782313,-0.079477,0.343534,-3.039166,-0.056654,0.423225,0.745417,-0.074754,-0.336817,-0.938598,-0.014006,-0.091879,-0.020127,-26.634125,-18.236427,-33.784660,,,,,,,
1512178566.802305,-0.077056,0.341711,-3.023519,-0.025435,0.387939,0.790523,-0.072529,-0.335100,-0.939387,-0.015987,-0.093077,-0.035406,-27.007889,-17.936989,-34.006325,,,,,,,
1512178566.822294,-0.075636,0.340638,-3.007517,0.014980,0.349536,0.794172,-0.071222,-0.334088,-0.939847,-0.023886,-0.083346,-0.035281,-26.855270,-17.336769,-34.157326,,,,,,,
1512178566.842283,-0.074140,0.340274,-2.991572,0.044925,0.365616,0.789333,-0.069825,-0.333745,-0.940074,-0.041793,-0.086131,-0.038732,-26.254593,-17.185860,-34.162361,,,,,,,
1512178566.862303,-0.071873,0.340623,-2.975667,0.079163,0.422293,0.784696,-0.067685,-0.334075,-0.940113,-0.058276,-0.091905,-0.040874,-26.851700,-16.511757,-34.456947,,,,,,,
1512178566.882292,-0.068369,0.341560,-2.959431,0.104371,0.482095,0.809786,-0.064369,-0.334957,-0.940032,-0.056130,-0.093403,-0.063279,-26.626221,-16.361427,-34.833794,,,,,,,
1512178566.902281,-0.064041,0.342728,-2.942603,0.117865,0.523725,0.833578,-0.060276,-0.336058,-0.939911,-0.051297,-0.082216,-0.089554,-26.399948,-16.061089,-34.985558,,,,,,,
1512178566.922300,-0.059620,0.344517,-2.925566,0.159512,0.519524,0.828835,-0.056083,-0.337742,-0.939566,-0.039086,-0.067043,-0.110559,-26.246338,-15.235847,-35.211449,,,,,,,
1512178566.942289,-0.056021,0.347700,-2.908826,0.239786,0.445989,0.806291,-0.052641,-0.340736,-0.938684,-0.045229,-0.062798,-0.126090,-26.098434,-15.685631,-35.362938,,,,,,,
1512178566.962278,-0.054074,0.352753,-2.892373,0.327319,0.358557,0.795531,-0.050720,-0.345483,-0.937053,-0.044022,-0.065177,-0.109425,-25.869461,-14.785286,-35.514427,,,,,,,
1512178566.982298,-0.053937,0.358751,-2.875390,0.341592,0.299753,0.831777,-0.050478,-0.351105,-0.934974,-0.055662,-0.075058,-0.066643,-26.170441,-15.010735,-35.436989,,,,,,,
1512178567.002287,-0.054526,0.363621,-2.857688,0.246261,0.299553,0.859179,-0.050936,-0.355661,-0.933226,-0.064985,-0.067465,-0.019838,-25.944199,-14.710396,-35.663765,,,,,,,
1512178567.022276,-0.055495,0.365412,-2.839891,0.058595,0.264018,0.860604,-0.051805,-0.357334,-0.932539,-0.059905,-0.056790,-0.008745,-26.317261,-14.260948,-35.810371,,,,,,,
1512178567.042265,-0.057425,0.362807,-2.822717,-0.168084,0.206038,0.833663,-0.053658,-0.354900,-0.933363,-0.062095,-0.046070,0.000563,-25.864883,-13.735283,-35.813942,,,,,,,
1512178567.062284,-0.058486,0.356417,-2.806726,-0.319620,0.280679,0.781620,-0.054779,-0.348919,-0.935551,-0.033875,-0.015705,0.014423,-25.861893,-13.060280,-35.888634,,,,,,,
1512178567.082273,-0.056847,0.348972,-2.791526,-0.311990,0.401409,0.777888,-0.053392,-0.341932,-0.938207,0.026094,0.011839,-0.011363,-25.934753,-12.535378,-36.337746,,,,,,,
1512178567.102262,-0.054878,0.343913,-2.775415,-0.147572,0.356698,0.824887,-0.051639,-0.337173,-0.940025,0.063098,0.029663,-0.043236,-25.780807,-11.635155,-36.563622,,,,,,,
1512178567.122282,-0.056209,0.342074,-2.758710,-0.008865,0.133694,0.806933,-0.052925,-0.335442,-0.940573,0.058692,0.060128,-0.038843,-25.703598,-11.110039,-36.864006,,,,,,,
1512178567.142271,-0.062492,0.341646,-2.743879,0.017460,-0.143755,0.683751,-0.058842,-0.335038,-0.940365,0.034215,0.071259,0.019925,-26.004837,-11.410484,-36.636604,,,,,,,
1512178567.162260,-0.071240,0.340777,-2.732058,-0.012453,-0.253568,0.552876,-0.067086,-0.334220,-0.940105,0.028482,0.052176,0.089061,-26.303299,-11.035927,-36.933876,,,,,,,
1512178567.182279,-0.078175,0.340075,-2.722013,0.032245,-0.095302,0.500772,-0.073623,-0.333558,-0.939850,0.044311,0.024552,0.135438,-26.749741,-10.286598,-36.554710,,,,,,,
1512178567.202268,-0.081375,0.340884,-2.712115,0.110089,0.067173,0.507798,-0.076608,-0.334320,-0.939341,0.064844,0.007065,0.119837,-26.825867,-10.511711,-36.779167,,,,,,,
1512178567.222257,-0.082301,0.341393,-2.701152,0.039654,0.171600,0.581763,-0.077464,-0.334800,-0.939100,0.089488,-0.002129,0.093900,-26.823730,-10.061714,-36.553963,,,,,,,
1512178567.242277,-0.083298,0.339445,-2.688508,-0.089641,0.165903,0.665158,-0.078454,-0.332964,-0.939670,0.106912,0.002749,0.056262,-26.747864,-9.836601,-36.854500,,,,,,,
1512178567.262266,-0.086190,0.335436,-2.674801,-0.173677,0.035354,0.711455,-0.081286,-0.329180,-0.940762,0.114626,0.016375,0.024334,-26.820511,-9.311714,-36.853615,,,,,,,
1512178567.282255,-0.092192,0.329528,-2.661070,-0.271679,-0.119650,0.700974,-0.087108,-0.323597,-0.942177,0.112560,0.025898,0.031242,-26.820465,-9.311714,-36.778618,,,,,,,
1512178567.302275,-0.099610,0.321987,-2.648301,-0.324257,-0.161304,0.654224,-0.094335,-0.316452,-0.943906,0.109457,0.030609,0.069608,-27.115814,-8.262154,-36.925591,,,,,,,
1512178567.322264,-0.105990,0.314981,-2.636662,-0.244458,-0.100189,0.602291,-0.100587,-0.309799,-0.945467,0.108476,0.023880,0.097597,-27.187927,-7.662254,-36.549675,,,,,,,
1512178567.342253,-0.109957,0.311374,-2.625684,-0.033625,0.040149,0.558925,-0.104459,-0.306367,-0.946165,0.106793,0.016663,0.142530,-27.261398,-7.287376,-36.848854,,,,,,,
1512178567.362272,-0.110838,0.311874,-2.614979,0.135438,0.183606,0.527759,-0.105276,-0.306843,-0.945920,0.097204,-0.006176,0.187390,-27.485611,-7.137703,-36.621880,,,,,,,
1512178567.382261,-0.109420,0.313142,-2.604732,0.083582,0.256202,0.508071,-0.103891,-0.308050,-0.945681,0.096475,-0.035273,0.208544,-27.110001,-6.987144,-36.775002,,,,,,,
1512178567.402250,-0.108487,0.311424,-2.594607,-0.104675,0.174663,0.542371,-0.103066,-0.306415,-0.946302,0.094536,-0.064191,0.187925,-27.257797,-6.462364,-37.073479,,,,,,,
1512178567.422270,-0.110298,0.305380,-2.584222,-0.312933,0.036387,0.623091,-0.104982,-0.300656,-0.947937,0.081544,-0.084034,0.160797,-27.104187,-5.637138,-37.299370,,,,,,,
1512178567.442259,-0.114498,0.295958,-2.572696,-0.443221,-0.051424,0.632624,-0.109281,-0.291657,-0.950260,0.056500,-0.071029,0.137119,-27.253174,-5.412361,-37.297981,,,,,,,
1512178567.462248,-0.118770,0.285475,-2.561925,-0.447876,-0.033189,0.593179,-0.113695,-0.281614,-0.952768,0.033907,-0.067370,0.119974,-27.472748,-4.212685,-37.220512,,,,,,,
1512178567.482267,-0.120895,0.276577,-2.552182,-0.330434,0.085692,0.522798,-0.116017,-0.273064,-0.954974,0.011677,-0.069297,0.101596,-27.096054,-3.837120,-37.223534,,,,,,,
1512178567.502256,-0.120370,0.270846,-2.543986,-0.182643,0.172646,0.421836,-0.115702,-0.267547,-0.956573,-0.003027,-0.074006,0.071548,-27.020523,-3.687004,-37.524101,,,,,,,
1512178567.522245,-0.118779,0.267086,-2.537829,-0.134954,0.155854,0.309469,-0.114298,-0.263922,-0.957748,0.002360,-0.087519,0.028488,-27.243546,-3.237343,-37.596977,,,,,,,
1512178567.542265,-0.117852,0.264384,-2.533857,-0.086406,0.071742,0.205404,-0.113494,-0.261315,-0.958558,0.015945,-0.105155,-0.002166,-27.019028,-3.312004,-37.898933,,,,,,,
1512178567.562254,-0.118969,0.263406,-2.531265,-0.006625,-0.056206,0.144280,-0.114594,-0.260371,-0.958684,0.009965,-0.141454,-0.015590,-27.016068,-2.711998,-37.373650,,,,,,,
1512178567.582243,-0.121202,0.263853,-2.529443,0.036655,-0.071013,0.105414,-0.116722,-0.260802,-0.958310,0.000663,-0.168412,-0.001086,-26.792786,-3.086662,-37.450737,,,,,,,
1512178567.602262,-0.121910,0.265192,-2.528311,0.066226,0.037002,0.062508,-0.117357,-0.262094,-0.957880,-0.033110,-0.177847,-0.014502,-26.942383,-3.011894,-37.299431,,,,,,,
1512178567.622251,-0.119890,0.267445,-2.528707,0.114805,0.134478,-0.033458,-0.115351,-0.264268,-0.957526,-0.043401,-0.155013,-0.079263,-26.568619,-3.236336,-37.752708,,,,,,,
1512178567.642240,-0.116198,0.270846,-2.530895,0.164192,0.179577,-0.117873,-0.111710,-0.267547,-0.957047,-0.025879,-0.150285,-0.155395,-26.491547,-2.786217,-37.678154,,,,,,,
1512178567.662260,-0.112234,0.274952,-2.533581,0.215331,0.133730,-0.117288,-0.107792,-0.271501,-0.956383,-0.022061,-0.168578,-0.230736,-26.494583,-3.461220,-37.678459,,,,,,,
1512178567.682249,-0.110706,0.280890,-2.536093,0.332691,-0.002798,-0.129923,-0.106150,-0.277211,-0.954927,-0.031454,-0.167705,-0.250593,-26.346313,-3.835991,-37.754906,,,,,,,
1512178567.702238,-0.110589,0.288814,-2.539357,0.389122,-0.013274,-0.190973,-0.105793,-0.284816,-0.952726,-0.075115,-0.177663,-0.177996,-26.421234,-3.836113,-37.604271,,,,,,,
1512178567.722257,-0.107445,0.295942,-2.543993,0.282474,0.178939,-0.244089,-0.102576,-0.291641,-0.951012,-0.093255,-0.193726,-0.112511,-26.124008,-4.435661,-37.757088,,,,,,,
1512178567.742246,-0.100204,0.299835,-2.549412,0.093929,0.352771,-0.244082,-0.095573,-0.295362,-0.950593,-0.091576,-0.204851,-0.122313,-25.974991,-4.660439,-37.683479,,,,,,,
1512178567.762235,-0.089773,0.299566,-2.555130,-0.106443,0.497730,-0.240085,-0.085660,-0.295105,-0.951617,-0.073397,-0.170990,-0.189481,-25.597855,-4.134880,-38.136421,,,,,,,
1512178567.782255,-0.077057,0.297184,-2.561145,-0.127628,0.597048,-0.243244,-0.073607,-0.292829,-0.953327,-0.040163,-0.096926,-0.250759,-25.151932,-5.034203,-38.215660,,,,,,,
1512178567.802216,-0.062989,0.298027,-2.567120,0.153354,0.623188,-0.278524,-0.060173,-0.293635,-0.954022,-0.012001,-0.013357,-0.248065,-24.776077,-4.808647,-38.518745,,,,,,,
1512178567.822205,-0.050244,0.306030,-2.573776,0.493013,0.485999,-0.325253,-0.047889,-0.301276,-0.952334,0.016792,0.063391,-0.165952,-24.028214,-5.257515,-38.750328,,,,,,,
1512178567.842225,-0.040802,0.317122,-2.581426,0.525654,0.275712,-0.375617,-0.038756,-0.311833,-0.949346,0.048903,0.108846,-0.063990,-23.806992,-6.082191,-38.902611,,,,,,,
1512178567.862214,-0.036460,0.324779,-2.589973,0.257129,-0.014142,-0.397575,-0.034547,-0.319099,-0.947091,0.042466,0.130577,-0.001227,-24.033417,-6.382530,-39.050835,,,,,,,
1512178567.882203,-0.036798,0.328385,-2.599732,0.166554,-0.232033,-0.474265,-0.034823,-0.322515,-0.945924,-0.008237,0.153340,0.047242,-23.959625,-6.682411,-38.751625,,,,,,,
1512178567.902222,-0.037672,0.335584,-2.611974,0.472603,-0.193915,-0.607220,-0.035562,-0.329321,-0.943548,-0.053015,0.169882,0.135000,-23.735748,-6.907082,-38.978630,,,,,,,
1512178567.922211,-0.034699,0.349596,-2.625371,0.766220,0.021272,-0.624607,-0.032594,-0.342518,-0.938946,-0.087828,0.116749,0.190944,-24.115356,-7.957649,-38.750938,,,,,,,
1512178567.942200,-0.027072,0.364834,-2.637970,0.683099,0.253867,-0.550377,-0.025287,-0.356794,-0.933841,-0.114804,0.056303,0.199786,-23.817642,-8.482201,-38.603722,,,,,,,
1512178567.962220,-0.017499,0.374708,-2.648927,0.345892,0.278823,-0.463491,-0.016284,-0.366001,-0.930472,-0.119687,0.054447,0.135337,-23.371475,-9.306541,-38.832939,,,,,,,
1512178567.982209,-0.010930,0.377065,-2.658379,-0.023497,0.083668,-0.376778,-0.010162,-0.368194,-0.929694,-0.092041,0.074965,0.045721,-22.923950,-9.830864,-39.061989,,,,,,,
1512178568.002198,-0.010270,0.373576,-2.665336,-0.239159,-0.186116,-0.241188,-0.009562,-0.364947,-0.930979,-0.072027,0.074084,-0.009161,-23.148575,-9.756203,-38.985039,,,,,,,
1512178568.022187,-0.016141,0.367749,-2.668797,-0.329791,-0.429095,-0.057851,-0.015061,-0.359515,-0.933018,-0.060028,0.099887,-0.003567,-23.371887,-9.381538,-38.982948,,,,,,,
1512178568.042206,-0.027497,0.360091,-2.669748,-0.405733,-0.656877,0.010615,-0.025730,-0.352360,-0.935511,-0.083386,0.074375,0.009562,-23.898834,-9.832329,-38.828712,,,,,,,
1512178568.062195,-0.043421,0.351331,-2.669360,-0.452947,-0.841893,0.084977,-0.040756,-0.344148,-0.938030,-0.081726,0.088518,0.040402,-24.493546,-8.708214,-38.373085,,,,,,,
1512178568.082184,-0.062560,0.341313,-2.669049,-0.539829,-0.960519,0.047061,-0.058913,-0.334724,-0.940473,-0.097428,0.133583,0.101575,-25.167084,-8.409233,-38.142220,,,,,,,
1512178568.102204,-0.079826,0.328032,-2.671405,-0.752712,-0.883649,-0.098609,-0.075489,-0.322181,-0.943664,-0.143581,0.123374,0.125930,-25.765961,-8.185127,-37.912010,,,,,,,
1512178568.122193,-0.094891,0.312597,-2.679680,-0.804128,-0.825441,-0.404044,-0.090157,-0.307530,-0.947258,-0.105430,0.097646,0.172264,-26.587967,-7.586357,-37.304726,,,,,,,
1512178568.142182,-0.108558,0.298962,-2.691517,-0.679516,-0.871067,-0.464230,-0.103539,-0.294529,-0.950017,-0.068428,0.028598,0.147557,-27.035828,-7.137032,-37.075691,,,,,,,
1512178568.162201,-0.121580,0.288356,-2.701829,-0.513681,-0.746026,-0.364378,-0.116273,-0.284377,-0.951636,-0.039672,-0.006639,0.138190,-27.634628,-6.912926,-36.695488,,,,,,,
1512178568.182190,-0.133902,0.280510,-2.710083,-0.406155,-0.718240,-0.290235,-0.128284,-0.276845,-0.952313,-0.036267,-0.022898,0.112652,-27.932373,-6.463371,-36.242744,,,,,,,
1512178568.202179,-0.146906,0.272933,-2.716574,-0.436587,-0.740916,-0.191612,-0.140960,-0.269557,-0.952612,-0.042069,-0.063054,0.079977,-28.532257,-6.464272,-36.012642,,,,,,,
1512178568.222199,-0.162709,0.263885,-2.721193,-0.490689,-0.927063,-0.086433,-0.156384,-0.260833,-0.952633,-0.039478,-0.105043,0.012280,-29.055450,-6.090065,-35.783012,,,,,,,
1512178568.242188,-0.182805,0.254614,-2.723960,-0.455097,-1.078883,0.010567,-0.175928,-0.251872,-0.951635,-0.024573,-0.117101,-0.019007,-29.956253,-6.316414,-35.325462,,,,,,,
1512178568.262177,-0.205353,0.246454,-2.724309,-0.367903,-1.151667,0.149095,-0.197751,-0.243967,-0.949408,-0.018252,-0.134223,-0.043161,-30.703171,-5.717537,-34.568810,,,,,,,
1512178568.282196,-0.230561,0.238745,-2.720822,-0.320201,-1.281250,0.352952,-0.222042,-0.236483,-0.945925,-0.021901,-0.177717,-0.099028,-31.451416,-5.418648,-33.737297,,,,,,,
1512178568.302186,-0.260376,0.230282,-2.713310,-0.306420,-1.434357,0.544511,-0.250648,-0.228252,-0.940785,-0.033975,-0.164494,-0.106471,-32.573792,-4.895332,-33.202507,,,,,,,
1512178568.322175,-0.290735,0.222174,-2.703700,-0.226795,-1.383136,0.631126,-0.279610,-0.220351,-0.934486,-0.016471,-0.114366,-0.099480,-33.245270,-4.221352,-32.221458,,,,,,,
1512178568.342194,-0.321771,0.214207,-2.690090,-0.121925,-1.395181,0.866075,-0.309019,-0.212573,-0.926995,-0.047243,-0.130597,-0.155677,-34.669968,-4.223488,-31.609352,,,,,,,
1512178568.362183,-0.350475,0.207225,-2.673403,-0.012750,-1.120596,0.916580,-0.335998,-0.205745,-0.919116,-0.059754,-0.076573,-0.119031,-35.265396,-3.324379,-30.553841,,,,,,,
1512178568.382172,-0.369089,0.202355,-2.656521,0.133669,-0.572263,0.856647,-0.353405,-0.200976,-0.913626,-0.035679,-0.003583,-0.086068,-36.236313,-2.500832,-29.795174,,,,,,,
1512178568.402192,-0.382152,0.202043,-2.639245,0.439588,-0.462727,0.799629,-0.365333,-0.200671,-0.908990,-0.013848,0.017245,-0.053977,-36.534470,-2.126274,-29.492455,,,,,,,
1512178568.422181,-0.394195,0.208434,-2.619108,0.775945,-0.264678,0.840371,-0.375752,-0.206928,-0.903322,-0.049388,-0.039608,-0.017118,-36.457306,-1.676170,-29.192879,,,,,,,
1512178568.442170,-0.398378,0.215240,-2.595654,0.734721,0.176041,1.034263,-0.378973,-0.213581,-0.900423,-0.096323,-0.105541,-0.083753,-36.758545,-1.976616,-28.965477,,,,,,,
1512178568.462189,-0.399918,0.218468,-2.568864,0.634319,0.226747,1.241930,-0.380088,-0.216734,-0.899199,-0.019860,-0.017717,-0.153077,-36.606216,-1.451393,-29.041512,,,,,,,
1512178568.482178,-0.401964,0.219421,-2.539692,0.589976,0.194440,1.344588,-0.381846,-0.217665,-0.898229,0.007731,0.075743,-0.157633,-36.305954,-1.375938,-29.194023,,,,,,,
1512178568.502167,-0.402951,0.220700,-2.512743,0.597749,0.297537,1.072148,-0.382624,-0.218913,-0.897595,0.004038,0.137568,0.002255,-35.997696,0.499535,-29.570702,,,,,,,
1512178568.522187,-0.399982,0.224779,-2.491983,0.601039,0.437983,0.814697,-0.379606,-0.222891,-0.897897,0.029325,0.166128,0.125787,-35.997513,0.574532,-29.870659,,,,,,,
1512178568.542176,-0.394065,0.231046,-2.475206,0.626580,0.528244,0.562723,-0.373743,-0.228996,-0.898820,-0.013357,0.043983,0.164674,-35.548752,0.350197,-30.324593,,,,,,,
1512178568.562165,-0.384990,0.239869,-2.462598,0.672979,0.639851,0.340980,-0.364797,-0.237575,-0.900267,-0.010782,-0.057255,0.166625,-35.099014,0.350868,-30.853416,,,,,,,
1512178568.582184,-0.373303,0.248719,-2.451568,0.555615,0.825375,0.419876,-0.353471,-0.246163,-0.902476,0.072571,-0.017204,0.113871,-34.649612,0.276543,-31.382271,,,,,,,
1512178568.602173,-0.357341,0.253119,-2.438457,0.375987,1.012768,0.590628,-0.338639,-0.250425,-0.906979,0.092698,-0.025912,0.049008,-33.824570,0.352791,-31.989250,,,,,,,
1512178568.622162,-0.341045,0.254034,-2.424731,0.228996,0.968648,0.646984,-0.323737,-0.251310,-0.912161,0.103477,0.015532,0.047109,-33.148331,0.728798,-32.894798,,,,,,,
1512178568.642182,-0.327292,0.253752,-2.412204,0.187887,0.747666,0.542207,-0.311185,-0.251038,-0.916594,0.112393,0.058838,0.096266,-32.923553,0.729134,-33.346718,,,,,,,
1512178568.662171,-0.316671,0.255469,-2.404569,0.216515,0.605202,0.221242,-0.301298,-0.252700,-0.919436,0.121687,0.098601,0.180819,-32.322983,0.880043,-33.576744,,,,,,,
1512178568.682160,-0.305087,0.259595,-2.403440,0.226098,0.602648,-0.101645,-0.290311,-0.256689,-0.921862,0.092939,0.067022,0.246493,-31.723480,0.805931,-33.881874,,,,,,,
1512178568.702179,-0.292094,0.265042,-2.406738,0.211325,0.618920,-0.239324,-0.277903,-0.261950,-0.924204,0.013224,0.021181,0.267908,-31.197342,1.106728,-34.336205,,,,,,,
1512178568.722168,-0.279886,0.269472,-2.409696,0.168723,0.522480,-0.116612,-0.266277,-0.266222,-0.926403,-0.069218,-0.007887,0.217296,-31.050613,0.431953,-34.787788,,,,,,,
1512178568.742157,-0.272086,0.273936,-2.409957,0.257862,0.351548,-0.034892,-0.258720,-0.270523,-0.927298,-0.047203,-0.019043,0.166266,-30.601578,0.207619,-34.716713,,,,,,,
1512178568.762177,-0.266067,0.280019,-2.410184,0.302627,0.236379,-0.106076,-0.252698,-0.276374,-0.927233,-0.010211,0.016960,0.126009,-30.601883,0.207619,-35.316704,,,,,,,
1512178568.782166,-0.263453,0.285337,-2.413379,0.146029,0.026003,-0.250856,-0.249887,-0.281481,-0.926458,-0.020148,0.009005,0.081518,-30.452972,-0.017159,-35.468086,,,,,,,
1512178568.802131,-0.261329,0.287463,-2.420946,-0.055747,0.012151,-0.428665,-0.247763,-0.283520,-0.926407,-0.051279,0.019558,0.081009,-30.602036,0.132622,-34.941750,,,,,,,
1512178568.822151,-0.257741,0.288100,-2.432009,-0.097988,0.006922,-0.517778,-0.244391,-0.284131,-0.927115,-0.139749,-0.055148,0.024237,-30.379166,-0.317039,-35.168861,,,,,,,
1512178568.842140,-0.255838,0.290406,-2.444143,0.022423,-0.067411,-0.647417,-0.242460,-0.286342,-0.926942,-0.201937,-0.028951,-0.022155,-30.605591,-0.617378,-35.317085,,,,,,,
1512178568.862129,-0.249864,0.297754,-2.461262,0.230754,0.127995,-0.988055,-0.236392,-0.293374,-0.926310,-0.171155,-0.031806,-0.056310,-30.533295,-1.217278,-35.318001,,,,,,,
1512178568.882148,-0.241132,0.309143,-2.482221,0.348271,0.174390,-1.130108,-0.227482,-0.304242,-0.925034,-0.209774,-0.116259,-0.102767,-30.614151,-2.492393,-35.542946,,,,,,,
1512178568.902137,-0.229395,0.321805,-2.504193,0.383779,0.325076,-1.143999,-0.215715,-0.316279,-0.923815,-0.161101,-0.165105,-0.132337,-30.316589,-3.016960,-35.695747,,,,,,,
1512178568.922126,-0.214146,0.334087,-2.525318,0.379255,0.510764,-1.053867,-0.200763,-0.327907,-0.923131,-0.149350,-0.200978,-0.155085,-30.169022,-3.541725,-35.847267,,,,,,,
1512178568.942115,-0.195270,0.345510,-2.544647,0.384155,0.682554,-0.955122,-0.182565,-0.338677,-0.923021,-0.119986,-0.189354,-0.189268,-29.574188,-4.665840,-36.077888,,,,,,,
1512178568.962135,-0.176017,0.356690,-2.562785,0.403482,0.591686,-0.902920,-0.164087,-0.349174,-0.922579,-0.086264,-0.154763,-0.240476,-28.752457,-5.339607,-36.535210,,,,,,,
1512178568.982124,-0.163034,0.367602,-2.580737,0.387223,0.157982,-0.907863,-0.151469,-0.359379,-0.920817,-0.088933,-0.115185,-0.271764,-28.832214,-6.389732,-36.610054,,,,,,,
1512178569.002113,-0.157882,0.377234,-2.600681,0.288611,-0.232900,-1.023653,-0.146172,-0.368350,-0.918124,-0.107643,-0.085202,-0.196210,-28.685333,-7.064507,-36.761650,,,,,,,
1512178569.022132,-0.156707,0.383626,-2.624134,0.050743,-0.396443,-1.152397,-0.144723,-0.374286,-0.915951,-0.136283,-0.081967,-0.110401,-28.688965,-7.889503,-36.612022,,,,,,,
1512178569.042121,-0.153679,0.385921,-2.650402,-0.114406,-0.278003,-1.217278,-0.141817,-0.376412,-0.915534,-0.089399,-0.061652,-0.052774,-29.214157,-7.965294,-36.307594,,,,,,,
1512178569.062110,-0.147463,0.387693,-2.676263,-0.066289,-0.122086,-1.152067,-0.136025,-0.378054,-0.915736,-0.057014,-0.012449,-0.032643,-28.843246,-8.864738,-36.386192,,,,,,,
1512178569.082130,-0.139041,0.390608,-2.701309,0.042666,0.030833,-1.159558,-0.128154,-0.380751,-0.915754,-0.065861,0.071882,0.011304,-28.769257,-9.089638,-36.386940,,,,,,,
1512178569.102119,-0.126981,0.397301,-2.726770,0.254871,0.171213,-1.221025,-0.116776,-0.386931,-0.914684,-0.091598,0.120925,0.039059,-28.623611,-10.064415,-36.313667,,,,,,,
1512178569.122108,-0.111889,0.406295,-2.753635,0.298399,0.240811,-1.271323,-0.102566,-0.395209,-0.912847,-0.084888,0.114249,0.071874,-28.101791,-10.738640,-36.618431,,,,,,,
1512178569.142127,-0.097506,0.412986,-2.780090,0.137306,0.201972,-1.201300,-0.089167,-0.401346,-0.911576,-0.083426,0.083688,0.104401,-27.730408,-11.563072,-36.397011,,,,,,,
1512178569.162116,-0.082990,0.415863,-2.805987,-0.010445,0.203812,-1.161855,-0.075830,-0.403979,-0.911620,-0.066977,0.098773,0.116622,-27.583252,-12.162849,-36.698555,,,,,,,
1512178569.182105,-0.069133,0.417086,-2.830984,-0.008099,0.197304,-1.110673,-0.063156,-0.405098,-0.912089,-0.042954,0.122108,0.123546,-27.061218,-12.837074,-36.553337,,,,,,,
1512178569.202125,-0.055549,0.420360,-2.854625,0.173070,0.209194,-1.041912,-0.050687,-0.408089,-0.911534,-0.045977,0.121194,0.127034,-26.612488,-13.061394,-37.082253,,,,,,,
1512178569.222114,-0.043138,0.427677,-2.876584,0.403458,0.138934,-0.988717,-0.039240,-0.414758,-0.909085,-0.034643,0.138345,0.132275,-26.242142,-14.110847,-36.935936,,,,,,,
1512178569.242103,-0.032782,0.438606,-2.897646,0.561423,0.061104,-0.938723,-0.029674,-0.424677,-0.904858,-0.032445,0.129649,0.156460,-26.095367,-14.785622,-37.312508,,,,,,,
1512178569.262122,-0.023488,0.451102,-2.917386,0.604989,0.045009,-0.865654,-0.021136,-0.435957,-0.899719,-0.049009,0.109068,0.199615,-25.648895,-15.609947,-36.941734,,,,,,,
1512178569.282111,-0.014634,0.462797,-2.935566,0.541795,0.035129,-0.784521,-0.013094,-0.446452,-0.894712,-0.052397,0.098338,0.193677,-25.201859,-16.284279,-36.795860,,,,,,,
1512178569.302100,-0.007318,0.472399,-2.952876,0.421901,-0.052691,-0.757777,-0.006516,-0.455024,-0.890455,-0.043579,0.096961,0.171629,-25.130905,-17.184181,-36.796913,,,,,,,
1512178569.322120,-0.002039,0.478916,-2.969356,0.267083,-0.137470,-0.683562,-0.001809,-0.460817,-0.887493,-0.023169,0.076509,0.137600,-24.984161,-17.933952,-36.573540,,,,,,,
1512178569.342109,0.000829,0.482983,-2.983142,0.175219,-0.185951,-0.545407,0.000734,-0.464423,-0.885613,0.008604,0.068839,0.075600,-24.762466,-18.683632,-36.425789,,,,,,,
1512178569.362098,0.001174,0.486040,-2.993820,0.142038,-0.247153,-0.410710,0.001038,-0.467129,-0.884189,0.017501,0.060436,0.030704,-24.841583,-19.583733,-36.575569,,,,,,,
1512178569.382118,0.000053,0.487994,-3.002063,0.069220,-0.233544,-0.325366,0.000047,-0.468855,-0.883275,0.016631,0.051772,-0.007030,-24.988434,-18.908958,-36.348976,,,,,,,
1512178569.402107,-0.001590,0.488544,-3.009359,-0.003651,-0.247585,-0.303017,-0.001404,-0.469341,-0.883016,0.044723,0.048717,-0.043406,-25.066071,-19.509071,-36.198631,,,,,,,
1512178569.422096,-0.002992,0.486454,-3.015142,-0.173928,-0.159412,-0.186844,-0.002645,-0.467494,-0.883992,0.084799,-0.003285,-0.076961,-24.764679,-19.208626,-36.126030,,,,,,,
1512178569.442115,-0.003126,0.480988,-3.016907,-0.322069,0.037574,0.013176,-0.002771,-0.462655,-0.886534,0.127222,-0.019904,-0.129290,-25.140915,-19.509193,-35.897987,,,,,,,
1512178569.462104,-0.000913,0.473391,-3.015273,-0.396083,0.206039,0.113966,-0.000813,-0.455907,-0.890027,0.159718,0.015508,-0.181216,-25.365158,-19.284523,-36.420967,,,,,,,
1512178569.482093,0.002304,0.465509,-3.012704,-0.377193,0.222058,0.133487,0.002058,-0.448877,-0.893591,0.202348,0.029856,-0.220743,-25.212097,-18.609306,-36.346931,,,,,,,
1512178569.502113,0.003965,0.459376,-3.009136,-0.259927,0.133456,0.193510,0.003554,-0.443389,-0.896322,0.203157,0.021133,-0.193369,-25.286560,-18.459404,-36.646233,,,,,,,
1512178569.522102,0.005967,0.454762,-3.004867,-0.236507,0.288368,0.203987,0.005360,-0.439249,-0.898349,0.153407,0.003442,-0.069134,-25.210632,-18.234291,-36.796761,,,,,,,
1512178569.542091,0.014327,0.448523,-3.000919,-0.387349,0.642806,0.188107,0.012909,-0.433635,-0.900996,0.143600,-0.021382,0.001658,-24.985214,-18.083961,-37.323601,,,,,,,
1512178569.562110,0.027034,0.436950,-2.995097,-0.700714,0.801223,0.321639,0.024491,-0.423178,-0.905715,0.214187,-0.035227,-0.073441,-24.534012,-17.783272,-37.627281,,,,,,,
1512178569.582099,0.037236,0.420674,-2.986088,-0.871102,0.620216,0.430474,0.033982,-0.408376,-0.912181,0.276473,0.022298,-0.171925,-24.082657,-17.407600,-38.305931,,,,,,,
1512178569.602088,0.041057,0.404473,-2.975490,-0.774287,0.274152,0.490373,0.037733,-0.393534,-0.918535,0.292924,0.053721,-0.213163,-23.628494,-16.431923,-38.759300,,,,,,,
1512178569.622108,0.039268,0.392373,-2.964157,-0.525508,0.099285,0.523220,0.036274,-0.382382,-0.923292,0.261882,0.064816,-0.141665,-23.997650,-15.082481,-39.205498,,,,,,,
1512178569.642097,0.037767,0.385572,-2.952991,-0.270955,0.211792,0.542221,0.034986,-0.376089,-0.925923,0.224551,0.055990,-0.020550,-24.070206,-14.482582,-39.729576,,,,,,,
1512178569.662086,0.040471,0.382969,-2.940736,-0.094905,0.468298,0.610696,0.037529,-0.373676,-0.926800,0.197120,0.033237,0.093151,-24.071075,-14.632576,-40.104637,,,,,,,
1512178569.682105,0.047151,0.382480,-2.926249,-0.053039,0.675359,0.733558,0.043728,-0.373222,-0.926711,0.178806,0.020652,0.152282,-23.315109,-13.356453,-39.660423,,,,,,,
1512178569.702094,0.053592,0.380967,-2.908908,-0.168101,0.598031,0.854217,0.049726,-0.371818,-0.926973,0.160982,0.029029,0.144578,-22.938309,-12.905891,-40.113411,,,,,,,
1512178569.722083,0.054943,0.376999,-2.889683,-0.285487,0.332822,0.913426,0.051059,-0.368132,-0.928370,0.124845,0.049437,0.157161,-23.160080,-12.156227,-40.411156,,,,,,,
1512178569.742103,0.052034,0.372531,-2.869873,-0.239977,0.174771,0.925260,0.048443,-0.363974,-0.930148,0.084202,0.065161,0.196765,-23.463303,-12.831673,-40.783913,,,,,,,
1512178569.762092,0.048390,0.371020,-2.850363,-0.041662,0.208188,0.925051,0.045080,-0.362566,-0.930867,0.045328,0.061632,0.249165,-23.159256,-11.931221,-40.786034,,,,,,,
1512178569.782081,0.047575,0.374056,-2.830639,0.191441,0.410371,0.956849,0.044268,-0.365394,-0.929799,0.023206,0.042091,0.297887,-23.157608,-11.556221,-40.860863,,,,,,,
1512178569.802066,0.051042,0.381049,-2.809689,0.354498,0.651880,1.036810,0.047360,-0.371894,-0.927066,-0.004987,0.009483,0.311984,-23.006363,-11.255989,-41.087013,,,,,,,
1512178569.822084,0.057192,0.389607,-2.787339,0.358157,0.755413,1.077730,0.052877,-0.379825,-0.923546,-0.033300,-0.013455,0.255455,-22.553558,-10.580315,-41.540520,,,,,,,
1512178569.842075,0.062884,0.396944,-2.765487,0.279194,0.664624,1.013373,0.057957,-0.386602,-0.920424,-0.050571,-0.014002,0.157622,-22.329346,-10.729973,-41.767494,,,,,,,
1512178569.862063,0.066093,0.403587,-2.745555,0.277393,0.492823,0.920001,0.060739,-0.392720,-0.917650,-0.056893,-0.030589,0.069521,-22.105576,-10.954643,-42.219521,,,,,,,
1512178569.882082,0.067168,0.411475,-2.727052,0.381503,0.402280,0.873223,0.061516,-0.399961,-0.914465,-0.069542,-0.065935,0.017370,-21.955734,-10.954414,-42.520790,,,,,,,
1512178569.902071,0.067841,0.421993,-2.709859,0.515858,0.384460,0.805814,0.061842,-0.409579,-0.910176,-0.113417,-0.099698,-0.022258,-21.804337,-10.654182,-42.446922,,,,,,,
1512178569.922060,0.068894,0.432519,-2.694832,0.421974,0.352522,0.679615,0.062500,-0.419159,-0.905759,-0.171723,-0.151276,-0.079562,-21.579636,-10.728844,-42.373863,,,,,,,
1512178569.942080,0.070628,0.438843,-2.683332,0.193918,0.335477,0.480097,0.063882,-0.424892,-0.902987,-0.182382,-0.172962,-0.143888,-21.354080,-10.578514,-42.600716,,,,,,,
1512178569.962070,0.074105,0.440894,-2.675885,0.009419,0.335564,0.289795,0.066957,-0.426748,-0.901888,-0.167558,-0.193308,-0.229261,-21.204269,-10.578285,-42.976982,,,,,,,
1512178569.982059,0.078643,0.439373,-2.672465,-0.136385,0.273800,0.077452,0.071100,-0.425372,-0.902221,-0.136575,-0.179273,-0.326004,-20.754898,-10.727608,-42.905876,,,,,,,
1512178570.002078,0.082524,0.436752,-2.674915,-0.077279,0.053366,-0.219886,0.074692,-0.422998,-0.903047,-0.088532,-0.157721,-0.402755,-21.129898,-10.728172,-42.902687,,,,,,,
1512178570.022067,0.082470,0.438207,-2.684151,0.231777,-0.328039,-0.490712,0.074593,-0.424316,-0.902436,-0.074440,-0.173737,-0.394164,-20.904938,-10.727837,-42.979607,,,,,,,
1512178570.042056,0.080370,0.444511,-2.698526,0.400877,-0.410759,-0.664450,0.072482,-0.430017,-0.899907,-0.111666,-0.247260,-0.259822,-21.434219,-11.703621,-42.750587,,,,,,,
1512178570.062076,0.081738,0.449126,-2.716269,0.190348,-0.206753,-0.817105,0.073550,-0.434179,-0.897819,-0.089404,-0.274546,-0.177559,-21.134064,-11.703178,-42.453148,,,,,,,
1512178570.082065,0.089164,0.448565,-2.735620,0.003570,0.020567,-0.857398,0.080237,-0.433673,-0.897491,0.006525,-0.205441,-0.259690,-21.213562,-12.678307,-42.677956,,,,,,,
1512178570.102053,0.096069,0.449554,-2.754164,0.246377,-0.138365,-0.785139,0.086391,-0.434564,-0.896488,0.063100,-0.064917,-0.351330,-20.913528,-12.677849,-42.605507,,,,,,,
1512178570.122072,0.098190,0.458232,-2.773389,0.676722,-0.371534,-0.840480,0.087919,-0.442363,-0.892516,0.021350,0.052867,-0.249345,-21.142731,-13.653191,-42.229057,,,,,,,
1512178570.142061,0.103031,0.473480,-2.796766,0.943989,-0.171051,-1.006483,0.091534,-0.455986,-0.885267,-0.055172,0.042976,-0.064882,-20.998764,-15.002968,-42.155937,,,,,,,
1512178570.162050,0.115915,0.490625,-2.822588,0.967856,0.186853,-1.013418,0.102013,-0.471177,-0.876119,-0.062874,-0.011214,0.049642,-20.925186,-15.377861,-41.631752,,,,,,,
1512178570.182070,0.133736,0.505532,-2.845606,0.772821,0.412613,-0.811842,0.116659,-0.484273,-0.867104,-0.032934,-0.025065,0.090737,-20.180588,-16.576744,-41.638680,,,,,,,
1512178570.202060,0.150583,0.514769,-2.862656,0.424559,0.428702,-0.572703,0.130573,-0.492333,-0.860557,0.007214,0.007440,0.086555,-19.735947,-17.776085,-41.568062,,,,,,,
1512178570.222049,0.163066,0.517547,-2.873794,0.089497,0.300670,-0.364788,0.141083,-0.494750,-0.857507,0.045425,0.062118,0.083367,-19.287643,-18.150414,-41.572060,,,,,,,
1512178570.242068,0.168380,0.515920,-2.879224,-0.090057,0.022248,-0.157281,0.145773,-0.493336,-0.857537,0.068461,0.121525,0.068337,-18.913834,-18.374855,-41.950356,,,,,,,
1512178570.262057,0.164866,0.514741,-2.881083,0.010121,-0.350622,-0.044124,0.142854,-0.492309,-0.858618,0.057998,0.214371,0.096136,-19.140030,-18.675194,-41.648582,,,,,,,
1512178570.282046,0.155806,0.517843,-2.883116,0.269341,-0.542461,-0.063422,0.134831,-0.495007,-0.858364,0.015850,0.277752,0.200634,-19.288681,-18.375404,-41.647163,,,,,,,
1512178570.302066,0.148158,0.526118,-2.887295,0.525335,-0.406281,-0.130668,0.127653,-0.502180,-0.855289,-0.031721,0.296034,0.317524,-19.668259,-19.425987,-41.344460,,,,,,,
1512178570.322055,0.146798,0.538279,-2.894074,0.700678,-0.120643,-0.212418,0.125588,-0.512659,-0.849357,-0.045097,0.303141,0.380272,-19.895172,-19.876320,-41.117760,,,,,,,
1512178570.342043,0.151420,0.552809,-2.902236,0.800122,0.096371,-0.219816,0.128374,-0.525080,-0.841315,-0.018664,0.295573,0.375342,-19.900055,-21.001335,-40.743294,,,,,,,
1512178570.362063,0.157974,0.567714,-2.909729,0.754375,0.147452,-0.158470,0.132639,-0.537706,-0.832633,0.010503,0.284151,0.333290,-19.675919,-21.225990,-40.445305,,,,,,,
1512178570.382052,0.163287,0.580301,-2.915128,0.581396,0.113913,-0.079008,0.135950,-0.548276,-0.825173,0.024755,0.258939,0.295129,-19.529922,-22.125771,-40.372002,,,,,,,
1512178570.402041,0.166667,0.588319,-2.917863,0.296508,0.085551,-0.000080,0.138005,-0.554964,-0.820347,0.030299,0.220338,0.257481,-19.379059,-21.975548,-39.998207,,,,,,,
1512178570.422060,0.167263,0.590080,-2.916630,-0.057464,0.097567,0.132355,0.138331,-0.556428,-0.819300,0.051580,0.166566,0.202128,-19.756805,-22.576118,-40.070290,,,,,,,
1512178570.442050,0.165717,0.585761,-2.910327,-0.374692,0.092480,0.298310,0.137459,-0.552834,-0.821875,0.069221,0.132241,0.113837,-19.456833,-22.575661,-40.147835,,,,,,,
1512178570.462039,0.161657,0.575348,-2.900439,-0.713326,0.082269,0.340276,0.135041,-0.544127,-0.828064,0.059646,0.122984,0.044327,-19.829483,-21.976219,-40.819359,,,,,,,
1512178570.482059,0.157947,0.558600,-2.890454,-0.987178,0.108694,0.269238,0.133383,-0.529999,-0.837442,0.078989,0.103058,-0.050024,-19.828018,-21.676216,-40.594231,,,,,,,
1512178570.502048,0.155326,0.538423,-2.881011,-1.087190,0.122452,0.258244,0.132815,-0.512783,-0.848183,0.135450,0.065410,-0.138039,-20.123215,-20.551659,-41.116158,,,,,,,
1512178570.522037,0.152930,0.517530,-2.871344,-1.102332,0.155514,0.273064,0.132386,-0.494735,-0.858901,0.173324,0.027770,-0.183503,-19.894653,-19.726326,-41.417686,,,,,,,
1512178570.542056,0.152525,0.497636,-2.861992,-0.991322,0.245418,0.268587,0.133507,-0.477350,-0.868512,0.199699,-0.024130,-0.216861,-20.042145,-19.126534,-41.791130,,,,,,,
1512178570.562045,0.152664,0.481295,-2.852804,-0.804569,0.203948,0.320191,0.134796,-0.462927,-0.876087,0.222260,-0.060419,-0.236950,-20.037384,-18.001534,-42.390617,,,,,,,
1512178570.582033,0.151003,0.467105,-2.842851,-0.782711,0.141967,0.349074,0.134315,-0.450303,-0.882716,0.197045,-0.097335,-0.191549,-19.960007,-17.476418,-42.391014,,,,,,,
1512178570.602053,0.150470,0.450478,-2.832707,-0.975741,0.260216,0.358412,0.134949,-0.435396,-0.890067,0.179138,-0.137510,-0.137506,-19.731522,-16.651070,-42.842537,,,,,,,
1512178570.622042,0.151333,0.429274,-2.819119,-1.246334,0.391887,0.547908,0.137078,-0.416211,-0.898876,0.214668,-0.166858,-0.152226,-19.576981,-15.600838,-43.218330,,,,,,,
1512178570.642031,0.151928,0.404938,-2.800589,-1.354063,0.403081,0.745738,0.139105,-0.393962,-0.908539,0.267389,-0.133947,-0.217361,-19.798431,-14.776176,-43.516029,,,,,,,
1512178570.662050,0.150351,0.382107,-2.778474,-1.215236,0.319629,0.921228,0.138983,-0.372876,-0.917413,0.293558,-0.095339,-0.256217,-19.492874,-13.500710,-43.892998,,,,,,,
1512178570.682039,0.147277,0.364979,-2.754566,-0.878116,0.277196,1.033637,0.137080,-0.356930,-0.924018,0.280569,-0.052250,-0.250237,-19.338104,-12.375481,-44.493752,,,,,,,
1512178570.702029,0.143540,0.355278,-2.730191,-0.519953,0.238094,1.098390,0.134115,-0.347851,-0.927908,0.264124,-0.017566,-0.190821,-19.331665,-10.950478,-44.418083,,,,,,,
1512178570.722049,0.140019,0.351569,-2.706163,-0.259163,0.260870,1.122499,0.131025,-0.344371,-0.929646,0.241335,-0.001881,-0.061596,-18.949341,-9.299904,-44.645500,,,,,,,
1512178570.742038,0.137889,0.351284,-2.681849,-0.148653,0.378362,1.215126,0.129058,-0.344103,-0.930020,0.211793,-0.024198,0.054913,-19.022995,-9.000008,-44.644737,,,,,,,
1512178570.762027,0.137644,0.352370,-2.654799,-0.105676,0.502113,1.330248,0.128780,-0.345123,-0.929681,0.182637,-0.025803,0.114022,-18.647766,-8.924446,-44.872887,,,,,,,
1512178570.782016,0.137505,0.355778,-2.626025,0.053917,0.482961,1.412445,0.128488,-0.348320,-0.928528,0.156363,0.002663,0.143417,-18.423553,-9.074120,-45.099876,,,,,,,
1512178570.802013,0.135921,0.363609,-2.596406,0.274704,0.439398,1.468799,0.126644,-0.355649,-0.925999,0.113361,0.027860,0.202550,-17.892258,-7.723320,-44.653709,,,,,,,
1512178570.822002,0.133993,0.374755,-2.566411,0.399099,0.469451,1.489892,0.124321,-0.366045,-0.922256,0.060402,0.041902,0.275146,-17.967331,-7.723427,-44.803062,,,,,,,
1512178570.841991,0.132190,0.387518,-2.536430,0.468455,0.475975,1.486657,0.122032,-0.377892,-0.917772,0.020180,0.054543,0.324053,-17.742523,-7.723091,-45.179985,,,,,,,
1512178570.862011,0.130216,0.400539,-2.506388,0.436637,0.490901,1.477720,0.119571,-0.389915,-0.913055,-0.031253,0.050864,0.337219,-17.367477,-7.722527,-45.108177,,,,,,,
1512178570.882000,0.127235,0.411507,-2.476871,0.320506,0.407544,1.404320,0.116299,-0.399991,-0.909110,-0.061963,0.055127,0.308128,-17.141800,-7.572197,-45.110008,,,,,,,
1512178570.901989,0.122575,0.419517,-2.448979,0.182386,0.293231,1.305976,0.111666,-0.407319,-0.906434,-0.083391,0.027940,0.242875,-17.290710,-7.347420,-44.958626,,,,,,,
